     3.03           OBSERVATION DATA    M: Mixed            RINEX VERSION / TYPE
GNSS-SDRLIB v1.1                        20230821 043627 UTC PGM / RUN BY / DATE 
                                                            MARKER NAME         
                                                            MARKER NUMBER       
                                                            MARKER TYPE         
                                                            OBSERVER / AGENCY   
GNSS-SDRLIB         GNSS-SDRLIB         1.1                 REC # / TYPE / VERS 
                                                            ANT # / TYPE        
        0.0000        0.0000        0.0000                  APPROX POSITION XYZ 
        0.0000        0.0000        0.0000                  ANTENNA: DELTA H/E/N
G    4 C1C L1C D1C S1C                                      SYS / # / OBS TYPES 
R    4 C1C L1C D1C S1C                                      SYS / # / OBS TYPES 
E    4 C1C L1C D1C S1C                                      SYS / # / OBS TYPES 
J    4 C1C L1C D1C S1C                                      SYS / # / OBS TYPES 
S    4 C1C L1C D1C S1C                                      SYS / # / OBS TYPES 
C    4 C1C L1C D1C S1C                                      SYS / # / OBS TYPES 
I    4 C1C L1C D1C S1C                                      SYS / # / OBS TYPES 
  1970    01    01    00    00   00.0000000     GPS         TIME OF FIRST OBS   
  1970    01    01    00    00   00.0000000     GPS         TIME OF LAST OBS    
G L1C                                                       SYS / PHASE SHIFT   
R L1C                                                       SYS / PHASE SHIFT   
E L1C  0.00000                                              SYS / PHASE SHIFT   
J L1C                                                       SYS / PHASE SHIFT   
S L1C                                                       SYS / PHASE SHIFT   
C L1C  0.00000                                              SYS / PHASE SHIFT   
I L1C  0.00000                                              SYS / PHASE SHIFT   
  0                                                         GLONASS SLOT / FRQ #
 C1C    0.000 C1P    0.000 C2C    0.000 C2P    0.000        GLONASS COD/PHS/BIS 
                                                            END OF HEADER       
> 2023 05 18 00 00 36.0688020  0  1                     
G06  20627166.865       -5760.993        -481.175           0.255  
> 2023 05 18 00 00 36.0688020  0  3                     
G04  23581228.860      -41052.991       -2116.274           0.244  
G05  22535954.502       42027.120        2047.982           0.255  
G06  20627166.865       -5760.993        -481.175           0.255  
> 2023 05 18 00 00 36.0688020  0  4                     
G03  22335911.440      -11016.930        -508.606           0.255  
G04  23581228.860      -41052.991       -2116.274           0.244  
G05  22535954.502       42027.120        2047.982           0.255  
G06  20627166.865       -5760.993        -481.175           0.255  
> 2023 05 18 00 00 36.0688020  0  5                     
G02  24268638.028       86644.072        2905.548           0.239  
G03  22335911.440      -11016.894        -501.208           0.255  
G04  23581228.860      -41052.991       -2116.274           0.244  
G05  22535954.502       42027.120        2047.982           0.255  
G06  20627166.865       -5760.993        -481.175           0.255  
> 2023 05 18 00 00 36.1688020  0  5                     
G02  24268565.128       86934.688        2905.358           0.239  
G03  22335925.010      -11066.962        -499.862           0.255  
G04  23581282.005      -41264.703       -2116.339           0.244  
G05  22535902.043       42231.928        2048.503           0.255  
G06  20627178.177       -5809.162        -482.028           0.255  
> 2023 05 18 00 00 36.2688020  0  5                     
G02  24268491.287       87225.284        2906.108           0.239  
G03  22335938.075      -11117.039        -500.402           0.255  
G04  23581334.908      -41476.417       -2117.418           0.244  
G05  22535849.804       42436.724        2048.288           0.255  
G06  20627190.512       -5857.335        -481.946           0.255  
> 2023 05 18 00 00 36.3688020  0  5                     
G02  24268416.020       87515.899        2908.551           0.239  
G03  22335950.878      -11167.113        -500.722           0.255  
G04  23581388.985      -41688.134       -2118.357           0.244  
G05  22535797.451       42641.522        2047.836           0.255  
G06  20627202.801       -5905.517        -482.112           0.255  
> 2023 05 18 00 00 36.4688020  0  5                     
G02  24268342.755       87806.499        2907.337           0.239  
G03  22335964.070      -11217.186        -500.034           0.255  
G04  23581443.095      -41899.845       -2118.366           0.244  
G05  22535745.272       42846.315        2047.726           0.255  
G06  20627214.943       -5953.700        -482.294           0.255  
> 2023 05 18 00 00 36.5688020  0  5                     
G02  24268268.432       88097.101        2905.189           0.239  
G03  22335977.040      -11267.277        -500.460           0.255  
G04  23581496.977      -42111.549       -2116.346           0.244  
G05  22535692.964       43051.107        2048.251           0.255  
G06  20627226.879       -6001.877        -482.007           0.255  
> 2023 05 18 00 00 36.6688020  0  5                     
G02  24268195.213       88387.675        2903.850           0.239  
G03  22335989.405      -11317.373        -500.825           0.255  
G04  23581550.223      -42323.236       -2114.810           0.244  
G05  22535640.903       43255.899        2048.055           0.255  
G06  20627239.224       -6050.063        -481.905           0.255  
> 2023 05 18 00 00 36.7688020  0  5                     
G02  24268120.741       88678.292        2906.547           0.239  
G03  22336002.157      -11367.473        -501.206           0.255  
G04  23581604.536      -42534.963       -2117.338           0.244  
G05  22535588.485       43460.683        2047.721           0.255  
G06  20627251.865       -6098.248        -481.694           0.255  
> 2023 05 18 00 00 36.8688020  0  5                     
G02  24268046.192       88968.891        2906.878           0.239  
G03  22336014.813      -11417.682        -512.674           0.255  
G04  23581659.839      -42746.671       -2117.994           0.244  
G05  22535536.368       43665.467        2047.475           0.255  
G06  20627263.990       -6146.443        -481.890           0.255  
> 2023 05 18 00 00 36.9688020  0  5                     
G02  24267972.037       89259.521        2908.569           0.239  
G03  22336027.213      -11467.673        -500.946           0.255  
G04  23581713.027      -42958.401       -2119.153           0.244  
G05  22535484.557       43870.250        2047.703           0.255  
G06  20627276.711       -6194.645        -481.953           0.255  
> 2023 05 18 00 00 37.0688020  0  5                     
G02  24267897.572       89550.089        2902.957           0.239  
G03  22336039.620      -11517.783        -501.066           0.255  
G04  23581767.154      -43170.095       -2114.534           0.244  
G05  22535432.404       44075.037        2048.138           0.255  
G06  20627289.408       -6242.845        -481.905           0.255  
> 2023 05 18 00 00 37.1688020  0  5                     
G02  24267823.315       89840.693        2905.735           0.239  
G03  22336053.020      -11567.907        -501.861           0.255  
G04  23581820.829      -43381.803       -2116.764           0.244  
G05  22535379.996       44279.813        2047.682           0.255  
G06  20627301.346       -6291.053        -482.247           0.255  
> 2023 05 18 00 00 37.2688020  0  5                     
G02  24267749.886       90131.296        2904.751           0.239  
G03  22336065.289      -11618.021        -499.886           0.255  
G04  23581875.416      -43593.519       -2116.356           0.244  
G05  22535327.473       44484.590        2047.279           0.255  
G06  20627313.965       -6339.255        -482.691           0.255  
> 2023 05 18 00 00 37.3688020  0  5                     
G02  24267675.034       90421.891        2905.253           0.239  
G03  22336077.512      -11668.146        -500.828           0.255  
G04  23581929.277      -43805.111       -2088.118           0.244  
G05  22535275.507       44689.348        2038.792           0.255  
G06  20627325.934       -6387.466        -482.402           0.255  
> 2023 05 18 00 00 37.4688020  0  5                     
G02  24267602.133       90712.504        2905.953           0.239  
G03  22336090.720      -11717.927        -479.544           0.255  
G04  23581982.261      -44016.761       -2109.171           0.244  
G05  22535223.436       44894.513        2121.762           0.255  
G06  20627338.110       -6435.680        -482.022           0.255  
> 2023 05 18 00 00 37.5688020  0  5                     
G02  24267528.007       91003.113        2907.531           0.239  
G03  22336103.676      -11768.388        -500.910           0.255  
G04  23582036.719      -44228.368       -2101.909           0.244  
G05  22535171.204       45098.911        2060.486           0.255  
G06  20627350.064       -6483.901        -482.579           0.255  
> 2023 05 18 00 00 37.6688020  0  5                     
G02  24267454.574       91293.703        2906.573           0.240  
G03  22336115.541      -11818.492        -490.500           0.255  
G04  23582090.018      -44440.271       -2153.878           0.244  
G05  22535119.265       45303.288        1986.877           0.255  
G06  20627362.916       -6532.119        -482.680           0.255  
> 2023 05 18 00 00 37.7688020  0  5                     
G02  24267379.854       91584.300        2906.849           0.240  
G03  22336129.569      -11868.669        -501.289           0.255  
G04  23582143.852      -44652.109       -2118.106           0.244  
G05  22535067.063       45508.438        2047.213           0.255  
G06  20627374.321       -6580.342        -482.280           0.255  
> 2023 05 18 00 00 37.8688020  0  5                     
G02  24267306.918       91874.887        2906.956           0.239  
G03  22336140.621      -11918.816        -501.391           0.255  
G04  23582197.670      -44863.835       -2118.223           0.244  
G05  22535014.705       45713.210        2047.554           0.255  
G06  20627387.759       -6628.572        -482.023           0.255  
> 2023 05 18 00 00 37.9688020  0  5                     
G02  24267231.786       92165.499        2906.213           0.239  
G03  22336155.592      -11968.967        -501.611           0.255  
G04  23582252.238      -45075.572       -2116.812           0.244  
G05  22534962.734       45917.975        2048.042           0.255  
G06  20627399.009       -6676.803        -482.271           0.255  
> 2023 05 18 00 00 38.0688020  0  5                     
G02  24267158.150       92456.091        2905.716           0.239  
G03  22336168.557      -12019.122        -501.255           0.255  
G04  23582306.605      -45287.298       -2116.882           0.244  
G05  22534910.502       46122.732        2047.512           0.255  
G06  20627411.304       -6725.034        -482.195           0.255  
> 2023 05 18 00 00 38.1688020  0  5                     
G02  24267083.232       92746.684        2904.681           0.239  
G03  22336182.321      -12069.279        -501.598           0.255  
G04  23582360.602      -45499.043       -2117.461           0.244  
G05  22534858.268       46327.478        2047.485           0.255  
G06  20627423.452       -6773.275        -482.189           0.255  
> 2023 05 18 00 00 38.2688020  0  5                     
G02  24267009.577       93037.285        2906.069           0.239  
G03  22336194.882      -12119.496        -506.303           0.255  
G04  23582414.451      -45710.759       -2117.364           0.244  
G05  22534806.117       46532.235        2047.694           0.255  
G06  20627435.573       -6821.519        -482.679           0.255  
> 2023 05 18 00 00 38.3688020  0  5                     
G02  24266934.403       93327.874        2906.967           0.239  
G03  22336206.535      -12169.607        -501.749           0.255  
G04  23582469.280      -45922.483       -2117.300           0.244  
G05  22534753.873       46736.986        2048.059           0.255  
G06  20627448.249       -6869.757        -482.112           0.255  
> 2023 05 18 00 00 38.4688020  0  5                     
G02  24266860.113       93618.464        2905.204           0.239  
G03  22336220.887      -12219.783        -501.193           0.255  
G04  23582522.902      -46134.208       -2117.115           0.244  
G05  22534701.916       46941.726        2047.697           0.255  
G06  20627459.863       -6918.005        -482.803           0.255  
> 2023 05 18 00 00 38.5688020  0  5                     
G02  24266787.082       93909.067        2906.369           0.239  
G03  22336233.842      -12269.950        -501.070           0.255  
G04  23582576.542      -46345.940       -2117.508           0.244  
G05  22534649.466       47146.475        2047.073           0.255  
G06  20627472.291       -6966.266        -483.009           0.255  
> 2023 05 18 00 00 38.6688020  0  5                     
G02  24266712.296       94199.656        2905.937           0.239  
G03  22336245.944      -12320.256        -519.631           0.255  
G04  23582630.373      -46557.667       -2116.843           0.244  
G05  22534597.398       47351.228        2047.687           0.255  
G06  20627485.248       -7014.515        -482.375           0.255  
> 2023 05 18 00 00 38.7688020  0  5                     
G02  24266639.523       94490.257        2905.527           0.239  
G03  22336257.460      -12370.322        -501.674           0.255  
G04  23582683.870      -46769.407       -2117.330           0.244  
G05  22534545.227       47555.971        2047.991           0.255  
G06  20627497.728       -7062.779        -482.909           0.255  
> 2023 05 18 00 00 38.8688020  0  5                     
G02  24266566.447       94780.857        2906.641           0.239  
G03  22336270.410      -12420.510        -501.738           0.255  
G04  23582736.447      -46981.138       -2117.709           0.244  
G05  22534493.091       47760.710        2047.829           0.255  
G06  20627509.232       -7111.041        -482.738           0.255  
> 2023 05 18 00 00 38.9688020  0  5                     
G02  24266491.386       95071.196        2853.984           0.239  
G03  22336281.566      -12470.742        -501.712           0.255  
G04  23582790.865      -47192.873       -2117.500           0.244  
G05  22534440.830       47965.431        2072.308           0.255  
G06  20627522.864       -7159.303        -482.426           0.255  
> 2023 05 18 00 00 39.0688020  0  5                     
G02  24266417.433       95362.044        2906.203           0.239  
G03  22336294.743      -12520.911        -502.092           0.255  
G04  23582845.201      -47404.602       -2117.037           0.244  
G05  22534388.710       48170.186        2047.498           0.255  
G06  20627534.845       -7207.570        -482.445           0.255  
> 2023 05 18 00 00 39.1688020  0  5                     
G02  24266342.930       95652.626        2906.495           0.239  
G03  22336307.814      -12571.093        -502.196           0.255  
G04  23582900.017      -47616.336       -2117.138           0.244  
G05  22534336.476       48375.123        2085.479           0.255  
G06  20627546.984       -7255.847        -482.703           0.255  
> 2023 05 18 00 00 39.2688020  0  5                     
G02  24266268.671       95943.225        2906.160           0.239  
G03  22336320.028      -12621.320        -502.056           0.255  
G04  23582954.384      -47828.075       -2117.207           0.244  
G05  22534284.028       48579.660        2047.088           0.255  
G06  20627559.160       -7304.118        -482.617           0.255  
> 2023 05 18 00 00 39.3688020  0  5                     
G02  24266194.036       96233.822        2905.521           0.239  
G03  22336331.968      -12671.535        -502.242           0.255  
G04  23583008.413      -48039.925       -2092.171           0.244  
G05  22534231.899       48784.386        2046.257           0.255  
G06  20627571.872       -7352.397        -482.771           0.255  
> 2023 05 18 00 00 39.4688020  0  5                     
G02  24266120.523       96524.424        2906.221           0.239  
G03  22336345.438      -12721.755        -502.127           0.255  
G04  23583062.077      -48251.558       -2116.476           0.244  
G05  22534179.924       48989.548        2117.981           0.255  
G06  20627584.447       -7400.681        -482.880           0.255  
> 2023 05 18 00 00 39.5688020  0  5                     
G02  24266047.758       96815.016        2906.369           0.239  
G03  22336359.584      -12771.970        -501.680           0.255  
G04  23583115.333      -48463.304       -2118.265           0.244  
G05  22534127.584       49193.859        2048.090           0.255  
G06  20627596.427       -7448.969        -483.076           0.255  
> 2023 05 18 00 00 39.6688020  0  5                     
G02  24265973.409       97105.592        2905.608           0.239  
G03  22336371.948      -12822.205        -502.474           0.255  
G04  23583169.813      -48675.029       -2117.365           0.244  
G05  22534075.259       49398.576        2047.088           0.255  
G06  20627609.187       -7497.257        -482.947           0.255  
> 2023 05 18 00 00 39.7688020  0  5                     
G02  24265899.269       97396.204        2904.740           0.239  
G03  22336385.712      -12872.431        -502.414           0.255  
G04  23583224.102      -48886.752       -2112.548           0.243  
G05  22534023.761       49603.297        2046.585           0.255  
G06  20627620.405       -7545.550        -482.967           0.255  
> 2023 05 18 00 00 39.8688020  0  5                     
G02  24265825.149       97686.803        2906.253           0.239  
G03  22336398.867      -12922.668        -503.436           0.255  
G04  23583277.956      -49098.531       -2117.680           0.244  
G05  22533970.782       49808.022        2047.682           0.255  
G06  20627632.891       -7593.848        -483.143           0.255  
> 2023 05 18 00 00 39.9688020  0  5                     
G02  24265750.366       97977.396        2906.195           0.239  
G03  22336411.241      -12972.903        -502.155           0.255  
G04  23583331.408      -49310.264       -2117.567           0.244  
G05  22533919.025       50012.735        2046.752           0.255  
G06  20627645.102       -7642.143        -483.024           0.255  
> 2023 05 18 00 00 40.0688020  0  5                     
G02  24265677.357       98267.993        2905.635           0.239  
G03  22336423.397      -13023.151        -502.371           0.255  
G04  23583385.168      -49521.910       -2095.639           0.244  
G05  22533866.783       50217.451        2046.466           0.255  
G06  20627656.957       -7690.446        -482.887           0.255  
> 2023 05 18 00 00 40.1688020  0  5                     
G02  24265603.600       98558.585        2905.988           0.239  
G03  22336436.084      -13073.404        -502.906           0.255  
G04  23583438.657      -49733.778       -2117.492           0.244  
G05  22533814.425       50422.166        2047.122           0.255  
G06  20627670.655       -7738.749        -482.940           0.255  
> 2023 05 18 00 00 40.2688020  0  5                     
G02  24265526.123       98849.178        2905.176           0.239  
G03  22336448.172      -13123.645        -502.175           0.255  
G04  23583494.352      -49945.531       -2116.889           0.244  
G05  22533762.599       50626.881        2047.602           0.255  
G06  20627681.573       -7787.063        -483.343           0.255  
> 2023 05 18 00 00 40.3688020  0  5                     
G02  24265453.789       99139.790        2907.716           0.239  
G03  22336460.747      -13173.908        -502.741           0.255  
G04  23583547.222      -50157.294       -2118.997           0.244  
G05  22533710.753       50831.590        2047.006           0.255  
G06  20627694.652       -7835.375        -482.844           0.255  
> 2023 05 18 00 00 40.4688020  0  5                     
G02  24265379.805       99430.372        2905.912           0.239  
G03  22336474.376      -13224.170        -502.659           0.255  
G04  23583600.967      -50369.038       -2118.062           0.244  
G05  22533658.500       51036.295        2046.682           0.255  
G06  20627707.220       -7883.690        -482.841           0.255  
> 2023 05 18 00 00 40.5688020  0  5                     
G02  24265305.644       99720.965        2905.116           0.239  
G03  22336488.048      -13274.438        -502.406           0.255  
G04  23583655.332      -50580.788       -2116.847           0.244  
G05  22533606.442       51241.004        2046.981           0.255  
G06  20627718.959       -7932.011        -482.546           0.255  
> 2023 05 18 00 00 40.6688020  0  5                     
G02  24265231.157      100011.559        2904.074           0.239  
G03  22336500.284      -13324.638        -521.611           0.255  
G04  23583708.606      -50792.535       -2115.875           0.243  
G05  22533554.646       51445.291        1967.558           0.255  
G06  20627732.251       -7980.333        -482.724           0.255  
> 2023 05 18 00 00 40.7688020  0  5                     
G02  24265157.747      100302.148        2903.004           0.239  
G03  22336513.940      -13374.982        -503.532           0.255  
G04  23583762.957      -51004.289       -2114.827           0.244  
G05  22533502.045       51650.406        2046.200           0.255  
G06  20627744.044       -8028.666        -483.144           0.255  
> 2023 05 18 00 00 40.8688020  0  5                     
G02  24265084.239      100592.742        2904.468           0.239  
G03  22336525.627      -13425.260        -502.941           0.255  
G04  23583817.045      -51216.175       -2090.765           0.244  
G05  22533449.588       51855.503        2129.669           0.255  
G06  20627756.429       -8076.991        -483.003           0.255  
> 2023 05 18 00 00 40.9688020  0  5                     
G02  24265009.560      100883.338        2904.835           0.239  
G03  22336540.574      -13475.550        -502.503           0.255  
G04  23583871.815      -51427.796       -2116.304           0.244  
G05  22533397.418       52059.813        2047.705           0.255  
G06  20627768.229       -8125.324        -483.118           0.255  
> 2023 05 18 00 00 41.0688020  0  5                     
G02  24264935.414      101173.944        2907.559           0.239  
G03  22336552.635      -13525.802        -492.759           0.255  
G04  23583926.317      -51639.561       -2118.351           0.244  
G05  22533345.368       52264.502        2046.605           0.255  
G06  20627780.371       -8173.669        -483.623           0.255  
> 2023 05 18 00 00 41.1688020  0  5                     
G02  24264861.453      101464.534        2907.297           0.239  
G03  22336565.235      -13576.131        -502.300           0.255  
G04  23583979.757      -51851.317       -2117.982           0.244  
G05  22533292.990       52469.194        2046.828           0.255  
G06  20627793.093       -8222.001        -482.734           0.255  
> 2023 05 18 00 00 41.2688020  0  5                     
G02  24264788.991      101755.128        2907.104           0.239  
G03  22336577.124      -13626.433        -503.004           0.255  
G04  23584032.113      -52063.075       -2117.903           0.244  
G05  22533241.128       52673.885        2047.294           0.255  
G06  20627805.440       -8270.354        -483.538           0.255  
> 2023 05 18 00 00 41.3688020  0  5                     
G02  24264712.409      102045.518        2914.745           0.239  
G03  22336590.348      -13676.806        -529.649           0.255  
G04  23584087.480      -52274.806       -2105.997           0.244  
G05  22533188.811       52878.299        1983.820           0.255  
G06  20627817.464       -8318.695        -483.355           0.255  
> 2023 05 18 00 00 41.4688020  0  5                     
G02  24264640.881      102336.325        2906.419           0.239  
G03  22336602.658      -13727.040        -503.421           0.255  
G04  23584140.429      -52486.609       -2118.155           0.244  
G05  22533136.715       53083.259        2046.663           0.255  
G06  20627830.538       -8367.048        -482.883           0.255  
> 2023 05 18 00 00 41.5688020  0  5                     
G02  24264567.110      102626.908        2905.258           0.239  
G03  22336615.705      -13777.348        -502.591           0.255  
G04  23584194.891      -52698.351       -2117.455           0.244  
G05  22533084.780       53287.941        2046.846           0.255  
G06  20627842.655       -8415.402        -483.294           0.255  
> 2023 05 18 00 00 41.6688020  0  5                     
G02  24264492.558      102917.519        2906.472           0.239  
G03  22336628.531      -13827.668        -503.276           0.255  
G04  23584248.840      -52910.433       -2137.892           0.244  
G05  22533032.389       53492.378        1981.181           0.255  
G06  20627854.490       -8463.763        -483.766           0.255  
> 2023 05 18 00 00 41.7688020  0  5                     
G02  24264417.857      103208.114        2905.283           0.239  
G03  22336641.713      -13877.996        -503.656           0.255  
G04  23584302.604      -53121.893       -2116.897           0.244  
G05  22532980.078       53697.301        2046.304           0.255  
G06  20627866.755       -8512.117        -483.225           0.255  
> 2023 05 18 00 00 41.8688020  0  5                     
G02  24264343.909      103498.698        2906.701           0.239  
G03  22336654.459      -13928.321        -503.684           0.255  
G04  23584356.663      -53333.654       -2118.438           0.244  
G05  22532927.978       53901.981        2046.724           0.255  
G06  20627879.328       -8560.484        -483.688           0.255  
> 2023 05 18 00 00 41.9688020  0  5                     
G02  24264269.143      103789.303        2907.317           0.239  
G03  22336668.119      -13978.651        -503.175           0.255  
G04  23584411.320      -53545.431       -2117.990           0.244  
G05  22532875.765       54106.657        2046.679           0.255  
G06  20627891.692       -8608.856        -484.091           0.255  
> 2023 05 18 00 00 42.0688020  0  5                     
G02  24264194.907      104079.897        2906.505           0.239  
G03  22336679.845      -14028.991        -503.441           0.255  
G04  23584465.341      -53757.198       -2117.875           0.244  
G05  22532824.033       54311.333        2046.537           0.255  
G06  20627904.014       -8657.222        -483.471           0.255  
> 2023 05 18 00 00 42.1688020  0  5                     
G02  24264121.720      104370.481        2905.305           0.239  
G03  22336692.811      -14079.314        -502.951           0.255  
G04  23584519.070      -53968.957       -2117.100           0.244  
G05  22532771.498       54516.007        2047.524           0.255  
G06  20627916.285       -8705.606        -483.743           0.255  
> 2023 05 18 00 00 42.2688020  0  5                     
G02  24264047.858      104661.085        2906.041           0.239  
G03  22336705.565      -14129.657        -503.535           0.255  
G04  23584572.031      -54180.631       -2099.202           0.244  
G05  22532719.319       54720.670        2047.268           0.255  
G06  20627928.733       -8753.985        -483.719           0.255  
> 2023 05 18 00 00 42.3688020  0  5                     
G02  24263973.505      104951.671        2904.396           0.239  
G03  22336717.355      -14179.811        -487.564           0.255  
G04  23584625.997      -54392.501       -2116.550           0.244  
G05  22532667.224       54925.400        2071.899           0.255  
G06  20627941.441       -8802.365        -483.844           0.255  
> 2023 05 18 00 00 42.4688020  0  5                     
G02  24263899.892      105242.274        2906.382           0.239  
G03  22336731.375      -14230.329        -518.851           0.255  
G04  23584679.848      -54604.284       -2118.429           0.244  
G05  22532615.044       55130.235        2098.282           0.255  
G06  20627953.328       -8850.741        -483.523           0.255  
> 2023 05 18 00 00 42.5688020  0  5                     
G02  24263824.685      105532.877        2906.025           0.239  
G03  22336744.010      -14280.720        -504.038           0.255  
G04  23584734.621      -54816.067       -2118.096           0.244  
G05  22532562.954       55334.667        2047.078           0.255  
G06  20627965.641       -8899.133        -483.718           0.255  
> 2023 05 18 00 00 42.6688020  0  5                     
G02  24263751.344      105823.465        2905.798           0.239  
G03  22336756.408      -14330.999        -510.415           0.255  
G04  23584788.932      -55027.839       -2107.249           0.244  
G05  22532511.008       55539.437        2087.636           0.255  
G06  20627978.104       -8947.532        -484.380           0.255  
> 2023 05 18 00 00 42.7688020  0  5                     
G02  24263676.990      106114.067        2906.489           0.239  
G03  22336769.852      -14381.453        -504.530           0.255  
G04  23584842.301      -55239.601       -2117.190           0.244  
G05  22532458.800       55743.990        2047.422           0.255  
G06  20627990.200       -8995.921        -483.410           0.255  
> 2023 05 18 00 00 42.8688020  0  5                     
G02  24263603.244      106404.661        2906.892           0.239  
G03  22336781.808      -14431.821        -503.975           0.255  
G04  23584896.288      -55451.386       -2117.867           0.244  
G05  22532407.013       55948.631        2046.703           0.255  
G06  20628002.945       -9044.325        -483.979           0.255  
> 2023 05 18 00 00 42.9688020  0  5                     
G02  24263529.489      106695.058        2863.205           0.239  
G03  22336794.882      -14482.221        -513.056           0.255  
G04  23584950.515      -55663.201       -2099.257           0.244  
G05  22532354.752       56153.436        2087.577           0.255  
G06  20628015.589       -9092.727        -483.795           0.255  
> 2023 05 18 00 00 43.0688020  0  5                     
G02  24263455.374      106985.842        2905.385           0.239  
G03  22336808.219      -14532.571        -503.774           0.255  
G04  23585004.536      -55874.941       -2117.121           0.244  
G05  22532302.100       56357.937        2047.194           0.255  
G06  20628027.322       -9141.135        -484.098           0.255  
> 2023 05 18 00 00 43.1688020  0  5                     
G02  24263381.092      107276.447        2905.683           0.239  
G03  22336821.877      -14582.957        -504.226           0.255  
G04  23585058.617      -56086.725       -2117.945           0.244  
G05  22532250.073       56562.577        2046.446           0.255  
G06  20628039.144       -9189.541        -484.082           0.255  
> 2023 05 18 00 00 43.2688020  0  5                     
G02  24263306.451      107567.035        2905.637           0.239  
G03  22336834.648      -14633.347        -503.527           0.255  
G04  23585112.709      -56298.497       -2117.435           0.244  
G05  22532197.689       56767.218        2045.863           0.255  
G06  20628051.618       -9237.949        -483.821           0.255  
> 2023 05 18 00 00 43.3688020  0  5                     
G02  24263232.306      107857.633        2905.728           0.239  
G03  22336847.641      -14683.737        -503.623           0.255  
G04  23585166.601      -56510.289       -2117.863           0.244  
G05  22532145.654       56971.864        2046.729           0.255  
G06  20628063.874       -9286.365        -483.491           0.255  
> 2023 05 18 00 00 43.4688020  0  5                     
G02  24263159.913      108148.224        2904.729           0.239  
G03  22336858.696      -14734.136        -503.792           0.255  
G04  23585219.459      -56722.068       -2116.927           0.244  
G05  22532093.586       57176.509        2046.199           0.255  
G06  20628077.168       -9334.787        -484.013           0.255  
> 2023 05 18 00 00 43.5688020  0  5                     
G02  24263085.257      108438.830        2906.422           0.239  
G03  22336869.951      -14784.540        -503.810           0.255  
G04  23585273.931      -56933.860       -2117.974           0.244  
G05  22532041.623       57381.147        2046.382           0.255  
G06  20628090.148       -9383.217        -484.600           0.255  
> 2023 05 18 00 00 43.6688020  0  5                     
G02  24263011.901      108729.423        2906.330           0.239  
G03  22336886.247      -14834.948        -504.005           0.255  
G04  23585327.169      -57145.647       -2118.273           0.244  
G05  22531989.477       57585.791        2047.103           0.255  
G06  20628101.030       -9431.634        -484.355           0.255  
> 2023 05 18 00 00 43.7688020  0  5                     
G02  24262936.861      109020.014        2905.943           0.239  
G03  22336899.186      -14885.356        -504.120           0.255  
G04  23585381.723      -57357.427       -2117.217           0.244  
G05  22531937.300       57790.427        2045.997           0.255  
G06  20628113.080       -9480.074        -484.551           0.255  
> 2023 05 18 00 00 43.8688020  0  5                     
G02  24262862.468      109310.605        2905.637           0.239  
G03  22336910.814      -14935.771        -504.261           0.255  
G04  23585436.158      -57569.217       -2117.942           0.244  
G05  22531885.247       57995.063        2046.955           0.255  
G06  20628126.120       -9528.499        -484.614           0.255  
> 2023 05 18 00 00 43.9688020  0  5                     
G02  24262789.340      109601.304        2878.430           0.239  
G03  22336923.668      -14986.098        -493.408           0.255  
G04  23585489.333      -57781.187       -2117.689           0.244  
G05  22531832.913       58199.177        1962.072           0.255  
G06  20628138.913       -9576.939        -483.919           0.255  
> 2023 05 18 00 00 44.0688020  0  5                     
G02  24262714.682      109891.801        2904.882           0.239  
G03  22336938.831      -15036.621        -504.399           0.255  
G04  23585543.602      -57992.795       -2116.612           0.244  
G05  22531780.555       58404.323        2046.140           0.255  
G06  20628150.517       -9625.377        -484.975           0.255  
> 2023 05 18 00 00 44.1688020  0  5                     
G02  24262640.260      110182.378        2905.191           0.239  
G03  22336951.366      -15087.124        -507.762           0.255  
G04  23585597.710      -58204.849       -2124.591           0.244  
G05  22531728.770       58608.951        2046.464           0.255  
G06  20628162.539       -9673.819        -484.962           0.255  
> 2023 05 18 00 00 44.2688020  0  5                     
G02  24262566.084      110472.995        2905.375           0.239  
G03  22336962.508      -15137.511        -503.072           0.255  
G04  23585652.308      -58416.395       -2117.515           0.244  
G05  22531676.427       58813.578        2046.195           0.255  
G06  20628175.505       -9722.271        -484.532           0.255  
> 2023 05 18 00 00 44.3688020  0  5                     
G02  24262491.311      110763.589        2906.209           0.239  
G03  22336975.539      -15187.925        -504.449           0.255  
G04  23585708.027      -58628.195       -2118.537           0.244  
G05  22531623.948       59018.207        2046.141           0.255  
G06  20628187.491       -9770.722        -484.507           0.255  
> 2023 05 18 00 00 44.4688020  0  5                     
G02  24262416.187      111054.183        2905.542           0.239  
G03  22336987.827      -15238.363        -504.593           0.255  
G04  23585761.773      -58839.987       -2118.500           0.244  
G05  22531572.292       59222.828        2047.109           0.255  
G06  20628200.248       -9819.177        -484.538           0.255  
> 2023 05 18 00 00 44.5688020  0  5                     
G02  24262342.807      111345.311        2895.101           0.239  
G03  22337000.240      -15288.766        -493.155           0.255  
G04  23585815.258      -59052.432       -2158.383           0.244  
G05  22531520.081       59427.348        2029.448           0.255  
G06  20628212.828       -9867.632        -484.751           0.255  
> 2023 05 18 00 00 44.6688020  0  5                     
G02  24262270.826      111635.373        2905.001           0.239  
G03  22337015.006      -15339.260        -504.557           0.255  
G04  23585867.534      -59263.579       -2116.977           0.244  
G05  22531467.772       59632.064        2046.623           0.255  
G06  20628224.553       -9916.095        -484.567           0.255  
> 2023 05 18 00 00 44.7688020  0  5                     
G02  24262194.832      111925.952        2905.964           0.239  
G03  22337025.773      -15389.752        -511.631           0.255  
G04  23585923.004      -59475.178       -2106.245           0.244  
G05  22531416.093       59836.676        2046.414           0.255  
G06  20628237.557       -9964.556        -484.494           0.255  
> 2023 05 18 00 00 44.8688020  0  5                     
G02  24262121.799      112216.547        2906.546           0.239  
G03  22337039.840      -15440.176        -504.746           0.255  
G04  23585977.146      -59687.168       -2117.878           0.244  
G05  22531363.042       60041.292        2046.127           0.255  
G06  20628249.555      -10013.026        -484.763           0.255  
> 2023 05 18 00 00 44.9688020  0  5                     
G02  24262046.851      112507.137        2904.792           0.239  
G03  22337052.195      -15490.640        -504.734           0.255  
G04  23586031.191      -59898.718       -2076.861           0.244  
G05  22531310.918       60245.684        2028.010           0.255  
G06  20628262.342      -10061.495        -484.304           0.255  
> 2023 05 18 00 00 45.0688020  0  5                     
G02  24261972.591      112797.722        2905.340           0.239  
G03  22337066.205      -15541.091        -498.017           0.255  
G04  23586084.817      -60110.777       -2117.101           0.244  
G05  22531259.336       60450.504        2046.060           0.255  
G06  20628273.789      -10109.972        -485.056           0.255  
> 2023 05 18 00 00 45.1688020  0  5                     
G02  24261899.437      113088.315        2906.158           0.239  
G03  22337078.411      -15591.586        -504.715           0.255  
G04  23586137.963      -60322.581       -2117.569           0.244  
G05  22531206.808       60655.117        2046.556           0.255  
G06  20628286.385      -10158.448        -484.743           0.255  
> 2023 05 18 00 00 45.2688020  0  5                     
G02  24261826.787      113378.918        2906.112           0.239  
G03  22337089.511      -15642.066        -504.860           0.255  
G04  23586191.379      -60534.396       -2117.302           0.244  
G05  22531154.902       60859.722        2046.727           0.255  
G06  20628299.324      -10206.929        -484.921           0.255  
> 2023 05 18 00 00 45.3688020  0  5                     
G02  24261750.501      113669.488        2909.330           0.239  
G03  22337103.578      -15692.617        -515.952           0.255  
G04  23586246.804      -60746.026       -2088.466           0.244  
G05  22531103.012       61064.521        2091.231           0.255  
G06  20628311.911      -10255.415        -484.685           0.255  
> 2023 05 18 00 00 45.4688020  0  5                     
G02  24261677.839      113960.094        2906.879           0.239  
G03  22337117.604      -15743.036        -504.747           0.255  
G04  23586300.121      -60958.006       -2118.811           0.244  
G05  22531050.349       61268.928        2046.876           0.255  
G06  20628323.365      -10303.903        -484.834           0.255  
> 2023 05 18 00 00 45.5688020  0  5                     
G02  24261603.983      114250.550        2859.935           0.239  
G03  22337130.382      -15793.416        -508.647           0.255  
G04  23586354.296      -61169.811       -2118.438           0.244  
G05  22530998.334       61473.411        2016.480           0.255  
G06  20628335.621      -10352.398        -484.978           0.255  
> 2023 05 18 00 00 45.6688020  0  5                     
G02  24261530.110      114541.274        2905.643           0.239  
G03  22337142.246      -15844.024        -505.477           0.255  
G04  23586408.128      -61381.632       -2118.211           0.244  
G05  22530945.982       61678.116        2046.083           0.255  
G06  20628348.806      -10400.887        -484.742           0.255  
> 2023 05 18 00 00 45.7688020  0  5                     
G02  24261456.487      114831.862        2906.667           0.239  
G03  22337154.687      -15894.524        -504.577           0.255  
G04  23586460.888      -61593.433       -2118.750           0.244  
G05  22530894.304       61882.710        2045.928           0.255  
G06  20628361.376      -10449.388        -485.153           0.255  
> 2023 05 18 00 00 45.8688020  0  5                     
G02  24261379.815      115122.440        2905.727           0.239  
G03  22337168.480      -15945.034        -505.024           0.255  
G04  23586515.949      -61805.306       -2117.532           0.244  
G05  22530841.933       62087.296        2046.213           0.255  
G06  20628373.482      -10497.884        -484.964           0.255  
> 2023 05 18 00 00 45.9688020  0  5                     
G02  24261306.117      115413.034        2906.226           0.239  
G03  22337180.964      -15995.546        -505.268           0.255  
G04  23586570.052      -62017.054       -2118.357           0.244  
G05  22530790.441       62291.890        2046.074           0.255  
G06  20628385.504      -10546.390        -484.818           0.255  
> 2023 05 18 00 00 46.0688020  0  5                     
G02  24261233.498      115703.612        2905.114           0.239  
G03  22337193.657      -16046.059        -504.872           0.255  
G04  23586623.159      -62228.860       -2117.961           0.244  
G05  22530737.956       62496.472        2045.393           0.255  
G06  20628397.884      -10594.902        -485.158           0.255  
> 2023 05 18 00 00 46.1688020  0  5                     
G02  24261158.406      115994.129        2921.400           0.239  
G03  22337207.247      -16096.579        -505.124           0.255  
G04  23586677.462      -62440.676       -2118.074           0.244  
G05  22530685.597       62701.364        2082.129           0.255  
G06  20628410.188      -10643.413        -485.086           0.255  
> 2023 05 18 00 00 46.2688020  0  5                     
G02  24261086.460      116284.797        2905.666           0.240  
G03  22337218.999      -16147.171        -522.264           0.255  
G04  23586731.208      -62652.719       -2172.056           0.244  
G05  22530633.546       62905.414        1996.148           0.255  
G06  20628422.899      -10691.928        -484.858           0.255  
> 2023 05 18 00 00 46.3688020  0  5                     
G02  24261011.656      116575.394        2906.564           0.239  
G03  22337233.880      -16197.635        -505.253           0.255  
G04  23586785.565      -62864.312       -2119.202           0.244  
G05  22530581.318       63110.220        2045.670           0.255  
G06  20628434.236      -10740.445        -484.994           0.255  
> 2023 05 18 00 00 46.4688020  0  5                     
G02  24260937.993      116865.967        2905.077           0.239  
G03  22337246.112      -16248.166        -505.503           0.255  
G04  23586839.218      -63076.034       -2106.373           0.244  
G05  22530529.304       63314.800        2046.055           0.255  
G06  20628447.326      -10788.969        -485.216           0.255  
> 2023 05 18 00 00 46.5688020  0  5                     
G02  24260861.288      117156.563        2906.256           0.240  
G03  22337259.475      -16298.707        -505.250           0.255  
G04  23586895.366      -63287.945       -2118.535           0.244  
G05  22530477.057       63519.363        2045.009           0.255  
G06  20628460.249      -10837.491        -485.185           0.255  
> 2023 05 18 00 00 46.6688020  0  5                     
G02  24260789.251      117447.158        2905.466           0.239  
G03  22337273.804      -16349.248        -505.448           0.255  
G04  23586948.620      -63499.770       -2117.791           0.244  
G05  22530424.953       63723.826        2032.685           0.255  
G06  20628470.934      -10886.023        -485.339           0.255  
> 2023 05 18 00 00 46.7688020  0  5                     
G02  24260715.920      117737.743        2905.888           0.239  
G03  22337284.117      -16399.794        -505.713           0.255  
G04  23587002.530      -63711.596       -2118.480           0.244  
G05  22530373.081       63928.507        2045.607           0.255  
G06  20628484.459      -10934.559        -485.590           0.255  
> 2023 05 18 00 00 46.8688020  0  5                     
G02  24260639.757      118028.320        2904.546           0.239  
G03  22337295.145      -16450.336        -505.068           0.255  
G04  23587055.948      -63923.406       -2116.916           0.244  
G05  22530321.323       64133.065        2045.358           0.255  
G06  20628498.085      -10983.093        -485.307           0.255  
> 2023 05 18 00 00 46.9688020  0  5                     
G02  24260566.689      118318.925        2905.987           0.239  
G03  22337310.166      -16501.176        -529.322           0.255  
G04  23587109.627      -64135.777       -2227.329           0.244  
G05  22530268.998       64337.631        2045.041           0.255  
G06  20628509.047      -11031.634        -485.626           0.255  
> 2023 05 18 00 00 47.0688020  0  5                     
G02  24260492.793      118609.543        2907.223           0.239  
G03  22337322.990      -16551.462        -505.511           0.255  
G04  23587163.014      -64347.088       -2119.774           0.244  
G05  22530216.936       64542.598        2127.003           0.255  
G06  20628521.397      -11080.175        -485.384           0.255  
> 2023 05 18 00 00 47.1688020  0  5                     
G02  24260418.162      118900.090        2903.495           0.239  
G03  22337334.906      -16602.015        -505.996           0.255  
G04  23587218.052      -64558.871       -2115.960           0.244  
G05  22530164.884       64746.767        2045.752           0.255  
G06  20628533.888      -11128.727        -485.443           0.255  
> 2023 05 18 00 00 47.2688020  0  5                     
G02  24260346.957      119190.694        2905.175           0.239  
G03  22337347.005      -16652.521        -499.038           0.255  
G04  23587270.177      -64770.713       -2117.671           0.244  
G05  22530112.276       64951.323        2045.122           0.255  
G06  20628546.767      -11177.274        -485.711           0.255  
> 2023 05 18 00 00 47.3688020  0  5                     
G02  24260271.093      119481.268        2906.103           0.239  
G03  22337361.676      -16703.162        -506.087           0.255  
G04  23587324.894      -64982.542       -2118.235           0.244  
G05  22530060.177       65155.889        2046.010           0.255  
G06  20628557.749      -11225.824        -485.409           0.255  
> 2023 05 18 00 00 47.4688020  0  5                     
G02  24260196.231      119771.841        2905.210           0.239  
G03  22337372.335      -16753.742        -505.983           0.255  
G04  23587379.024      -65194.140       -2090.097           0.244  
G05  22530008.016       65360.443        2045.335           0.255  
G06  20628571.745      -11274.377        -485.225           0.255  
> 2023 05 18 00 00 47.5688020  0  5                     
G02  24260123.685      120062.418        2903.561           0.240  
G03  22337387.420      -16804.317        -505.993           0.255  
G04  23587433.172      -65406.178       -2116.572           0.244  
G05  22529955.857       65564.999        2045.667           0.255  
G06  20628583.044      -11322.939        -485.340           0.255  
> 2023 05 18 00 00 47.6688020  0  5                     
G02  24260049.016      120353.035        2905.068           0.240  
G03  22337401.747      -16854.905        -505.731           0.255  
G04  23587486.251      -65618.025       -2117.614           0.244  
G05  22529904.291       65769.550        2045.387           0.255  
G06  20628594.666      -11371.506        -485.584           0.255  
> 2023 05 18 00 00 47.7688020  0  5                     
G02  24259974.455      120643.633        2906.161           0.239  
G03  22337412.711      -16905.505        -506.704           0.255  
G04  23587541.059      -65829.863       -2117.914           0.244  
G05  22529851.748       65974.096        2045.163           0.255  
G06  20628607.828      -11420.070        -485.197           0.255  
> 2023 05 18 00 00 47.8688020  0  5                     
G02  24259900.887      120934.208        2905.179           0.239  
G03  22337427.502      -16956.098        -505.594           0.255  
G04  23587594.741      -66041.698       -2117.730           0.244  
G05  22529800.260       66178.647        2045.098           0.255  
G06  20628619.826      -11468.646        -485.961           0.255  
> 2023 05 18 00 00 47.9688020  0  5                     
G02  24259826.658      121224.800        2905.772           0.239  
G03  22337438.197      -17006.700        -506.402           0.255  
G04  23587648.738      -66253.535       -2118.662           0.244  
G05  22529747.609       66383.197        2045.314           0.255  
G06  20628633.714      -11517.214        -485.427           0.255  
> 2023 05 18 00 00 48.0688020  0  5                     
G02  24259750.876      121515.395        2906.956           0.239  
G03  22337450.113      -17057.304        -506.653           0.255  
G04  23587704.542      -66465.367       -2118.917           0.244  
G05  22529695.349       66587.740        2046.033           0.255  
G06  20628645.748      -11565.799        -485.789           0.255  
> 2023 05 18 00 00 48.1688020  0  5                     
G02  24259678.644      121805.968        2905.699           0.239  
G03  22337464.231      -17107.905        -505.012           0.255  
G04  23587757.897      -66676.991       -2108.783           0.244  
G05  22529643.050       66792.276        2045.556           0.255  
G06  20628657.826      -11614.376        -486.372           0.255  
> 2023 05 18 00 00 48.2688020  0  5                     
G02  24259604.957      122096.567        2906.193           0.239  
G03  22337476.455      -17158.529        -505.377           0.255  
G04  23587811.953      -66889.027       -2118.272           0.244  
G05  22529591.267       66996.482        1989.465           0.255  
G06  20628670.180      -11662.958        -485.966           0.255  
> 2023 05 18 00 00 48.3688020  0  5                     
G02  24259530.497      122387.154        2905.868           0.239  
G03  22337489.294      -17209.143        -505.450           0.255  
G04  23587865.651      -67100.871       -2118.536           0.244  
G05  22529539.094       67201.352        2044.709           0.255  
G06  20628682.462      -11711.548        -485.921           0.255  
> 2023 05 18 00 00 48.4688020  0  5                     
G02  24259456.522      122677.746        2904.879           0.239  
G03  22337503.428      -17259.768        -506.047           0.255  
G04  23587918.968      -67312.717       -2118.446           0.244  
G05  22529486.700       67405.891        2045.631           0.255  
G06  20628694.607      -11760.140        -486.119           0.255  
> 2023 05 18 00 00 48.5688020  0  5                     
G02  24259382.057      122968.329        2904.891           0.239  
G03  22337516.174      -17310.406        -506.906           0.255  
G04  23587973.072      -67524.365       -2091.445           0.244  
G05  22529434.549       67610.421        2044.802           0.255  
G06  20628707.088      -11808.733        -486.107           0.255  
> 2023 05 18 00 00 48.6688020  0  5                     
G02  24259307.722      123258.923        2906.361           0.239  
G03  22337529.296      -17361.035        -506.693           0.255  
G04  23588026.530      -67736.392       -2118.277           0.244  
G05  22529382.552       67814.952        2045.420           0.255  
G06  20628719.303      -11857.322        -485.709           0.255  
> 2023 05 18 00 00 48.7688020  0  5                     
G02  24259234.211      123549.521        2905.906           0.239  
G03  22337542.858      -17411.663        -505.948           0.255  
G04  23588081.178      -67948.056       -2089.816           0.244  
G05  22529330.183       68019.482        2044.562           0.255  
G06  20628732.033      -11905.930        -485.778           0.255  
> 2023 05 18 00 00 48.8688020  0  5                     
G02  24259160.073      123840.098        2906.151           0.239  
G03  22337555.920      -17462.302        -506.027           0.255  
G04  23588135.100      -68160.071       -2118.259           0.244  
G05  22529277.723       68224.013        2045.614           0.255  
G06  20628745.318      -11954.536        -485.792           0.255  
> 2023 05 18 00 00 48.9688020  0  5                     
G02  24259085.164      124130.697        2906.808           0.239  
G03  22337568.724      -17512.956        -506.435           0.255  
G04  23588189.624      -68371.925       -2118.577           0.244  
G05  22529225.848       68428.532        2045.292           0.255  
G06  20628757.861      -12003.145        -485.900           0.255  
> 2023 05 18 00 00 49.0688020  0  5                     
G02  24259011.681      124421.295        2906.484           0.239  
G03  22337581.230      -17563.610        -507.321           0.255  
G04  23588242.821      -68583.680       -2055.488           0.244  
G05  22529173.947       68633.055        2045.243           0.255  
G06  20628769.781      -12051.753        -485.873           0.255  
> 2023 05 18 00 00 49.1688020  0  5                     
G02  24258939.990      124711.852        2903.852           0.239  
G03  22337593.664      -17614.263        -507.672           0.255  
G04  23588296.142      -68795.602       -2117.039           0.244  
G05  22529121.594       68837.574        2045.115           0.255  
G06  20628781.462      -12100.368        -486.173           0.255  
> 2023 05 18 00 00 49.2688020  0  5                     
G02  24258864.184      125002.459        2906.656           0.239  
G03  22337607.576      -17664.915        -507.745           0.255  
G04  23588351.101      -69007.465       -2119.738           0.244  
G05  22529069.087       69042.087        2044.833           0.255  
G06  20628793.149      -12148.989        -485.912           0.255  
> 2023 05 18 00 00 49.3688020  0  5                     
G02  24258789.907      125293.045        2906.510           0.239  
G03  22337620.104      -17715.580        -506.813           0.255  
G04  23588404.721      -69219.309       -2119.694           0.244  
G05  22529017.754       69246.604        2044.956           0.255  
G06  20628805.841      -12197.612        -486.129           0.255  
> 2023 05 18 00 00 49.4688020  0  5                     
G02  24258715.356      125583.641        2905.500           0.239  
G03  22337633.492      -17766.247        -506.274           0.255  
G04  23588459.240      -69431.165       -2117.367           0.244  
G05  22528965.927       69451.116        2044.763           0.255  
G06  20628818.403      -12246.235        -486.083           0.255  
> 2023 05 18 00 00 49.5688020  0  5                     
G02  24258641.611      125874.208        2904.228           0.239  
G03  22337644.728      -17816.927        -507.535           0.255  
G04  23588513.087      -69643.328       -2171.618           0.244  
G05  22528913.700       69655.489        1997.749           0.255  
G06  20628831.438      -12294.863        -486.205           0.255  
> 2023 05 18 00 00 49.6688020  0  5                     
G02  24258566.821      126164.819        2906.325           0.239  
G03  22337658.481      -17867.602        -507.193           0.255  
G04  23588567.608      -69854.875       -2118.375           0.244  
G05  22528861.673       69860.140        2045.129           0.255  
G06  20628843.541      -12343.493        -486.380           0.255  
> 2023 05 18 00 00 49.7688020  0  5                     
G02  24258493.537      126455.384        2904.820           0.239  
G03  22337671.752      -17918.279        -506.772           0.255  
G04  23588620.976      -70066.653       -2081.875           0.244  
G05  22528809.564       70064.643        2045.236           0.255  
G06  20628855.761      -12392.133        -486.718           0.255  
> 2023 05 18 00 00 49.8688020  0  5                     
G02  24258419.742      126745.980        2906.013           0.239  
G03  22337685.767      -17968.963        -506.913           0.255  
G04  23588674.477      -70278.572       -2118.491           0.244  
G05  22528757.370       70269.148        2045.013           0.255  
G06  20628867.262      -12440.772        -486.767           0.255  
> 2023 05 18 00 00 49.9688020  0  5                     
G02  24258345.645      127036.571        2905.258           0.239  
G03  22337698.496      -18019.657        -506.381           0.255  
G04  23588728.749      -70490.423       -2117.268           0.244  
G05  22528705.143       70473.645        2045.150           0.255  
G06  20628879.907      -12489.407        -486.544           0.255  
> 2023 05 18 00 00 50.0688020  0  5                     
G02  24258272.384      127327.149        2905.944           0.239  
G03  22337711.121      -18070.354        -506.013           0.255  
G04  23588782.601      -70702.283       -2118.683           0.244  
G05  22528652.967       70678.141        2044.930           0.255  
G06  20628893.000      -12538.051        -486.568           0.255  
> 2023 05 18 00 00 50.1688020  0  5                     
G02  24258197.419      127617.152        2854.552           0.239  
G03  22337723.154      -18121.056        -506.324           0.255  
G04  23588837.058      -70914.244       -2208.973           0.244  
G05  22528600.972       70882.639        2045.062           0.255  
G06  20628905.294      -12586.704        -486.794           0.255  
> 2023 05 18 00 00 50.2688020  0  5                     
G02  24258123.126      127908.332        2906.645           0.239  
G03  22337735.365      -18171.758        -506.407           0.255  
G04  23588891.496      -71126.008       -2120.532           0.244  
G05  22528548.641       71087.140        2045.321           0.255  
G06  20628917.209      -12635.355        -486.695           0.255  
> 2023 05 18 00 00 50.3688020  0  5                     
G02  24258048.861      128198.938        2906.499           0.239  
