     3.03           OBSERVATION DATA    M: Mixed            RINEX VERSION / TYPE
GNSS-SDRLIB v1.1                        20230710 104239 UTC PGM / RUN BY / DATE 
                                                            MARKER NAME         
                                                            MARKER NUMBER       
                                                            MARKER TYPE         
                                                            OBSERVER / AGENCY   
GNSS-SDRLIB         GNSS-SDRLIB         1.1                 REC # / TYPE / VERS 
                                                            ANT # / TYPE        
        0.0000        0.0000        0.0000                  APPROX POSITION XYZ 
        0.0000        0.0000        0.0000                  ANTENNA: DELTA H/E/N
G    4 C1C L1C D1C S1C                                      SYS / # / OBS TYPES 
R    4 C1C L1C D1C S1C                                      SYS / # / OBS TYPES 
E    4 C1C L1C D1C S1C                                      SYS / # / OBS TYPES 
J    4 C1C L1C D1C S1C                                      SYS / # / OBS TYPES 
S    4 C1C L1C D1C S1C                                      SYS / # / OBS TYPES 
C    4 C1C L1C D1C S1C                                      SYS / # / OBS TYPES 
I    4 C1C L1C D1C S1C                                      SYS / # / OBS TYPES 
  1970    01    01    00    00   00.0000000     GPS         TIME OF FIRST OBS   
  1970    01    01    00    00   00.0000000     GPS         TIME OF LAST OBS    
G L1C                                                       SYS / PHASE SHIFT   
R L1C                                                       SYS / PHASE SHIFT   
E L1C  0.00000                                              SYS / PHASE SHIFT   
J L1C                                                       SYS / PHASE SHIFT   
S L1C                                                       SYS / PHASE SHIFT   
C L1C  0.00000                                              SYS / PHASE SHIFT   
I L1C  0.00000                                              SYS / PHASE SHIFT   
  0                                                         GLONASS SLOT / FRQ #
 C1C    0.000 C1P    0.000 C2C    0.000 C2P    0.000        GLONASS COD/PHS/BIS 
                                                            END OF HEADER       
> 2023 05 18 00 00 36.0688020  0  1                     
G07  20626255.849      -13510.001       -1309.150           0.248  
> 2023 05 18 00 00 36.0688020  0  2                     
G06  20627155.504       -5938.718        -465.593           0.255  
G07  23403727.577      -13497.873       -1309.179           0.248  
> 2023 05 18 00 00 36.0688020  0  3                     
G03  22336826.881      -10714.723        -484.101           0.255  
G06  20627155.504       -5938.718        -465.593           0.255  
G07  23403727.577      -13497.873       -1309.179           0.248  
> 2023 05 18 00 00 36.0688020  0  4                     
G03  22336826.881      -10714.734        -466.343           0.255  
G04  23613783.363      -41924.419       -2101.896           0.244  
G06  20627155.504       -5938.718        -465.593           0.255  
G07  23403727.577      -13497.873       -1309.179           0.248  
> 2023 05 18 00 00 36.0688020  0  5                     
G02  24306132.812       87325.788        2910.546           0.239  
G03  22336826.881      -10714.723        -484.101           0.255  
G04  23613783.363      -41924.419       -2101.896           0.244  
G06  20627155.504       -5938.718        -465.593           0.255  
G07  23403727.577      -13497.873       -1309.179           0.248  
> 2023 05 18 00 00 36.0688020  0  6                     
G02  24306132.812       87325.788        2910.546           0.239  
G03  22336826.881      -10714.723        -484.101           0.255  
G04  23613783.363      -41924.562       -2126.173           0.244  
G05  22527682.080       42816.969        2116.191           0.255  
G06  20627155.504       -5938.718        -465.593           0.255  
G07  23403727.577      -13497.873       -1309.179           0.248  
> 2023 05 18 00 00 36.1688020  0  6                     
G02  24306057.846       87616.884        2911.061           0.239  
G03  22336838.774      -10763.095        -483.376           0.255  
G04  23613838.546      -42137.056       -2088.781           0.244  
G05  22527629.651       43020.466        2038.604           0.255  
G06  20627167.448       -5985.298        -465.841           0.255  
G07  23403761.433      -13628.289       -1309.064           0.248  
> 2023 05 18 00 00 36.2688020  0  6                     
G02  24305983.273       87907.979        2912.068           0.239  
G03  22336851.193      -10811.475        -483.975           0.255  
G04  23613893.169      -42349.953       -2126.217           0.244  
G05  22527577.948       43224.326        2038.122           0.255  
G06  20627178.563       -6031.874        -465.826           0.255  
G07  23403795.096      -13759.202       -1309.172           0.248  
> 2023 05 18 00 00 36.3688020  0  6                     
G02  24305909.117       88199.065        2911.624           0.239  
G03  22336864.103      -10859.858        -484.268           0.255  
G04  23613946.737      -42562.655       -2127.049           0.244  
G05  22527526.066       43428.177        2037.093           0.255  
G06  20627190.491       -6078.454        -465.469           0.255  
G07  23403828.830      -13890.119       -1308.892           0.248  
> 2023 05 18 00 00 36.4688020  0  6                     
G02  24305835.293       88490.152        2911.468           0.239  
G03  22336876.247      -10908.247        -484.349           0.255  
G04  23614000.598      -42775.347       -2127.173           0.244  
G05  22527474.109       43632.040        2038.153           0.255  
G06  20627202.661       -6125.036        -465.713           0.255  
G07  23403862.461      -14021.040       -1308.865           0.248  
> 2023 05 18 00 00 36.5688020  0  6                     
G02  24305761.006       88781.418        2935.430           0.239  
G03  22336888.531      -10956.681        -444.750           0.255  
G04  23614054.946      -42988.045       -2127.634           0.244  
G05  22527422.285       43835.899        2039.243           0.255  
G06  20627214.575       -6171.626        -466.131           0.255  
G07  23403895.653      -14151.814       -1289.946           0.248  
> 2023 05 18 00 00 36.6688020  0  6                     
G02  24305687.298       89072.332        2910.636           0.239  
G03  22336900.494      -11005.032        -485.000           0.255  
G04  23614109.875      -43200.571       -2136.887           0.244  
G05  22527370.143       44039.752        2039.411           0.255  
G06  20627226.753       -6218.210        -465.335           0.255  
G07  23403928.939      -14282.907       -1309.147           0.248  
> 2023 05 18 00 00 36.7688020  0  6                     
G02  24305612.661       89363.420        2910.882           0.239  
G03  22336913.344      -11053.431        -484.153           0.255  
G04  23614164.268      -43413.444       -2127.480           0.244  
G05  22527318.257       44243.593        2039.391           0.255  
G06  20627239.213       -6264.812        -465.733           0.255  
G07  23403962.468      -14413.833       -1308.995           0.248  
> 2023 05 18 00 00 36.8688020  0  6                     
G02  24305538.909       89654.510        2911.310           0.239  
G03  22336925.587      -11101.839        -484.425           0.255  
G04  23614217.558      -43626.148       -2127.315           0.244  
G05  22527266.122       44447.443        2038.735           0.255  
G06  20627250.667       -6311.400        -465.317           0.255  
G07  23403996.049      -14544.765       -1309.525           0.248  
> 2023 05 18 00 00 36.9688020  0  6                     
G02  24305463.978       89945.603        2911.373           0.239  
G03  22336937.537      -11150.245        -484.348           0.255  
G04  23614271.741      -43838.844       -2127.379           0.244  
G05  22527214.551       44651.283        2037.549           0.255  
G06  20627262.530       -6358.001        -465.910           0.255  
G07  23404029.034      -14675.704       -1309.078           0.248  
> 2023 05 18 00 00 37.0688020  0  6                     
G02  24305389.996       90236.691        2911.191           0.239  
G03  22336949.881      -11198.657        -484.467           0.255  
G04  23614325.569      -44051.338       -2091.740           0.244  
G05  22527162.527       44855.126        2037.486           0.255  
G06  20627274.529       -6404.608        -466.350           0.255  
G07  23404062.334      -14806.737       -1317.752           0.248  
> 2023 05 18 00 00 37.1688020  0  6                     
G02  24305316.367       90527.780        2912.271           0.239  
G03  22336962.449      -11247.075        -483.552           0.255  
G04  23614379.738      -44264.245       -2126.254           0.244  
G05  22527110.556       45058.971        2039.021           0.255  
G06  20627286.174       -6451.211        -466.039           0.255  
G07  23404095.467      -14937.594       -1309.452           0.248  
> 2023 05 18 00 00 37.2688020  0  6                     
G02  24305242.000       90818.865        2911.695           0.239  
G03  22336974.690      -11295.504        -483.950           0.255  
G04  23614434.044      -44476.962       -2127.758           0.244  
G05  22527058.789       45262.816        2038.622           0.255  
G06  20627298.593       -6497.828        -465.938           0.255  
G07  23404129.459      -15068.538       -1309.340           0.248  
> 2023 05 18 00 00 37.3688020  0  6                     
G02  24305166.221       91109.954        2910.450           0.239  
G03  22336987.092      -11343.934        -484.702           0.255  
G04  23614488.801      -44689.666       -2127.407           0.244  
G05  22527006.790       45466.644        2038.492           0.255  
G06  20627309.665       -6544.442        -465.485           0.255  
G07  23404163.576      -15199.494       -1309.601           0.248  
> 2023 05 18 00 00 37.4688020  0  6                     
G02  24305092.547       91400.785        2909.643           0.239  
G03  22336998.704      -11392.113        -458.943           0.255  
G04  23614542.682      -44902.375       -2127.166           0.244  
G05  22526954.773       45670.480        2038.950           0.255  
G06  20627321.983       -6591.055        -466.364           0.255  
G07  23404196.240      -15330.443       -1309.468           0.248  
> 2023 05 18 00 00 37.5688020  0  6                     
G02  24305018.138       91692.213        2940.970           0.239  
G03  22337011.582      -11440.793        -484.214           0.255  
G04  23614597.324      -45115.077       -2127.182           0.244  
G05  22526903.011       45874.310        2038.287           0.255  
G06  20627333.578       -6637.684        -466.651           0.255  
G07  23404229.268      -15461.400       -1309.106           0.248  
> 2023 05 18 00 00 37.6688020  0  6                     
G02  24304944.606       91983.224        2911.283           0.239  
G03  22337025.149      -11489.246        -484.728           0.255  
G04  23614650.925      -45327.787       -2127.026           0.244  
G05  22526851.191       46078.129        2037.080           0.255  
G06  20627344.169       -6684.304        -466.694           0.255  
G07  23404262.891      -15592.360       -1309.421           0.248  
> 2023 05 18 00 00 37.7688020  0  6                     
G02  24304869.683       92274.320        2910.800           0.239  
G03  22337036.843      -11537.689        -485.603           0.255  
G04  23614705.790      -45540.502       -2127.332           0.244  
G05  22526798.863       46281.964        2038.854           0.255  
G06  20627356.810       -6730.928        -465.269           0.255  
G07  23404296.432      -15723.325       -1309.053           0.248  
> 2023 05 18 00 00 37.8688020  0  6                     
G02  24304797.612       92565.408        2911.726           0.239  
G03  22337048.780      -11586.141        -484.871           0.255  
G04  23614759.761      -45753.212       -2127.310           0.244  
G05  22526746.718       46486.087        2064.575           0.255  
G06  20627368.584       -6777.561        -465.711           0.255  
G07  23404329.984      -15854.283       -1309.438           0.248  
> 2023 05 18 00 00 37.9688020  0  6                     
G02  24304721.642       92856.495        2911.274           0.239  
G03  22337061.483      -11634.592        -484.872           0.255  
G04  23614814.670      -45965.923       -2127.031           0.244  
G05  22526694.852       46689.611        2038.797           0.255  
G06  20627381.068       -6824.208        -466.969           0.255  
G07  23404363.133      -15985.251       -1309.189           0.248  
> 2023 05 18 00 00 38.0688020  0  6                     
G02  24304648.398       93147.587        2911.318           0.239  
G03  22337073.938      -11683.056        -484.775           0.255  
G04  23614867.720      -46178.651       -2127.450           0.244  
G05  22526643.462       46893.439        2038.780           0.255  
G06  20627392.773       -6870.845        -466.552           0.255  
G07  23404395.740      -16116.221       -1309.403           0.248  
> 2023 05 18 00 00 38.1688020  0  6                     
G02  24304574.296       93438.678        2910.421           0.239  
G03  22337085.979      -11731.522        -484.570           0.255  
G04  23614922.103      -46391.362       -2127.414           0.244  
G05  22526591.340       47097.251        2037.126           0.255  
G06  20627404.566       -6917.477        -466.439           0.255  
G07  23404428.592      -16247.201       -1309.741           0.248  
> 2023 05 18 00 00 38.2688020  0  6                     
G02  24304500.502       93729.764        2910.115           0.239  
G03  22337098.105      -11779.980        -484.093           0.255  
G04  23614975.570      -46604.113       -2126.669           0.244  
G05  22526539.308       47301.066        2037.539           0.255  
G06  20627415.710       -6964.126        -466.087           0.255  
G07  23404462.849      -16378.174       -1309.286           0.248  
> 2023 05 18 00 00 38.3688020  0  6                     
G02  24304425.681       94020.859        2910.519           0.239  
G03  22337110.279      -11828.460        -484.529           0.255  
G04  23615030.719      -46816.792       -2127.043           0.244  
G05  22526487.356       47504.887        2038.744           0.255  
G06  20627428.666       -7010.774        -466.347           0.255  
G07  23404496.189      -16509.159       -1309.542           0.248  
> 2023 05 18 00 00 38.4688020  0  6                     
G02  24304351.116       94311.943        2910.168           0.239  
G03  22337122.702      -11877.332        -527.001           0.255  
G04  23615085.354      -47029.514       -2126.707           0.244  
G05  22526435.177       47708.695        2038.267           0.255  
G06  20627441.001       -7057.435        -466.785           0.255  
G07  23404530.186      -16640.139       -1310.441           0.248  
> 2023 05 18 00 00 38.5688020  0  6                     
G02  24304276.648       94603.034        2910.901           0.239  
G03  22337134.993      -11925.427        -485.063           0.255  
G04  23615139.225      -47242.239       -2127.672           0.244  
G05  22526383.043       47912.500        2038.358           0.255  
G06  20627451.400       -7104.089        -466.411           0.255  
G07  23404563.905      -16771.124       -1309.932           0.248  
> 2023 05 18 00 00 38.6688020  0  6                     
G02  24304202.087       94894.133        2911.135           0.239  
G03  22337147.151      -11973.906        -485.612           0.255  
G04  23615195.227      -47454.902       -2107.741           0.244  
G05  22526330.775       48116.308        2037.895           0.255  
G06  20627464.253       -7150.752        -465.898           0.255  
G07  23404596.390      -16902.114       -1309.749           0.248  
> 2023 05 18 00 00 38.7688020  0  6                     
G02  24304128.365       95185.217        2910.757           0.239  
G03  22337159.291      -12022.399        -484.972           0.255  
G04  23615248.207      -47667.676       -2127.235           0.244  
G05  22526279.540       48320.105        2037.119           0.255  
G06  20627476.113       -7197.413        -466.396           0.255  
G07  23404630.044      -17033.106       -1309.972           0.248  
> 2023 05 18 00 00 38.8688020  0  6                     
G02  24304055.558       95476.300        2910.783           0.239  
G03  22337171.681      -12070.901        -484.591           0.255  
G04  23615302.251      -47880.398       -2127.726           0.244  
G05  22526227.834       48523.906        2038.247           0.255  
G06  20627487.946       -7244.081        -467.067           0.255  
G07  23404662.921      -17164.098       -1309.805           0.248  
> 2023 05 18 00 00 38.9688020  0  6                     
G02  24303981.976       95767.465        2960.881           0.239  
G03  22337184.246      -12119.395        -484.754           0.255  
G04  23615355.193      -48093.130       -2127.848           0.244  
G05  22526176.156       48727.714        2038.501           0.255  
G06  20627499.946       -7290.751        -466.992           0.255  
G07  23404696.067      -17295.091       -1309.796           0.248  
> 2023 05 18 00 00 39.0688020  0  6                     
G02  24303905.285       96058.487        2912.868           0.240  
G03  22337197.046      -12167.900        -484.557           0.255  
G04  23615410.275      -48305.855       -2128.523           0.244  
G05  22526124.149       48931.502        2037.922           0.255  
G06  20627511.541       -7337.420        -466.905           0.255  
G07  23404729.714      -17426.092       -1309.551           0.248  
> 2023 05 18 00 00 39.1688020  0  6                     
G02  24303831.663       96349.583        2911.752           0.239  
G03  22337209.351      -12216.413        -484.826           0.255  
G04  23615464.613      -48518.577       -2126.848           0.244  
G05  22526071.677       49135.299        2037.831           0.255  
G06  20627523.609       -7384.091        -466.589           0.255  
G07  23404763.666      -17557.090       -1310.149           0.248  
> 2023 05 18 00 00 39.2688020  0  6                     
G02  24303757.340       96640.673        2911.813           0.239  
G03  22337222.178      -12264.931        -485.465           0.255  
G04  23615517.918      -48731.300       -2126.755           0.244  
G05  22526020.049       49339.091        2036.920           0.255  
G06  20627535.524       -7430.776        -466.850           0.255  
G07  23404796.677      -17688.098       -1310.068           0.248  
> 2023 05 18 00 00 39.3688020  0  6                     
G02  24303684.964       96931.760        2911.718           0.239  
G03  22337234.925      -12313.436        -483.659           0.255  
G04  23615572.309      -48944.031       -2127.595           0.244  
G05  22525967.672       49542.892        2038.538           0.255  
G06  20627547.008       -7477.463        -467.038           0.255  
G07  23404829.634      -17819.102       -1309.715           0.248  
> 2023 05 18 00 00 39.4688020  0  6                     
G02  24303611.236       97222.843        2911.020           0.239  
G03  22337246.189      -12361.966        -485.234           0.255  
G04  23615626.369      -49156.759       -2128.637           0.244  
G05  22525915.887       49746.681        2037.880           0.255  
G06  20627558.732       -7524.146        -466.752           0.255  
G07  23404863.745      -17950.197       -1316.731           0.248  
> 2023 05 18 00 00 39.5688020  0  6                     
G02  24303536.989       97513.934        2910.778           0.239  
G03  22337258.387      -12410.491        -485.035           0.255  
G04  23615680.534      -49369.494       -2128.115           0.244  
G05  22525863.969       49950.470        2038.067           0.255  
G06  20627570.650       -7570.840        -466.919           0.255  
G07  23404897.542      -18081.130       -1310.046           0.248  
> 2023 05 18 00 00 39.6688020  0  6                     
G02  24303461.666       97805.009        2910.756           0.239  
G03  22337271.213      -12459.023        -485.288           0.255  
G04  23615735.496      -49582.225       -2127.685           0.244  
G05  22525811.972       50154.251        2037.204           0.255  
G06  20627583.655       -7617.531        -467.002           0.255  
G07  23404930.231      -18212.154       -1310.249           0.248  
> 2023 05 18 00 00 39.7688020  0  6                     
G02  24303387.481       98096.103        2911.128           0.239  
G03  22337282.264      -12507.562        -485.310           0.255  
G04  23615789.160      -49794.955       -2127.878           0.244  
G05  22525759.974       50358.032        2037.599           0.255  
G06  20627594.937       -7664.230        -467.287           0.255  
G07  23404964.171      -18343.171       -1310.293           0.248  
> 2023 05 18 00 00 39.8688020  0  6                     
G02  24303313.842       98387.186        2910.352           0.239  
G03  22337295.514      -12556.101        -484.741           0.255  
G04  23615843.493      -50007.679       -2127.357           0.244  
G05  22525708.281       50561.824        2039.145           0.255  
G06  20627607.097       -7710.933        -467.252           0.255  
G07  23404996.955      -18474.200       -1310.395           0.248  
> 2023 05 18 00 00 39.9688020  0  6                     
G02  24303238.383       98678.279        2911.193           0.239  
G03  22337307.163      -12604.651        -485.677           0.255  
G04  23615898.046      -50220.409       -2126.499           0.244  
G05  22525656.547       50765.595        2038.316           0.255  
G06  20627618.729       -7757.632        -466.913           0.255  
G07  23405030.440      -18605.219       -1310.362           0.248  
> 2023 05 18 00 00 40.0688020  0  6                     
G02  24303163.479       98969.365        2911.939           0.239  
G03  22337321.208      -12653.200        -486.122           0.255  
G04  23615952.937      -50433.547       -2198.730           0.244  
G05  22525604.585       50969.372        2037.648           0.255  
G06  20627630.825       -7804.346        -466.902           0.255  
G07  23405063.757      -18736.251       -1309.713           0.248  
> 2023 05 18 00 00 40.1688020  0  6                     
G02  24303088.897       99260.458        2910.940           0.239  
G03  22337333.222      -12701.755        -485.607           0.255  
G04  23616007.403      -50645.895       -2127.077           0.244  
G05  22525552.429       51173.138        2036.662           0.255  
G06  20627642.660       -7851.058        -467.093           0.255  
G07  23405097.256      -18867.145       -1269.839           0.248  
> 2023 05 18 00 00 40.2688020  0  6                     
G02  24303016.298       99551.544        2911.844           0.239  
G03  22337345.792      -12750.316        -485.951           0.255  
G04  23616061.413      -50858.631       -2127.413           0.244  
G05  22525500.666       51377.129        2014.614           0.255  
G06  20627654.695       -7897.770        -467.599           0.255  
G07  23405129.976      -18998.037       -1262.691           0.248  
> 2023 05 18 00 00 40.3688020  0  6                     
G02  24302941.951       99842.635        2910.889           0.239  
G03  22337357.833      -12798.878        -485.097           0.255  
G04  23616114.982      -51071.365       -2126.751           0.244  
G05  22525448.720       51580.681        2037.826           0.255  
G06  20627666.434       -7944.486        -467.505           0.255  
G07  23405163.402      -19129.350       -1309.995           0.248  
> 2023 05 18 00 00 40.4688020  0  6                     
G02  24302867.449      100133.721        2910.638           0.240  
G03  22337370.347      -12847.447        -485.060           0.255  
G04  23616168.379      -51284.103       -2127.100           0.244  
G05  22525396.772       51784.445        2037.841           0.255  
G06  20627678.239       -7991.208        -466.555           0.255  
G07  23405196.804      -19260.392       -1310.243           0.248  
> 2023 05 18 00 00 40.5688020  0  6                     
G02  24302794.546      100424.872        2943.500           0.239  
G03  22337382.756      -12896.069        -501.254           0.255  
G04  23616222.606      -51496.853       -2127.235           0.244  
G05  22525344.463       51988.208        2037.046           0.255  
G06  20627689.984       -8037.934        -467.730           0.255  
G07  23405230.459      -19391.443       -1309.964           0.248  
> 2023 05 18 00 00 40.6688020  0  6                     
G02  24302720.439      100715.614        2915.419           0.239  
G03  22337395.155      -12944.602        -486.115           0.255  
G04  23616277.325      -51709.594       -2128.087           0.244  
G05  22525292.879       52191.973        2037.557           0.255  
G06  20627701.552       -8084.664        -467.755           0.255  
G07  23405264.092      -19522.477       -1323.665           0.248  
> 2023 05 18 00 00 40.7688020  0  6                     
G02  24302645.622      101006.862        2884.796           0.239  
G03  22337407.481      -12993.184        -485.777           0.255  
G04  23616330.698      -51922.335       -2126.995           0.244  
G05  22525241.013       52395.740        2038.119           0.255  
G06  20627713.477       -8131.397        -468.242           0.255  
G07  23405297.651      -19653.539       -1309.935           0.248  
> 2023 05 18 00 00 40.8688020  0  6                     
G02  24302570.997      101298.083        2913.133           0.239  
G03  22337419.962      -13041.763        -485.687           0.255  
G04  23616385.401      -52134.959       -2158.677           0.244  
G05  22525188.943       52599.493        2037.480           0.255  
G06  20627726.106       -8178.131        -467.335           0.255  
G07  23405331.041      -19784.602       -1310.634           0.248  
> 2023 05 18 00 00 40.9688020  0  6                     
G02  24302496.154      101589.164        2911.356           0.239  
G03  22337432.859      -13090.355        -477.517           0.255  
G04  23616440.505      -52347.820       -2127.818           0.244  
G05  22525137.216       52803.254        2036.672           0.255  
G06  20627737.712       -8224.864        -466.260           0.255  
G07  23405364.164      -19915.656       -1311.338           0.248  
> 2023 05 18 00 00 41.0688020  0  6                     
G02  24302423.365      101880.240        2910.728           0.239  
G03  22337444.737      -13138.954        -486.845           0.255  
G04  23616494.019      -52560.565       -2127.400           0.244  
G05  22525085.230       53007.007        2037.227           0.255  
G06  20627750.651       -8271.608        -466.757           0.255  
G07  23405398.359      -20046.723       -1311.169           0.248  
> 2023 05 18 00 00 41.1688020  0  6                     
G02  24302348.036      102171.330        2910.761           0.239  
G03  22337457.682      -13187.554        -486.459           0.255  
G04  23616548.872      -52773.317       -2127.666           0.244  
G05  22525033.285       53210.771        2038.110           0.255  
G06  20627760.675       -8318.361        -467.009           0.255  
G07  23405431.585      -20177.774       -1311.145           0.248  
> 2023 05 18 00 00 41.2688020  0  6                     
G02  24302273.068      102462.428        2911.551           0.239  
G03  22337469.463      -13236.158        -486.397           0.255  
G04  23616604.250      -52986.075       -2128.356           0.244  
G05  22524980.856       53414.510        2037.800           0.255  
G06  20627772.902       -8365.109        -467.570           0.255  
G07  23405465.024      -20308.839       -1310.416           0.248  
> 2023 05 18 00 00 41.3688020  0  6                     
G02  24302199.094      102753.514        2911.579           0.239  
G03  22337481.806      -13284.764        -486.044           0.255  
G04  23616657.695      -53198.832       -2128.354           0.244  
G05  22524929.277       53618.258        2036.692           0.255  
G06  20627785.388       -8411.864        -468.406           0.255  
G07  23405497.634      -20439.911       -1310.735           0.248  
> 2023 05 18 00 00 41.4688020  0  6                     
G02  24302126.264      103044.595        2909.945           0.239  
G03  22337494.150      -13333.374        -485.809           0.255  
G04  23616711.144      -53411.564       -2127.153           0.244  
G05  22524877.640       53822.007        2037.140           0.255  
G06  20627797.819       -8458.615        -467.300           0.255  
G07  23405532.107      -20570.984       -1311.392           0.248  
> 2023 05 18 00 00 41.5688020  0  6                     
G02  24302052.157      103335.696        2911.281           0.239  
G03  22337506.530      -13381.993        -485.695           0.255  
G04  23616765.218      -53624.311       -2126.787           0.244  
G05  22524825.231       54025.754        2037.753           0.255  
G06  20627809.622       -8505.382        -467.653           0.255  
G07  23405564.562      -20702.056       -1310.955           0.248  
> 2023 05 18 00 00 41.6688020  0  6                     
G02  24301977.945      103626.790        2910.983           0.239  
G03  22337518.421      -13430.623        -486.022           0.255  
G04  23616819.059      -53837.154       -2134.746           0.244  
G05  22524773.715       54229.490        2037.539           0.255  
G06  20627821.592       -8552.140        -468.294           0.255  
G07  23405597.807      -20833.135       -1310.944           0.248  
> 2023 05 18 00 00 41.7688020  0  6                     
G02  24301904.306      103917.871        2910.554           0.239  
G03  22337530.927      -13479.249        -485.717           0.255  
G04  23616874.032      -54049.743       -2107.131           0.244  
G05  22524721.738       54433.232        2036.993           0.255  
G06  20627833.073       -8598.902        -467.974           0.255  
G07  23405631.143      -20964.423       -1327.833           0.248  
> 2023 05 18 00 00 41.8688020  0  6                     
G02  24301829.825      104208.944        2910.341           0.239  
G03  22337543.281      -13527.884        -486.190           0.255  
G04  23616927.902      -54262.717       -2140.736           0.244  
G05  22524669.850       54637.114        2018.342           0.255  
G06  20627845.078       -8645.673        -467.545           0.255  
G07  23405664.691      -21095.235       -1300.556           0.248  
> 2023 05 18 00 00 41.9688020  0  6                     
G02  24301755.318      104500.035        2910.597           0.239  
G03  22337555.520      -13576.509        -486.038           0.255  
G04  23616981.994      -54475.344       -2127.356           0.244  
G05  22524618.035       54840.708        2037.871           0.255  
G06  20627856.863       -8692.449        -467.861           0.255  
G07  23405697.809      -21226.379       -1311.131           0.248  
> 2023 05 18 00 00 42.0688020  0  6                     
G02  24301681.396      104791.130        2909.700           0.239  
G03  22337568.037      -13625.149        -485.711           0.255  
G04  23617036.859      -54688.106       -2127.407           0.244  
G05  22524565.834       55044.441        2038.074           0.255  
G06  20627868.995       -8739.228        -468.051           0.255  
G07  23405731.853      -21357.462       -1310.637           0.248  
> 2023 05 18 00 00 42.1688020  0  6                     
G02  24301606.252      105082.214        2910.752           0.239  
G03  22337580.743      -13674.285        -537.357           0.255  
G04  23617091.497      -54900.860       -2128.489           0.244  
G05  22524514.419       55247.748        1963.494           0.255  
G06  20627881.000       -8786.005        -468.029           0.255  
G07  23405765.184      -21488.344       -1300.366           0.248  
> 2023 05 18 00 00 42.2688020  0  6                     
G02  24301532.887      105373.301        2909.889           0.239  
G03  22337593.862      -13722.458        -485.738           0.255  
G04  23617144.907      -55113.611       -2127.988           0.244  
G05  22524462.467       55451.902        2037.758           0.255  
G06  20627892.595       -8832.787        -468.120           0.255  
G07  23405799.023      -21619.642       -1311.181           0.248  
> 2023 05 18 00 00 42.3688020  0  6                     
G02  24301459.218      105664.399        2911.446           0.239  
G03  22337606.013      -13771.196        -520.442           0.255  
G04  23617198.840      -55326.443       -2127.653           0.244  
G05  22524410.366       55655.945        2121.021           0.255  
G06  20627904.514       -8879.569        -467.149           0.255  
G07  23405832.392      -21750.745       -1311.036           0.248  
> 2023 05 18 00 00 42.4688020  0  6                     
G02  24301384.841      105955.489        2911.067           0.239  
G03  22337618.592      -13819.766        -486.988           0.255  
G04  23617253.204      -55539.088       -2116.679           0.244  
G05  22524358.329       55859.350        2037.304           0.255  
G06  20627916.160       -8926.366        -468.038           0.255  
G07  23405865.599      -21881.840       -1311.221           0.248  
> 2023 05 18 00 00 42.5688020  0  6                     
G02  24301310.534      106246.578        2911.247           0.239  
G03  22337630.822      -13868.429        -485.785           0.255  
G04  23617307.689      -55752.064       -2152.810           0.244  
G05  22524306.377       56063.073        2036.679           0.255  
G06  20627928.481       -8973.161        -468.218           0.255  
G07  23405898.592      -22012.946       -1311.245           0.248  
> 2023 05 18 00 00 42.6688020  0  6                     
G02  24301236.038      106537.662        2911.250           0.239  
G03  22337643.182      -13917.100        -486.305           0.255  
G04  23617361.800      -55964.656       -2126.600           0.244  
G05  22524254.481       56266.796        2038.002           0.255  
G06  20627940.739       -9019.957        -468.501           0.255  
G07  23405932.892      -22144.047       -1310.798           0.248  
> 2023 05 18 00 00 42.7688020  0  6                     
G02  24301162.473      106828.753        2911.318           0.239  
G03  22337655.042      -13965.774        -487.574           0.255  
G04  23617415.706      -56177.429       -2128.065           0.244  
G05  22524202.384       56470.504        2037.294           0.255  
G06  20627952.521       -9066.755        -467.731           0.255  
G07  23405966.258      -22275.162       -1311.423           0.248  
> 2023 05 18 00 00 42.8688020  0  6                     
G02  24301088.430      107119.844        2910.760           0.239  
G03  22337667.393      -14014.445        -487.496           0.255  
G04  23617470.749      -56390.192       -2127.361           0.244  
G05  22524150.443       56674.221        2036.153           0.255  
G06  20627964.254       -9113.560        -467.453           0.255  
G07  23405998.335      -22406.266       -1310.619           0.248  
> 2023 05 18 00 00 42.9688020  0  6                     
G02  24301014.409      107410.763        2905.028           0.239  
G03  22337679.863      -14062.967        -470.117           0.255  
G04  23617524.867      -56602.960       -2127.534           0.244  
G05  22524098.733       56878.308        2042.396           0.255  
G06  20627976.065       -9160.372        -467.905           0.255  
G07  23406032.354      -22537.228       -1299.936           0.248  
> 2023 05 18 00 00 43.0688020  0  6                     
G02  24300939.473      107701.870        2924.197           0.239  
G03  22337692.396      -14111.810        -487.062           0.255  
G04  23617578.897      -56815.734       -2127.311           0.244  
G05  22524046.824       57081.627        2003.629           0.255  
G06  20627988.091       -9207.182        -468.180           0.255  
G07  23406065.723      -22668.496       -1311.235           0.248  
> 2023 05 18 00 00 43.1688020  0  6                     
G02  24300865.609      107993.332        2945.536           0.239  
G03  22337704.601      -14160.504        -487.185           0.255  
G04  23617632.588      -57028.502       -2128.001           0.244  
G05  22523994.866       57285.349        2037.143           0.255  
G06  20628000.518       -9253.991        -467.955           0.255  
G07  23406099.122      -22799.632       -1301.084           0.248  
> 2023 05 18 00 00 43.2688020  0  6                     
G02  24300791.479      108284.203        2911.258           0.239  
G03  22337716.386      -14208.804        -474.915           0.255  
G04  23617686.296      -57241.263       -2127.485           0.244  
G05  22523943.016       57488.881        1990.796           0.255  
G06  20628012.563       -9300.812        -467.610           0.255  
G07  23406132.502      -22930.742       -1310.880           0.248  
> 2023 05 18 00 00 43.3688020  0  6                     
G02  24300716.962      108575.294        2911.156           0.239  
G03  22337728.966      -14257.330        -438.134           0.255  
G04  23617741.115      -57454.209       -2143.111           0.244  
G05  22523891.344       57692.767        2037.854           0.255  
G06  20628024.621       -9347.636        -467.594           0.255  
G07  23406166.088      -23061.904       -1312.295           0.248  
> 2023 05 18 00 00 43.4688020  0  6                     
G02  24300642.056      108866.385        2910.945           0.239  
G03  22337742.411      -14306.587        -487.506           0.255  
G04  23617796.034      -57666.814       -2127.519           0.244  
G05  22523839.374       57896.463        2037.287           0.255  
G06  20628036.044       -9394.468        -468.072           0.255  
G07  23406199.436      -23192.998       -1311.190           0.248  
> 2023 05 18 00 00 43.5688020  0  6                     
G02  24300566.834      109157.462        2909.490           0.239  
G03  22337755.103      -14355.297        -486.902           0.255  
G04  23617850.985      -57879.586       -2126.134           0.244  
G05  22523787.415       58100.156        2035.595           0.255  
G06  20628047.565       -9441.293        -468.638           0.255  
G07  23406232.989      -23324.131       -1311.743           0.248  
> 2023 05 18 00 00 43.6688020  0  6                     
G02  24300493.385      109448.551        2910.650           0.239  
G03  22337766.197      -14404.019        -487.285           0.255  
G04  23617904.098      -58092.357       -2127.319           0.244  
G05  22523735.621       58303.869        2037.787           0.255  
G06  20628060.185       -9488.125        -468.616           0.255  
G07  23406265.690      -23455.265       -1311.549           0.248  
> 2023 05 18 00 00 43.7688020  0  6                     
G02  24300419.240      109739.701        2927.374           0.239  
G03  22337778.356      -14453.010        -559.691           0.255  
G04  23617958.255      -58305.303       -2154.431           0.244  
G05  22523683.555       58507.553        2037.575           0.255  
G06  20628072.255       -9534.953        -468.745           0.255  
G07  23406300.098      -23586.503       -1313.744           0.248  
> 2023 05 18 00 00 43.8688020  0  6                     
G02  24300345.722      110030.740        2911.476           0.239  
G03  22337791.849      -14501.462        -487.590           0.255  
G04  23618011.641      -58517.924       -2128.195           0.244  
G05  22523631.287       58711.708        2162.624           0.255  
G06  20628083.032       -9581.793        -467.893           0.255  
G07  23406333.924      -23717.713       -1324.239           0.248  
> 2023 05 18 00 00 43.9688020  0  6                     
G02  24300272.555      110321.827        2911.265           0.239  
G03  22337804.349      -14550.190        -487.303           0.255  
G04  23618066.436      -58730.705       -2127.457           0.244  
G05  22523579.484       58914.940        2036.984           0.255  
G06  20628095.694       -9628.635        -468.360           0.255  
G07  23406365.249      -23848.696       -1311.412           0.248  
> 2023 05 18 00 00 44.0688020  0  6                     
G02  24300196.984      110612.899        2910.435           0.239  
G03  22337816.815      -14598.921        -487.547           0.255  
G04  23618121.825      -58943.489       -2127.873           0.244  
G05  22523527.707       59118.628        2037.422           0.255  
G06  20628106.874       -9675.480        -467.976           0.255  
G07  23406401.210      -23979.760       -1313.450           0.248  
> 2023 05 18 00 00 44.1688020  0  6                     
G02  24300123.190      110903.979        2910.021           0.239  
G03  22337829.145      -14647.655        -487.203           0.255  
G04  23618175.634      -59156.256       -2127.370           0.244  
G05  22523475.666       59322.313        2036.722           0.255  
G06  20628119.400       -9722.332        -468.757           0.255  
G07  23406433.151      -24110.989       -1311.489           0.248  
> 2023 05 18 00 00 44.2688020  0  6                     
G02  24300048.769      111195.084        2911.035           0.239  
G03  22337841.181      -14696.401        -487.344           0.255  
G04  23618228.982      -59369.047       -2128.221           0.244  
G05  22523423.870       59526.000        2036.701           0.255  
G06  20628131.983       -9769.181        -468.456           0.255  
G07  23406466.586      -24242.143       -1311.161           0.248  
> 2023 05 18 00 00 44.3688020  0  6                     
G02  24299974.677      111486.167        2910.062           0.239  
G03  22337853.504      -14745.139        -487.078           0.255  
G04  23618283.749      -59581.828       -2128.055           0.244  
G05  22523372.250       59729.678        2036.689           0.255  
G06  20628144.689       -9816.039        -468.571           0.255  
G07  23406499.167      -24373.299       -1311.065           0.248  
> 2023 05 18 00 00 44.4688020  0  6                     
G02  24299900.974      111777.254        2910.059           0.239  
G03  22337865.478      -14793.897        -488.251           0.255  
G04  23618338.592      -59794.616       -2127.798           0.244  
G05  22523320.343       59933.351        2036.998           0.255  
G06  20628154.961       -9862.892        -467.854           0.255  
G07  23406533.306      -24504.466       -1312.416           0.248  
> 2023 05 18 00 00 44.5688020  0  6                     
G02  24299827.020      112068.087        2857.263           0.240  
G03  22337877.620      -14842.646        -488.233           0.255  
G04  23618392.179      -60007.373       -2155.155           0.244  
G05  22523268.409       60137.028        2036.263           0.255  
G06  20628167.531       -9909.765        -468.672           0.255  
G07  23406566.872      -24635.684       -1315.699           0.248  
> 2023 05 18 00 00 44.6688020  0  6                     
G02  24299752.761      112359.437        2910.320           0.239  
G03  22337891.108      -14891.397        -489.052           0.255  
G04  23618446.158      -60220.187       -2128.069           0.244  
G05  22523216.610       60340.712        2037.502           0.255  
G06  20628178.755       -9956.634        -468.146           0.255  
G07  23406600.553      -24766.785       -1310.969           0.248  
> 2023 05 18 00 00 44.7688020  0  6                     
G02  24299678.796      112650.530        2910.876           0.239  
G03  22337903.897      -14940.156        -487.369           0.255  
G04  23618500.501      -60432.971       -2127.689           0.244  
G05  22523164.597       60544.379        2036.841           0.255  
G06  20628190.799      -10003.502        -468.499           0.255  
G07  23406634.125      -24897.953       -1311.597           0.248  
> 2023 05 18 00 00 44.8688020  0  6                     
G02  24299604.330      112941.601        2911.501           0.239  
G03  22337916.099      -14988.927        -487.764           0.255  
G04  23618554.702      -60645.752       -2127.615           0.244  
G05  22523112.336       60748.053        2036.099           0.255  
G06  20628202.493      -10050.372        -468.492           0.255  
G07  23406667.989      -25029.124       -1311.212           0.248  
> 2023 05 18 00 00 44.9688020  0  6                     
G02  24299529.812      113232.700        2910.554           0.239  
G03  22337928.250      -15037.697        -486.857           0.255  
G04  23618608.899      -60858.556       -2128.381           0.244  
G05  22523060.802       60951.729        2037.493           0.255  
G06  20628214.974      -10097.250        -469.606           0.255  
G07  23406700.825      -25160.290       -1311.455           0.248  
> 2023 05 18 00 00 45.0688020  0  6                     
G02  24299457.109      113523.785        2911.188           0.239  
G03  22337941.195      -15086.476        -486.657           0.255  
G04  23618662.805      -61071.342       -2128.043           0.244  
G05  22523008.845       61155.392        2036.990           0.255  
G06  20628227.014      -10144.134        -469.514           0.255  
G07  23406734.303      -25291.326       -1295.117           0.248  
> 2023 05 18 00 00 45.1688020  0  6                     
G02  24299382.663      113814.859        2910.260           0.239  
G03  22337953.705      -15135.261        -487.226           0.255  
G04  23618716.550      -61284.130       -2127.781           0.244  
G05  22522956.569       61359.051        2035.998           0.255  
G06  20628238.963      -10191.006        -468.752           0.255  
G07  23406767.843      -25422.644       -1311.860           0.248  
> 2023 05 18 00 00 45.2688020  0  6                     
G02  24299306.741      114105.946        2910.045           0.239  
G03  22337965.980      -15184.045        -488.183           0.255  
G04  23618771.471      -61496.920       -2127.260           0.244  
G05  22522904.959       61562.721        2037.328           0.255  
G06  20628251.180      -10237.900        -468.339           0.255  
G07  23406801.294      -25553.823       -1311.560           0.248  
> 2023 05 18 00 00 45.3688020  0  6                     
G02  24299233.359      114397.029        2910.999           0.239  
G03  22337977.995      -15232.832        -487.436           0.255  
G04  23618827.002      -61709.715       -2127.484           0.244  
G05  22522853.065       61766.378        2036.585           0.255  
G06  20628263.052      -10284.781        -468.313           0.255  
G07  23406833.247      -25685.017       -1312.017           0.248  
> 2023 05 18 00 00 45.4688020  0  6                     
G02  24299159.622      114688.115        2911.575           0.239  
G03  22337990.676      -15281.624        -487.405           0.255  
G04  23618880.067      -61922.511       -2128.121           0.244  
G05  22522801.183       61970.034        2036.085           0.255  
G06  20628274.540      -10331.680        -468.641           0.255  
G07  23406868.381      -25816.199       -1312.182           0.248  
> 2023 05 18 00 00 45.5688020  0  6                     
G02  24299085.242      114978.883        2888.001           0.240  
G03  22338003.838      -15330.580        -497.561           0.255  
G04  23618934.023      -62135.302       -2127.092           0.244  
G05  22522749.131       62173.695        2037.133           0.255  
G06  20628286.563      -10378.585        -468.747           0.255  
G07  23406900.371      -25947.356       -1295.538           0.248  
> 2023 05 18 00 00 45.6688020  0  6                     
G02  24299011.182      115270.269        2911.699           0.239  
G03  22338016.296      -15379.230        -487.596           0.255  
G04  23618988.133      -62348.100       -2127.964           0.244  
G05  22522697.087       62377.344        2036.547           0.255  
G06  20628298.505      -10425.483        -468.957           0.255  
G07  23406933.781      -26078.591       -1312.586           0.248  
> 2023 05 18 00 00 45.7688020  0  6                     
G02  24298936.911      115561.345        2909.910           0.239  
G03  22338026.969      -15428.027        -488.193           0.255  
G04  23619043.315      -62560.898       -2127.468           0.244  
G05  22522645.761       62580.998        2036.314           0.255  
G06  20628310.392      -10472.391        -468.821           0.255  
G07  23406967.609      -26209.870       -1314.264           0.248  
> 2023 05 18 00 00 45.8688020  0  6                     
G02  24298861.805      115852.433        2910.521           0.239  
G03  22338039.716      -15476.848        -488.785           0.255  
G04  23619097.368      -62773.944       -2158.988           0.244  
G05  22522593.672       62784.639        2036.648           0.255  
G06  20628322.667      -10519.296        -469.369           0.255  
G07  23407001.684      -26340.976       -1311.225           0.248  
> 2023 05 18 00 00 45.9688020  0  6                     
G02  24298787.929      116143.523        2911.277           0.239  
G03  22338052.704      -15525.663        -488.831           0.255  
G04  23619151.594      -62986.502       -2128.291           0.244  
G05  22522541.740       62988.288        2035.894           0.255  
G06  20628334.509      -10566.204        -468.891           0.255  
G07  23407036.037      -26472.182       -1311.739           0.248  
> 2023 05 18 00 00 46.0688020  0  6                     
G02  24298713.859      116434.600        2910.862           0.239  
G03  22338064.008      -15574.491        -488.564           0.255  
G04  23619205.891      -63199.294       -2127.431           0.244  
G05  22522489.818       63191.931        2036.223           0.255  
G06  20628347.368      -10613.120        -469.324           0.255  
G07  23407069.049      -26603.392       -1312.095           0.248  
> 2023 05 18 00 00 46.1688020  0  6                     
G02  24298640.203      116725.689        2910.763           0.239  
G03  22338077.385      -15623.318        -488.830           0.255  
G04  23619260.480      -63412.103       -2127.813           0.244  
G05  22522438.080       63395.575        2036.491           0.255  
G06  20628357.678      -10660.033        -468.634           0.255  
G07  23407102.254      -26734.600       -1312.738           0.248  
> 2023 05 18 00 00 46.2688020  0  6                     
G02  24298565.884      117016.780        2911.221           0.239  
G03  22338089.326      -15672.142        -488.231           0.255  
G04  23619313.955      -63624.912       -2127.886           0.244  
G05  22522385.899       63599.216        2035.762           0.255  
G06  20628370.484      -10706.963        -469.202           0.255  
G07  23407136.100      -26865.811       -1311.842           0.248  
> 2023 05 18 00 00 46.3688020  0  6                     
G02  24298491.007      117307.767        2909.982           0.239  
G03  22338102.711      -15720.972        -488.631           0.255  
G04  23619367.728      -63837.735       -2140.064           0.244  
G05  22522334.211       63802.858        2036.850           0.255  
G06  20628382.256      -10753.890        -469.034           0.255  
G07  23407169.572      -26997.021       -1311.379           0.248  
> 2023 05 18 00 00 46.4688020  0  6                     
G02  24298416.651      117598.937        2911.229           0.239  
G03  22338115.384      -15769.813        -487.836           0.255  
G04  23619422.209      -64050.516       -2128.412           0.244  
G05  22522282.049       64006.484        2055.208           0.255  
G06  20628394.547      -10800.818        -469.493           0.255  
G07  23407202.546      -27128.243       -1312.295           0.248  
> 2023 05 18 00 00 46.5688020  0  6                     
G02  24298342.907      117890.017        2911.226           0.239  
G03  22338126.957      -15818.670        -488.934           0.255  
G04  23619477.153      -64263.321       -2128.668           0.244  
G05  22522230.348       64210.121        2035.073           0.255  
G06  20628406.509      -10847.745        -468.952           0.255  
G07  23407236.029      -27259.469       -1312.652           0.248  
> 2023 05 18 00 00 46.6688020  0  6                     
G02  24298270.043      118181.095        2910.572           0.239  
G03  22338140.030      -15867.517        -488.585           0.255  
G04  23619531.457      -64476.132       -2127.833           0.244  
G05  22522178.509       64413.765        2037.104           0.255  
G06  20628418.178      -10894.683        -469.428           0.255  
G07  23407268.667      -27390.694       -1312.156           0.248  
> 2023 05 18 00 00 46.7688020  0  6                     
G02  24298196.148      118472.183        2910.706           0.239  
G03  22338152.020      -15916.372        -488.744           0.255  
G04  23619585.235      -64688.944       -2127.492           0.244  
G05  22522126.397       64617.392        2036.372           0.255  
G06  20628430.103      -10941.618        -469.536           0.255  
G07  23407301.658      -27521.917       -1312.393           0.248  
> 2023 05 18 00 00 46.8688020  0  6                     
G02  24298119.542      118763.263        2910.748           0.239  
G03  22338164.039      -15965.238        -488.340           0.255  
G04  23619639.208      -64901.757       -2128.576           0.244  
G05  22522074.856       64821.016        2035.680           0.255  
G06  20628442.621      -10988.556        -469.592           0.255  
G07  23407335.281      -27653.151       -1313.081           0.248  
> 2023 05 18 00 00 46.9688020  0  6                     
G02  24298046.059      119054.349        2910.298           0.239  
G03  22338177.391      -16014.100        -489.012           0.255  
G04  23619693.321      -65114.569       -2128.638           0.244  
G05  22522022.998       65024.641        2036.528           0.255  
G06  20628454.338      -11035.494        -469.407           0.255  
G07  23407369.245      -27784.374       -1311.771           0.248  
> 2023 05 18 00 00 47.0688020  0  6                     
G02  24297971.921      119345.432        2910.193           0.239  
G03  22338189.902      -16062.974        -490.788           0.255  
G04  23619747.642      -65327.381       -2128.290           0.244  
G05  22521970.923       65228.263        2035.710           0.255  
G06  20628465.887      -11082.438        -468.287           0.255  
G07  23407402.978      -27915.616       -1312.057           0.248  
> 2023 05 18 00 00 47.1688020  0  6                     
G02  24297898.556      119636.515        2910.314           0.239  
G03  22338202.269      -16111.828        -489.747           0.255  
G04  23619801.912      -65540.193       -2128.159           0.244  
G05  22521919.067       65431.890        2037.131           0.255  
G06  20628478.144      -11129.400        -468.903           0.255  
G07  23407436.008      -28046.860       -1313.462           0.248  
> 2023 05 18 00 00 47.2688020  0  6                     
G02  24297824.201      119927.603        2910.727           0.239  
G03  22338214.456      -16160.558        -473.745           0.255  
G04  23619855.722      -65753.006       -2129.024           0.244  
G05  22521866.980       65635.412        2043.777           0.255  
G06  20628490.053      -11176.361        -469.543           0.255  
G07  23407470.053      -28178.109       -1321.556           0.248  
> 2023 05 18 00 00 47.3688020  0  6                     
G02  24297749.573      120218.690        2910.920           0.239  
G03  22338227.887      -16209.795        -533.773           0.255  
G04  23619911.535      -65965.812       -2126.931           0.244  
G05  22521814.764       65839.111        2034.834           0.255  
G06  20628501.366      -11223.322        -469.665           0.255  
G07  23407503.234      -28309.174       -1312.975           0.248  
> 2023 05 18 00 00 47.4688020  0  6                     
G02  24297675.937      120509.774        2911.454           0.239  
G03  22338240.089      -16258.457        -497.305           0.255  
G04  23619965.151      -66178.642       -2128.479           0.244  
G05  22521763.498       66042.734        2037.257           0.255  
G06  20628513.947      -11270.275        -469.691           0.255  
G07  23407537.233      -28440.445       -1307.744           0.248  
> 2023 05 18 00 00 47.5688020  0  6                     
G02  24297602.395      120800.847        2910.062           0.239  
G03  22338252.233      -16307.362        -489.303           0.255  
G04  23620018.615      -66391.463       -2127.704           0.244  
G05  22521711.533       66246.341        2035.759           0.255  
G06  20628526.919      -11317.239        -469.235           0.255  
G07  23407570.399      -28571.836       -1312.701           0.248  
> 2023 05 18 00 00 47.6688020  0  6                     
G02  24297527.622      121091.935        2911.394           0.239  
G03  22338264.530      -16356.249        -489.386           0.255  
G04  23620073.261      -66604.275       -2128.586           0.244  
G05  22521659.555       66449.947        2035.927           0.255  
G06  20628538.015      -11364.212        -469.871           0.255  
G07  23407603.596      -28703.075       -1311.610           0.248  
> 2023 05 18 00 00 47.7688020  0  6                     
G02  24297452.853      121382.999        2910.757           0.239  
G03  22338277.021      -16405.138        -488.632           0.255  
G04  23620127.380      -66817.097       -2128.267           0.244  
G05  22521607.507       66653.554        2036.180           0.255  
G06  20628550.087      -11411.190        -470.264           0.255  
G07  23407637.608      -28834.347       -1313.131           0.248  
> 2023 05 18 00 00 47.8688020  0  6                     
G02  24297380.435      121674.084        2910.750           0.239  
G03  22338289.673      -16453.929        -467.199           0.255  
G04  23620180.330      -67029.692       -2081.782           0.244  
G05  22521555.866       66857.157        2034.452           0.255  
G06  20628562.339      -11458.170        -470.100           0.255  
G07  23407669.805      -28965.627       -1317.243           0.248  
> 2023 05 18 00 00 47.9688020  0  6                     
G02  24297305.865      121965.601        2939.222           0.239  
G03  22338301.337      -16502.768        -448.774           0.255  
G04  23620234.693      -67242.857       -2104.582           0.244  
G05  22521503.485       67061.056        2083.822           0.255  
G06  20628574.875      -11505.145        -469.903           0.255  
G07  23407703.802      -29097.063       -1344.658           0.248  
> 2023 05 18 00 00 48.0688020  0  6                     
G02  24297230.323      122256.259        2910.183           0.239  
G03  22338314.522      -16552.006        -535.632           0.255  
G04  23620289.104      -67455.566       -2127.705           0.244  
G05  22521451.756       67264.368        2036.137           0.255  
G06  20628586.227      -11552.132        -469.299           0.255  
G07  23407737.085      -29228.262       -1328.490           0.248  
> 2023 05 18 00 00 48.1688020  0  6                     
