     3.03           OBSERVATION DATA    M: Mixed            RINEX VERSION / TYPE
GNSS-SDRLIB v1.1                        20230628 091421 UTC PGM / RUN BY / DATE 
                                                            MARKER NAME         
                                                            MARKER NUMBER       
                                                            MARKER TYPE         
                                                            OBSERVER / AGENCY   
GNSS-SDRLIB         GNSS-SDRLIB         1.1                 REC # / TYPE / VERS 
                                                            ANT # / TYPE        
        0.0000        0.0000        0.0000                  APPROX POSITION XYZ 
        0.0000        0.0000        0.0000                  ANTENNA: DELTA H/E/N
G    4 C5A L5A D5A S5A                                      SYS / # / OBS TYPES 
R    4 C5A L5A D5A S5A                                      SYS / # / OBS TYPES 
E    4 C5A L5A D5A S5A                                      SYS / # / OBS TYPES 
J    4 C5A L5A D5A S5A                                      SYS / # / OBS TYPES 
S    4 C5A L5A D5A S5A                                      SYS / # / OBS TYPES 
C    4 C5A L5A D5A S5A                                      SYS / # / OBS TYPES 
I    4 C5A L5A D5A S5A                                      SYS / # / OBS TYPES 
  1970    01    01    00    00   00.0000000     GPS         TIME OF FIRST OBS   
  1970    01    01    00    00   00.0000000     GPS         TIME OF LAST OBS    
G L5A  0.00000                                              SYS / PHASE SHIFT   
R L5A  0.00000                                              SYS / PHASE SHIFT   
E L5A  0.00000                                              SYS / PHASE SHIFT   
J L5A  0.00000                                              SYS / PHASE SHIFT   
S L5A  0.00000                                              SYS / PHASE SHIFT   
C L5A  0.00000                                              SYS / PHASE SHIFT   
I L5A                                                       SYS / PHASE SHIFT   
  0                                                         GLONASS SLOT / FRQ #
 C1C    0.000 C1P    0.000 C2C    0.000 C2P    0.000        GLONASS COD/PHS/BIS 
                                                            END OF HEADER       
> 2019 05 08 04 25 48.0688020  0  1                     
I02  20626316.469         230.070           5.259           0.255  
> 2019 05 08 04 25 48.0688020  0  2                     
I02  20626316.469         230.070           5.259           0.255  
I06  22057445.448        1564.917          37.156           0.255  
> 2019 05 08 04 25 48.0688020  0  3                     
I02  20626316.469         230.070           5.259           0.255  
I05  23461218.439        9315.292         217.103           0.255  
I06  22057445.448        1564.917          37.156           0.255  
> 2019 05 08 04 25 48.0688020  0  4                     
I02  20905947.884         230.063           4.899           0.255  
I03  20626543.545        -834.590         -20.625           0.255  
I05  23740849.854        9315.085         216.553           0.255  
I06  22337076.863        1564.881          36.780           0.255  
> 2019 05 08 04 25 48.0688020  0  5                     
I02  20905947.884         230.063           4.899           0.255  
I03  20626543.545        -834.590         -20.625           0.255  
I04  21950133.139        -374.900         -12.098           0.255  
I05  23740849.854        9315.085         216.553           0.255  
I06  22337076.863        1564.881          36.780           0.255  
> 2019 05 08 04 25 48.0688020  0  6                     
I02  20905947.884         230.063           4.899           0.255  
I03  20626543.545        -834.590         -20.625           0.255  
I04  21950133.139        -374.900         -12.098           0.255  
I05  23740849.854        9315.085         216.553           0.255  
I06  22337076.863        1564.881          36.780           0.255  
I07  23673339.249        -629.511         -18.779           0.255  
> 2019 05 08 04 25 48.1188020  0  6                     
I02  20905948.434         230.348           7.373           0.255  
I03  20626540.323        -835.549         -19.328           0.255  
I04  21950122.187        -375.268          -7.245           0.255  
I05  23740847.310        9326.110         223.422           0.255  
I06  22337080.598        1566.748          37.751           0.255  
I07  23673327.781        -630.317         -13.658           0.255  
> 2019 05 08 04 25 48.1688020  0  6                     
I02  20905948.536         230.647           6.194           0.255  
I03  20626540.197        -836.503         -17.441           0.255  
I04  21950128.510        -375.707         -12.397           0.255  
I05  23740842.838        9337.073         219.493           0.255  
I06  22337083.049        1568.624          37.299           0.255  
I07  23673336.466        -631.200         -16.337           0.255  
> 2019 05 08 04 25 48.2188020  0  6                     
I02  20905950.391         230.882           3.939           0.255  
I03  20626541.395        -837.501         -22.814           0.255  
I04  21950132.516        -376.139         -16.165           0.255  
I05  23740839.633        9348.011         215.655           0.255  
I06  22337086.087        1570.482          38.616           0.255  
I07  23673343.088        -632.145         -13.169           0.255  
> 2019 05 08 04 25 48.2688020  0  6                     
I02  20905949.865         231.184           5.139           0.255  
I03  20626537.895        -838.513         -22.968           0.255  
I04  21950121.346        -376.542          -9.514           0.255  
I05  23740836.725        9358.995         217.763           0.255  
I06  22337084.850        1572.331          37.797           0.255  
I07  23673329.634        -633.024         -20.508           0.255  
> 2019 05 08 04 25 48.3188020  0  6                     
I02  20905949.961         231.491           6.620           0.255  
I03  20626543.300        -839.494         -21.009           0.255  
I04  21950126.539        -377.036          -3.568           0.255  
I05  23740835.679        9369.988         219.348           0.255  
I06  22337082.085        1574.191          36.572           0.255  
I07  23673334.584        -633.918         -19.134           0.255  
> 2019 05 08 04 25 48.3688020  0  6                     
I02  20905950.793         231.731           8.893           0.255  
I03  20626542.402        -840.476         -14.447           0.255  
I04  21950131.171        -377.517          -7.729           0.255  
I05  23740833.717        9380.919         223.352           0.255  
I06  22337082.353        1576.020          40.515           0.255  
I07  23673338.821        -634.748          -5.526           0.255  
> 2019 05 08 04 25 48.4188020  0  6                     
I02  20905950.337         231.947           6.694           0.255  
I03  20626543.608        -841.486         -21.106           0.255  
I04  21950120.647        -378.429         -33.891           0.255  
I05  23740829.659        9391.858         219.169           0.255  
I06  22337081.736        1576.677        -285.334           0.255  
I07  23673327.143        -635.767         -13.442           0.255  
> 2019 05 08 04 25 48.4688020  0  6                     
I02  20905950.286         232.187           3.954           0.255  
I03  20626544.486        -842.542         -25.399           0.255  
I04  21950122.658        -378.469         -78.885           0.255  
I05  23740826.457        9402.762         213.819           0.255  
I06  22337080.038        1577.934        -198.144           0.255  
I07  23673328.782        -636.647         -18.291           0.255  
> 2019 05 08 04 25 48.5188020  0  6                     
I02  20905952.719         232.451           2.659           0.255  
I03  20626541.656        -843.557         -22.661           0.255  
I04  21950128.474        -378.954         -10.847           0.255  
I05  23740821.396        9413.726         214.785           0.255  
I06  22337080.101        1581.471          35.260           0.255  
I07  23673335.330        -637.539         -21.883           0.255  
> 2019 05 08 04 25 48.5688020  0  6                     
I02  20905945.192         232.715           6.508           0.255  
I03  20626540.456        -844.492         -17.349           0.255  
I04  21950130.593        -379.310          -6.725           0.255  
I05  23740817.438        9424.727         220.058           0.255  
I06  22337079.833        1583.409          38.316           0.255  
I07  23673341.663        -638.439         -22.866           0.255  
> 2019 05 08 04 25 48.6188020  0  6                     
I02  20905948.681         232.998           7.141           0.255  
I03  20626538.425        -845.464         -19.330           0.255  
I04  21950121.681        -379.722          -3.448           0.255  
I05  23740816.812        9435.716         218.905           0.255  
I06  22337076.314        1585.262          37.849           0.255  
I07  23673330.583        -639.226         -19.401           0.255  
> 2019 05 08 04 25 48.6688020  0  6                     
I02  20905948.657         233.286           8.969           0.255  
I03  20626546.491        -846.464         -18.883           0.255  
I04  21950125.829        -380.220          -5.568           0.255  
I05  23740815.021        9446.682         219.796           0.255  
I06  22337076.198        1587.097          33.557           0.255  
I07  23673335.031        -640.105         -19.195           0.255  
> 2019 05 08 04 25 48.7188020  0  6                     
I02  20905941.174         233.535           4.331           0.255  
I03  20626543.147        -847.461         -18.863           0.255  
I04  21950131.316        -380.660         -10.920           0.255  
I05  23740813.474        9457.621         216.769           0.255  
I06  22337073.684        1588.959          36.009           0.255  
I07  23673341.906        -641.056         -26.611           0.255  
> 2019 05 08 04 25 48.7688020  0  6                     
I02  20905945.678         233.778           0.591           0.255  
I03  20626543.493        -848.429         -17.200           0.255  
I04  21950118.228        -381.064          -9.365           0.255  
I05  23740807.643        9468.592         217.325           0.255  
I06  22337073.832        1590.824          40.069           0.255  
I07  23673332.613        -641.960         -20.364           0.255  
> 2019 05 08 04 25 48.8188020  0  6                     
I02  20905946.716         234.125           8.942           0.255  
I03  20626542.554        -849.413         -18.979           0.255  
I04  21950125.614        -381.511          -7.175           0.255  
I05  23740806.295        9479.617         224.339           0.255  
I06  22337075.125        1592.683          35.699           0.255  
I07  23673338.602        -642.806         -18.218           0.255  
> 2019 05 08 04 25 48.8688020  0  6                     
I02  20905949.828         234.431          11.453           0.255  
I03  20626539.550        -850.397         -16.069           0.255  
I04  21950128.916        -381.947          -7.582           0.255  
I05  23740806.177        9490.550         223.505           0.255  
I06  22337072.949        1594.542          38.271           0.255  
I07  23673343.040        -643.688         -15.445           0.255  
> 2019 05 08 04 25 48.9188020  0  6                     
I02  20905940.198         234.700           5.260           0.255  
I03  20626538.706        -851.383         -19.348           0.255  
I04  21950130.428        -382.410         -12.837           0.255  
I05  23740802.964        9501.507         217.718           0.255  
I06  22337074.036        1596.411          35.973           0.255  
I07  23673329.652        -644.620         -25.961           0.255  
> 2019 05 08 04 25 48.9688020  0  6                     
I02  20905943.300         234.955           3.517           0.255  
I03  20626546.456        -852.376         -18.355           0.255  
I04  21950122.127        -382.828          -9.409           0.255  
I05  23740797.966        9512.482         219.393           0.255  
I06  22337073.239        1598.264          36.459           0.255  
I07  23673336.491        -645.525         -31.008           0.255  
> 2019 05 08 04 25 49.0188020  0  6                     
I02  20905945.558         235.237           4.240           0.255  
I03  20626547.034        -853.359         -15.794           0.255  
I04  21950125.378        -383.271          -7.943           0.255  
I05  23740794.391        9523.459         221.856           0.255  
I06  22337074.028        1600.130          38.778           0.255  
I07  23673340.454        -646.368         -20.041           0.255  
> 2019 05 08 04 25 49.0688020  0  6                     
I02  20905945.446         235.504           5.610           0.255  
I03  20626538.059        -854.315         -14.418           0.255  
I04  21950131.436        -383.704         -11.707           0.255  
I05  23740792.830        9534.435         221.779           0.255  
I06  22337077.029        1601.967          38.254           0.255  
I07  23673329.284        -647.228         -20.833           0.255  
> 2019 05 08 04 25 49.1188020  0  6                     
I02  20905948.135         235.771           4.577           0.255  
I03  20626547.209        -855.318         -15.946           0.255  
I04  21950120.307        -384.929         -62.840           0.255  
I05  23740790.840        9545.350         218.149           0.255  
I06  22337074.699        1603.254        -141.964           0.255  
I07  23673336.284        -648.059         -19.432           0.255  
> 2019 05 08 04 25 49.1688020  0  6                     
I02  20905946.238         236.048           5.103           0.255  
I03  20626539.305        -856.297         -18.268           0.255  
I04  21950127.028        -384.563          -7.074           0.255  
I05  23740786.174        9556.319         219.578           0.255  
I06  22337074.222        1605.687          35.033           0.255  
I07  23673327.311        -649.006         -11.636           0.255  
> 2019 05 08 04 25 49.2188020  0  6                     
I02  20905948.177         236.324           5.829           0.255  
I03  20626546.358        -857.302         -19.480           0.255  
I04  21950117.883        -385.906         -12.761           0.255  
I05  23740785.470        9567.300         220.298           0.255  
I06  22337074.827        1607.545          38.141           0.255  
I07  23673331.669        -649.878         -18.505           0.255  
> 2019 05 08 04 25 49.2688020  0  6                     
I02  20905948.154         236.619           8.179           0.255  
I03  20626539.353        -858.273         -16.461           0.255  
I04  21950120.978        -385.415          -3.572           0.255  
I05  23740782.427        9578.298         223.565           0.255  
I06  22337073.746        1609.250          66.707           0.255  
I07  23673336.165        -650.742         -13.793           0.255  
> 2019 05 08 04 25 49.3188020  0  6                     
I02  20905947.427         236.931          11.317           0.255  
I03  20626541.539        -859.247         -21.076           0.255  
I04  21950121.808        -385.873          -7.239           0.255  
I05  23740780.787        9589.281         220.092           0.255  
I06  22337070.637        1611.281          38.922           0.255  
I07  23673342.607        -651.592         -15.579           0.255  
> 2019 05 08 04 25 49.3688020  0  6                     
I02  20905946.418         237.146          11.438           0.255  
I03  20626543.230        -860.271         -21.598           0.255  
I04  21950127.425        -386.362         -11.105           0.255  
I05  23740777.103        9600.213         220.255           0.255  
I06  22337071.329        1613.099          38.159           0.255  
I07  23673331.722        -652.519         -10.040           0.255  
> 2019 05 08 04 25 49.4188020  0  6                     
I02  20905947.460         237.384           6.517           0.255  
I03  20626545.426        -861.301         -22.700           0.255  
I04  21950131.439        -386.826         -13.847           0.255  
I05  23740774.473        9611.135         215.813           0.255  
I06  22337069.296        1614.936          37.788           0.255  
I07  23673335.150        -653.431         -16.982           0.255  
> 2019 05 08 04 25 49.4688020  0  6                     
I02  20905949.036         237.196          65.803           0.255  
I03  20626545.174        -862.313         -22.219           0.255  
I04  21950122.254        -386.293         171.818           0.255  
I05  23740769.659        9622.089         219.623           0.255  
I06  22337066.115        1616.747          36.825           0.255  
I07  23673338.821        -654.356         -16.512           0.255  
> 2019 05 08 04 25 49.5188020  0  6                     
I02  20905947.821         237.892          10.107           0.255  
I03  20626545.125        -863.309         -19.902           0.255  
I04  21950127.632        -387.662          -6.571           0.255  
I05  23740766.512        9633.047         219.275           0.255  
I06  22337068.904        1618.617          35.449           0.255  
I07  23673331.614        -655.247         -15.708           0.255  
> 2019 05 08 04 25 49.5688020  0  6                     
I02  20905949.252         238.187           8.886           0.255  
I03  20626545.192        -864.269         -18.206           0.255  
I04  21950134.000        -388.124         -12.924           0.255  
I05  23740763.297        9644.030         218.766           0.255  
I06  22337067.592        1620.495          34.092           0.255  
I07  23673334.708        -656.155         -21.555           0.255  
> 2019 05 08 04 25 49.6188020  0  6                     
I02  20905949.070         238.458           4.714           0.255  
I03  20626547.216        -865.249         -21.670           0.255  
I04  21950123.950        -388.586         -12.267           0.255  
I05  23740761.036        9655.007         217.033           0.255  
I06  22337068.546        1622.329          34.020           0.255  
I07  23673343.262        -657.008         -24.401           0.255  
> 2019 05 08 04 25 49.6688020  0  6                     
I02  20905947.830         238.713           9.521           0.255  
I03  20626537.511        -866.236         -19.409           0.255  
I04  21950128.863        -389.031          -8.617           0.255  
I05  23740757.029        9665.965         221.246           0.255  
I06  22337072.313        1624.199          36.031           0.255  
I07  23673331.398        -657.907         -24.062           0.255  
> 2019 05 08 04 25 49.7188020  0  6                     
I02  20905946.404         239.040          14.364           0.255  
I03  20626537.673        -867.226         -20.640           0.255  
I04  21950121.148        -389.375          -4.430           0.255  
I05  23740754.268        9676.977         222.283           0.255  
I06  22337068.436        1626.118          38.375           0.255  
I07  23673334.752        -658.760         -12.490           0.255  
> 2019 05 08 04 25 49.7688020  0  6                     
I02  20905947.986         239.320          11.666           0.255  
I03  20626538.107        -868.174         -22.591           0.255  
I04  21950126.626        -389.779          -2.028           0.255  
I05  23740754.559        9687.969         220.678           0.255  
I06  22337066.602        1627.985          39.380           0.255  
I07  23673340.891        -659.645         -16.009           0.255  
> 2019 05 08 04 25 49.8188020  0  6                     
I02  20905946.856         239.588           6.177           0.255  
I03  20626541.522        -869.131         -21.342           0.255  
I04  21950120.564        -390.226          -5.328           0.255  
I05  23740747.053        9698.940         216.261           0.255  
I06  22337066.028        1629.844          38.950           0.255  
I07  23673330.479        -660.553         -27.224           0.255  
> 2019 05 08 04 25 49.8688020  0  6                     
I02  20905948.700         239.867           8.946           0.255  
I03  20626541.065        -870.125         -19.196           0.255  
I04  21950126.050        -390.663          -3.214           0.255  
I05  23740744.429        9709.909         220.950           0.255  
I06  22337064.137        1631.715          40.195           0.255  
I07  23673337.353        -661.486         -24.177           0.255  
> 2019 05 08 04 25 49.9188020  0  6                     
I02  20905948.515         240.179          11.087           0.255  
I03  20626544.814        -871.089         -16.026           0.255  
I04  21950130.464        -391.092          -6.835           0.255  
I05  23740741.830        9720.894         220.445           0.255  
I06  22337063.117        1633.565          37.851           0.255  
I07  23673342.794        -662.295         -29.268           0.255  
> 2019 05 08 04 25 49.9688020  0  6                     
I02  20905947.616         240.488          11.148           0.255  
I03  20626545.859        -872.049         -17.346           0.255  
I04  21950121.039        -391.472          -6.337           0.255  
I05  23740742.860        9731.885         222.352           0.255  
I06  22337061.941        1635.455          38.282           0.255  
I07  23673332.576        -663.100         -13.867           0.255  
> 2019 05 08 04 25 50.0188020  0  6                     
I02  20905948.362         240.772           5.821           0.255  
I03  20626539.864        -873.036         -20.334           0.255  
I04  21950126.061        -391.918          -3.693           0.255  
I05  23740739.561        9742.874         218.426           0.255  
I06  22337063.374        1637.343          39.083           0.255  
I07  23673337.390        -663.992         -21.327           0.255  
> 2019 05 08 04 25 50.0688020  0  6                     
I02  20905947.193         240.177        -133.281           0.255  
I03  20626540.379        -874.001         -19.402           0.255  
I04  21950131.328        -392.419         -12.972           0.255  
I05  23740733.254        9753.853         218.225           0.255  
I06  22337063.215        1640.239         145.682           0.255  
I07  23673327.117        -664.823         -19.603           0.255  
> 2019 05 08 04 25 50.1188020  0  6                     
I02  20905947.771         241.319           5.687           0.255  
I03  20626542.509        -875.016         -21.195           0.255  
I04  21950119.072        -392.795         -13.872           0.255  
I05  23740731.321        9764.826         215.382           0.255  
I06  22337063.025        1641.070          36.641           0.255  
I07  23673335.915        -665.633         -13.804           0.255  
> 2019 05 08 04 25 50.1688020  0  6                     
I02  20905947.294         241.657          10.254           0.255  
I03  20626544.967        -875.947         -19.667           0.255  
I04  21950122.402        -393.167          -6.719           0.255  
I05  23740726.878        9775.855         221.333           0.255  
I06  22337062.228        1642.960          37.523           0.255  
I07  23673340.259        -666.564         -13.427           0.255  
> 2019 05 08 04 25 50.2188020  0  6                     
I02  20905945.476         241.952           7.168           0.255  
I03  20626545.692        -876.917         -20.142           0.255  
I04  21950129.346        -393.556          -3.738           0.255  
I05  23740725.250        9786.834         219.748           0.255  
I06  22337063.160        1644.842          39.185           0.255  
I07  23673331.257        -667.397         -11.257           0.255  
> 2019 05 08 04 25 50.2688020  0  6                     
I02  20905947.217         242.238           3.253           0.255  
I03  20626547.504        -877.876         -18.425           0.255  
I04  21950118.898        -394.014          -8.513           0.255  
I05  23740725.694        9797.805         218.491           0.255  
I06  22337065.068        1646.700          36.517           0.255  
I07  23673338.159        -668.271         -13.330           0.255  
> 2019 05 08 04 25 50.3188020  0  6                     
I02  20905945.940         242.473           4.490           0.255  
I03  20626539.163        -878.838         -19.424           0.255  
I04  21950123.423        -394.400          -6.943           0.255  
I05  23740720.648        9808.765         215.981           0.255  
I06  22337066.220        1648.555          36.051           0.255  
I07  23673327.740        -669.218         -19.235           0.255  
> 2019 05 08 04 25 50.3688020  0  6                     
I02  20905947.994         242.316        -113.046           0.255  
I03  20626542.469        -879.853         -16.453           0.255  
I04  21950129.848        -394.680         127.689           0.255  
I05  23740718.148        9819.736         220.765           0.255  
I06  22337061.794        1650.444         167.155           0.255  
I07  23673336.332        -670.164         -19.881           0.255  
> 2019 05 08 04 25 50.4188020  0  6                     
I02  20905946.946         243.016           3.442           0.255  
I03  20626546.704        -880.822         -15.972           0.255  
I04  21950123.300        -395.797         -22.196           0.255  
I05  23740714.259        9830.729         221.950           0.255  
I06  22337057.621        1652.261          41.729           0.255  
I07  23673343.574        -671.126         -20.393           0.255  
> 2019 05 08 04 25 50.4688020  0  6                     
I02  20905948.622         243.284           1.564           0.255  
I03  20626546.078        -881.853         -21.105           0.255  
I04  21950127.227        -395.806          -7.222           0.255  
I05  23740701.846        9841.669         217.119           0.255  
I06  22337057.664        1654.074          36.212           0.255  
I07  23673333.374        -671.893         -16.864           0.255  
> 2019 05 08 04 25 50.5188020  0  6                     
I02  20905950.441         243.544           0.152           0.255  
I03  20626547.070        -882.838         -23.106           0.255  
I04  21950118.423        -396.242          -5.151           0.255  
I05  23740704.026        9852.645         216.773           0.255  
I06  22337057.819        1655.934          34.478           0.255  
I07  23673334.912        -672.795         -18.950           0.255  
> 2019 05 08 04 25 50.5688020  0  6                     
I02  20905947.255         243.889           7.299           0.255  
I03  20626543.322        -883.793         -21.049           0.255  
I04  21950120.943        -396.667          -8.241           0.255  
I05  23740706.993        9863.637         218.865           0.255  
I06  22337059.173        1657.870          40.306           0.255  
I07  23673365.797        -673.589         -15.240           0.255  
> 2019 05 08 04 25 50.6188020  0  6                     
I02  20905946.049         244.229           6.210           0.255  
I03  20626542.691        -884.700         -17.240           0.255  
I04  21950128.317        -397.000          -2.525           0.255  
I05  23740703.818        9874.674         221.914           0.255  
I06  22337061.030        1659.753          41.037           0.255  
I07  23673399.379        -674.432          -8.236           0.255  
> 2019 05 08 04 25 50.6688020  0  6                     
I02  20905946.398         244.473           2.531           0.255  
I03  20626545.123        -885.652         -15.396           0.255  
I04  21950120.379        -397.413          -0.713           0.255  
I05  23740704.763        9885.669         223.288           0.255  
I06  22337059.602        1661.607          38.435           0.255  
I07  23673406.766        -675.341         -11.610           0.255  
> 2019 05 08 04 25 50.7188020  0  6                     
I02  20905945.681         244.771           3.267           0.255  
I03  20626538.108        -886.667         -20.849           0.255  
I04  21950126.866        -397.840          -7.606           0.255  
I05  23740700.422        9896.645         219.634           0.255  
I06  22337060.069        1663.466          36.480           0.255  
I07  23673413.729        -676.191         -17.400           0.255  
> 2019 05 08 04 25 50.7688020  0  6                     
I02  20905944.263         245.089           7.050           0.255  
I03  20626538.757        -887.656         -20.158           0.255  
I04  21950123.110        -398.353         -14.514           0.255  
I05  23740697.399        9907.617         218.641           0.255  
I06  22337060.036        1665.383          38.985           0.255  
I07  23673405.228        -677.050         -15.884           0.255  
> 2019 05 08 04 25 50.8188020  0  6                     
I02  20905943.287         245.336           8.340           0.255  
I03  20626543.164        -888.616         -19.627           0.255  
I04  21950126.733        -398.682          -5.518           0.255  
I05  23740696.450        9918.617         220.617           0.255  
I06  22337057.682        1667.261          40.250           0.255  
I07  23673408.698        -677.873          -9.314           0.255  
> 2019 05 08 04 25 50.8688020  0  6                     
I02  20905946.267         245.697          13.218           0.255  
I03  20626546.635        -889.574         -15.316           0.255  
I04  21950119.613        -399.128          -3.404           0.255  
I05  23740693.078        9929.615         227.314           0.255  
I06  22337054.417        1669.121          43.423           0.255  
I07  23673401.691        -678.787          -9.073           0.255  
> 2019 05 08 04 25 50.9188020  0  6                     
I02  20905948.727         245.972           5.308           0.255  
I03  20626538.145        -890.540         -18.632           0.255  
I04  21950123.316        -399.569          -5.798           0.255  
I05  23740690.352        9940.610         224.250           0.255  
I06  22337054.081        1670.986          41.811           0.255  
I07  23673402.957        -679.782         -17.760           0.255  
> 2019 05 08 04 25 50.9688020  0  6                     
I02  20905949.893         246.274           4.239           0.255  
I03  20626540.299        -891.529         -18.702           0.255  
I04  21950130.235        -400.014         -13.021           0.255  
I05  23740689.565        9951.602         223.354           0.255  
I06  22337054.358        1672.854          38.630           0.255  
I07  23673403.765        -680.534         -15.787           0.255  
> 2019 05 08 04 25 51.0188020  0  6                     
I02  20905947.492         246.551           3.627           0.255  
I03  20626543.782        -892.505         -18.665           0.255  
I04  21950123.098        -400.344          -8.160           0.255  
I05  23740685.952        9962.578         223.083           0.255  
I06  22337056.060        1674.720          37.953           0.255  
I07  23673408.118        -681.460         -23.212           0.255  
> 2019 05 08 04 25 51.0688020  0  6                     
I02  20905945.203         246.894           7.452           0.255  
I03  20626546.331        -893.437         -16.410           0.255  
I04  21950128.933        -401.071        -262.549           0.255  
I05  23740681.689        9973.604         226.558           0.255  
I06  22337056.754        1676.613          35.098           0.255  
I07  23673407.295        -682.246         -11.816           0.255  
> 2019 05 08 04 25 51.1188020  0  6                     
I02  20905947.014         248.978         164.419           0.255  
I03  20626541.224        -894.394         -15.395           0.255  
I04  21950120.899        -401.414         -70.902           0.255  
I05  23740679.667        9984.591         222.432           0.255  
I06  22337055.262        1678.514          34.942           0.255  
I07  23673406.456        -683.143         -25.546           0.255  
> 2019 05 08 04 25 51.1688020  0  6                     
I02  20905945.014         247.480           1.014           0.255  
I03  20626541.550        -895.367         -17.546           0.255  
I04  21950127.082        -401.650         -10.043           0.255  
I05  23740676.188        9995.567         218.699           0.255  
I06  22337056.714        1680.384          36.300           0.255  
I07  23673407.895        -684.040         -24.953           0.255  
> 2019 05 08 04 25 51.2188020  0  6                     
I02  20905944.446         247.524          -0.479           0.255  
I03  20626546.014        -896.360         -19.861           0.255  
I04  21950120.200        -402.071         -12.913           0.255  
I05  23740672.477       10006.565         221.671           0.255  
I06  22337053.917        1681.326        -118.359           0.255  
I07  23673410.824        -684.884         -23.541           0.255  
> 2019 05 08 04 25 51.2688020  0  6                     
I02  20905944.822         248.085           7.254           0.255  
I03  20626539.573        -897.301         -17.398           0.255  
I04  21950127.669        -402.454          -3.721           0.255  
I05  23740670.659       10017.579         226.409           0.255  
I06  22337054.614        1684.115          36.039           0.255  
I07  23673411.395        -685.740         -18.179           0.255  
> 2019 05 08 04 25 51.3188020  0  6                     
I02  20905942.856         247.529          54.495           0.255  
I03  20626544.782        -898.281         -20.590           0.255  
I04  21950118.769        -402.826          -1.218           0.255  
I05  23740669.584       10028.573         224.147           0.255  
I06  22337057.389        1686.017          37.699           0.255  
I07  23673413.820        -686.570         -19.257           0.255  
> 2019 05 08 04 25 51.3688020  0  6                     
I02  20905944.711         248.677          14.014           0.255  
I03  20626542.598        -899.239         -13.434           0.255  
I04  21950125.478        -403.227           2.616           0.255  
I05  23740666.767       10039.556         226.419           0.255  
I06  22337054.812        1687.909          40.729           0.255  
I07  23673400.766        -687.477         -15.182           0.255  
> 2019 05 08 04 25 51.4188020  0  6                     
I02  20905944.111         248.960           5.434           0.255  
I03  20626545.039        -900.191         -14.652           0.255  
I04  21950119.827        -403.706          -4.355           0.255  
I05  23740662.745       10050.539         222.315           0.255  
I06  22337055.400        1689.753          36.811           0.255  
I07  23673404.373        -688.340         -15.969           0.255  
> 2019 05 08 04 25 51.4688020  0  6                     
I02  20905944.365         249.229           5.089           0.255  
I03  20626543.551        -901.187         -19.338           0.255  
I04  21950124.048        -404.198         -10.576           0.255  
I05  23740660.710       10061.528         220.916           0.255  
I06  22337054.966        1691.610          36.136           0.255  
I07  23673404.316        -689.216         -15.400           0.255  
> 2019 05 08 04 25 51.5188020  0  6                     
I02  20905944.582         249.543           7.875           0.255  
I03  20626545.759        -902.160         -20.572           0.255  
I04  21950130.361        -404.528          -9.872           0.255  
I05  23740657.525       10072.525         220.680           0.255  
I06  22337055.495        1693.493          35.234           0.255  
I07  23673405.570        -690.055         -19.168           0.255  
> 2019 05 08 04 25 51.5688020  0  6                     
I02  20905945.929         249.845           2.514           0.255  
I03  20626543.382        -903.110         -19.108           0.255  
I04  21950119.846        -404.938         -10.059           0.255  
I05  23740654.831       10083.540         219.535           0.255  
I06  22337049.533        1695.401          34.603           0.255  
I07  23673409.656        -690.956         -27.078           0.255  
> 2019 05 08 04 25 51.6188020  0  6                     
I02  20905945.664         250.134          -0.335           0.255  
I03  20626541.563        -904.131         -24.042           0.255  
I04  21950125.155        -405.367          -8.575           0.255  
I05  23740651.719       10094.516         219.647           0.255  
I06  22337049.493        1697.233          33.443           0.255  
I07  23673409.494        -691.760         -15.760           0.255  
> 2019 05 08 04 25 51.6688020  0  6                     
I02  20905946.432         250.410           1.306           0.255  
I03  20626547.245        -905.107         -16.227           0.255  
I04  21950130.665        -405.834          -9.872           0.255  
I05  23740647.888       10105.452         219.674           0.255  
I06  22337047.951        1699.085          39.123           0.255  
I07  23673410.815        -692.677         -23.183           0.255  
> 2019 05 08 04 25 51.7188020  0  6                     
I02  20905947.302         250.699           5.148           0.255  
I03  20626543.351        -906.095         -16.965           0.255  
I04  21950125.408        -406.294         -10.011           0.255  
I05  23740646.202       10116.434         223.223           0.255  
I06  22337049.485        1700.952          40.440           0.255  
I07  23673410.418        -693.556         -17.053           0.255  
> 2019 05 08 04 25 51.7688020  0  6                     
I02  20905945.571         251.000           6.526           0.255  
I03  20626547.042        -907.077         -17.345           0.255  
I04  21950129.741        -406.701         -12.253           0.255  
I05  23740646.064       10127.425         220.121           0.255  
I06  22337047.461        1702.835          38.941           0.255  
I07  23673402.020        -694.425         -15.094           0.255  
> 2019 05 08 04 25 51.8188020  0  6                     
I02  20905944.130         251.275           3.131           0.255  
I03  20626540.377        -908.071         -20.641           0.255  
I04  21950123.365        -407.168         -14.945           0.255  
I05  23740641.410       10138.369         215.671           0.255  
I06  22337047.302        1704.693          38.571           0.255  
I07  23673404.861        -695.341         -19.432           0.255  
> 2019 05 08 04 25 51.8688020  0  6                     
I02  20905944.314         251.496           6.303           0.255  
I03  20626544.881        -909.089         -21.438           0.255  
I04  21950126.495        -407.669         -10.117           0.255  
I05  23740624.515       10149.274         218.946           0.255  
I06  22337049.723        1706.507          40.581           0.255  
I07  23673408.820        -696.280          -8.637           0.255  
> 2019 05 08 04 25 51.9188020  0  6                     
I02  20905944.318         251.776           6.643           0.255  
I03  20626540.059        -910.096         -20.022           0.255  
I04  21950130.839        -408.060          -3.731           0.255  
I05  23740628.698       10160.262         219.210           0.255  
I06  22337049.561        1708.359          39.541           0.255  
I07  23673402.181        -697.172         -22.031           0.255  
> 2019 05 08 04 25 51.9688020  0  6                     
I02  20905944.963         252.072           5.690           0.255  
I03  20626544.692        -911.038         -16.968           0.255  
I04  21950121.989        -408.538          -7.961           0.255  
I05  23740628.616       10171.256         219.114           0.255  
I06  22337047.978        1710.231          40.337           0.255  
I07  23673402.759        -698.050         -14.618           0.255  
> 2019 05 08 04 25 52.0188020  0  6                     
I02  20905945.424         252.357           5.768           0.255  
I03  20626541.168        -912.015         -18.485           0.255  
I04  21950125.548        -408.930          -8.373           0.255  
I05  23740627.188       10182.252         219.396           0.255  
I06  22337048.141        1712.073          35.986           0.255  
I07  23673401.541        -698.903         -14.000           0.255  
> 2019 05 08 04 25 52.0688020  0  6                     
I02  20905944.298         252.645           7.618           0.255  
I03  20626547.862        -913.007         -18.502           0.255  
I04  21950120.837        -409.379         -13.289           0.255  
I05  23740627.255       10193.239         220.316           0.255  
I06  22337046.142        1713.947          36.483           0.255  
I07  23673402.009        -699.858         -25.600           0.255  
> 2019 05 08 04 25 52.1188020  0  6                     
I02  20905943.074         252.876           3.527           0.255  
I03  20626545.231        -914.014         -20.499           0.255  
I04  21950127.358        -409.752          -7.076           0.255  
I05  23740624.772       10204.200         219.734           0.255  
I06  22337044.112        1715.797          37.250           0.255  
I07  23673408.700        -700.735         -20.378           0.255  
> 2019 05 08 04 25 52.1688020  0  6                     
I02  20905943.600         253.877          86.944           0.255  
I03  20626540.219        -914.971         -17.406           0.255  
I04  21950123.413        -410.200          36.475           0.255  
I05  23740622.261       10215.192         222.153           0.255  
I06  22337043.922        1717.667          39.783           0.255  
I07  23673411.953        -701.593         -20.371           0.255  
> 2019 05 08 04 25 52.2188020  0  6                     
I02  20905945.371         253.469           4.826           0.255  
I03  20626544.743        -915.968         -18.793           0.255  
I04  21950126.760        -410.624          -7.187           0.255  
I05  23740618.714       10226.145         218.272           0.255  
I06  22337045.094        1719.518          36.390           0.255  
I07  23673402.185        -702.450         -21.547           0.255  
> 2019 05 08 04 25 52.2688020  0  6                     
I02  20905946.974         253.726           0.526           0.255  
I03  20626542.495        -916.950         -18.654           0.255  
I04  21950120.273        -411.053          -6.718           0.255  
I05  23740616.045       10237.110         216.731           0.255  
I06  22337041.815        1721.372          33.279           0.255  
I07  23673403.149        -703.336         -22.835           0.255  
> 2019 05 08 04 25 52.3188020  0  6                     
I02  20905945.012         254.052           4.809           0.255  
I03  20626540.850        -917.947         -23.439           0.255  
I04  21950129.812        -411.555          -9.200           0.255  
I05  23740613.132       10248.096         218.346           0.255  
I06  22337040.322        1723.226          34.953           0.255  
I07  23673406.720        -704.267         -20.919           0.255  
> 2019 05 08 04 25 52.3688020  0  6                     
I02  20905943.820         254.296           9.866           0.255  
I03  20626545.616        -918.963         -19.270           0.255  
I04  21950120.393        -411.997          -5.798           0.255  
I05  23740609.180       10259.038         223.594           0.255  
I06  22337043.290        1725.044          39.791           0.255  
I07  23673408.445        -705.230         -11.622           0.255  
> 2019 05 08 04 25 52.4188020  0  6                     
I02  20905945.454         254.570          14.051           0.255  
I03  20626542.256        -919.961         -17.676           0.255  
I04  21950125.327        -412.410          -5.171           0.255  
I05  23740605.531       10270.002         224.544           0.255  
I06  22337045.671        1726.909          41.717           0.255  
I07  23673412.605        -706.025         -16.841           0.255  
> 2019 05 08 04 25 52.4688020  0  6                     
I02  20905945.831         254.821           5.390           0.255  
I03  20626548.795        -920.998         -21.991           0.255  
I04  21950118.857        -412.904          -6.862           0.255  
I05  23740602.231       10280.972         220.632           0.255  
I06  22337043.086        1728.700          36.128           0.255  
I07  23673402.801        -706.963         -18.947           0.255  
> 2019 05 08 04 25 52.5188020  0  6                     
I02  20905949.066         255.077           2.392           0.255  
I03  20626546.222        -922.012         -23.782           0.255  
I04  21950122.396        -413.426         -13.728           0.255  
I05  23740598.384       10291.900         216.589           0.255  
I06  22337042.907        1730.545          33.215           0.255  
I07  23673404.786        -707.829         -18.538           0.255  
> 2019 05 08 04 25 52.5688020  0  6                     
I02  20905945.157         255.365           5.888           0.255  
I03  20626544.224        -922.975         -20.847           0.255  
I04  21950131.534        -413.783         -14.168           0.255  
I05  23740595.286       10302.877         216.858           0.255  
I06  22337040.694        1732.393          34.770           0.255  
I07  23673410.772        -708.781         -22.782           0.255  
> 2019 05 08 04 25 52.6188020  0  6                     
I02  20905943.762         255.659          10.973           0.255  
I03  20626542.934        -923.951         -17.277           0.255  
I04  21950120.067        -414.226         -13.709           0.255  
I05  23740594.792       10313.852         219.223           0.255  
I06  22337041.358        1734.291          41.100           0.255  
I07  23673401.313        -709.686         -27.836           0.255  
> 2019 05 08 04 25 52.6688020  0  6                     
I02  20905946.504         255.918           8.038           0.255  
I03  20626547.243        -924.953         -17.553           0.255  
I04  21950126.346        -414.608          -8.829           0.255  
I05  23740591.237       10324.846         221.070           0.255  
I06  22337039.515        1736.110          38.605           0.255  
I07  23673407.982        -710.524         -18.994           0.255  
> 2019 05 08 04 25 52.7188020  0  6                     
I02  20905946.186         256.168           2.294           0.255  
I03  20626547.557        -925.975         -21.980           0.255  
I04  21950132.709        -415.057          -5.611           0.255  
I05  23740587.734       10335.795         218.725           0.255  
I06  22337039.782        1737.963          36.151           0.255  
I07  23673413.464        -711.442         -21.255           0.255  
> 2019 05 08 04 25 52.7688020  0  6                     
I02  20905947.485         256.453           7.759           0.255  
I03  20626542.606        -926.961         -21.994           0.255  
I04  21950121.560        -415.525         -11.776           0.255  
I05  23740586.676       10346.789         218.742           0.255  
I06  22337039.133        1739.806          36.383           0.255  
I07  23673401.054        -712.307         -15.018           0.255  
> 2019 05 08 04 25 52.8188020  0  6                     
I02  20905947.234         256.719           6.159           0.255  
I03  20626540.914        -927.962         -19.221           0.255  
I04  21950129.561        -415.997         -11.150           0.255  
I05  23740584.899       10357.754         220.639           0.255  
I06  22337034.251        1741.652          38.278           0.255  
I07  23673405.557        -713.203         -23.268           0.255  
> 2019 05 08 04 25 52.8688020  0  6                     
I02  20905944.376         256.998           9.312           0.255  
I03  20626547.990        -928.938         -14.000           0.255  
I04  21950123.577        -416.445          -8.007           0.255  
I05  23740582.087       10368.714         223.792           0.255  
I06  22337035.617        1743.500          39.823           0.255  
I07  23673411.871        -714.014          -4.224           0.255  
> 2019 05 08 04 25 52.9188020  0  6                     
I02  20905944.891         257.264           4.855           0.255  
I03  20626547.639        -929.896         -16.542           0.255  
I04  21950132.232        -416.824          -9.291           0.255  
I05  23740579.040       10379.694         219.541           0.255  
I06  22337036.216        1745.393          40.158           0.255  
I07  23673404.594        -714.905         -11.940           0.255  
> 2019 05 08 04 25 52.9688020  0  6                     
I02  20905943.080         257.532           6.435           0.255  
I03  20626542.552        -930.878         -20.479           0.255  
I04  21950121.816        -417.254          -8.418           0.255  
I05  23740574.884       10390.706         221.686           0.255  
I06  22337037.554        1747.245          38.092           0.255  
I07  23673408.253        -715.824         -13.433           0.255  
> 2019 05 08 04 25 53.0188020  0  6                     
I02  20905943.197         257.834           5.764           0.255  
I03  20626540.701        -931.897         -22.934           0.255  
I04  21950129.566        -417.737          -6.404           0.255  
I05  23740572.956       10401.661         219.374           0.255  
I06  22337039.356        1749.118          37.179           0.255  
I07  23673413.387        -716.709         -13.696           0.255  
> 2019 05 08 04 25 53.0688020  0  6                     
I02  20905943.183         258.125           7.725           0.255  
I03  20626547.816        -932.836         -19.882           0.255  
I04  21950124.418        -418.163          -3.722           0.255  
I05  23740572.527       10412.660         222.464           0.255  
I06  22337034.719        1750.962          37.870           0.255  
I07  23673401.771        -717.607         -15.150           0.255  
> 2019 05 08 04 25 53.1188020  0  6                     
I02  20905942.506         258.435           7.514           0.255  
I03  20626546.718        -933.791         -16.592           0.255  
I04  21950122.744        -418.594          -8.420           0.255  
I05  23740567.439       10423.641         221.763           0.255  
I06  22337034.193        1752.829          35.840           0.255  
I07  23673403.975        -718.465         -15.063           0.255  
> 2019 05 08 04 25 53.1688020  0  6                     
I02  20905945.222         258.723           5.078           0.255  
I03  20626544.921        -934.782         -17.838           0.255  
I04  21950124.773        -418.968         -10.589           0.255  
I05  23740565.418       10434.635         221.034           0.255  
I06  22337034.518        1754.700          34.338           0.255  
I07  23673410.331        -719.297         -16.484           0.255  
> 2019 05 08 04 25 53.2188020  0  6                     
I02  20905944.312         258.979           2.244           0.255  
I03  20626541.569        -935.790         -20.401           0.255  
I04  21950131.664        -419.400          -9.375           0.255  
I05  23740560.665       10445.608         218.116           0.255  
I06  22337035.717        1756.561          36.158           0.255  
I07  23673402.132        -720.229         -19.741           0.255  
> 2019 05 08 04 25 53.2688020  0  6                     
I02  20905945.694         259.239           1.570           0.255  
I03  20626538.872        -936.797         -20.694           0.255  
I04  21950122.816        -419.801          -8.721           0.255  
I05  23740556.852       10456.569         219.458           0.255  
I06  22337034.763        1758.418          40.185           0.255  
I07  23673408.883        -721.093         -11.910           0.255  
> 2019 05 08 04 25 53.3188020  0  6                     
I02  20905944.063         258.849         -11.774           0.255  
I03  20626548.005        -937.759         -17.524           0.255  
I04  21950134.245        -420.643          -3.999           0.255  
I05  23740552.487       10467.583         224.437           0.255  
I06  22337033.719        1760.329          42.274           0.255  
I07  23673402.212        -721.992         -21.012           0.255  
> 2019 05 08 04 25 53.3688020  0  6                     
I02  20905942.391         259.818           8.759           0.255  
I03  20626543.722        -938.747         -14.450           0.255  
I04  21950126.472        -420.722          -5.861           0.255  
I05  23740549.290       10478.524         224.354           0.255  
I06  22337035.141        1762.140          40.166           0.255  
I07  23673405.529        -722.888         -20.586           0.255  
> 2019 05 08 04 25 53.4188020  0  6                     
I02  20905941.835         260.100           9.743           0.255  
I03  20626540.877        -939.759         -20.066           0.255  
I04  21950120.004        -421.201         -12.946           0.255  
I05  23740548.204       10489.471         218.222           0.255  
I06  22337032.216        1763.975          38.338           0.255  
I07  23673411.737        -723.733         -15.047           0.255  
> 2019 05 08 04 25 53.4688020  0  6                     
I02  20905941.635         260.343           4.082           0.255  
I03  20626548.974        -940.778         -22.687           0.255  
I04  21950125.535        -421.605         -11.591           0.255  
I05  23740547.459       10500.427         216.280           0.255  
I06  22337031.111        1765.834          37.273           0.255  
I07  23673403.679        -724.692         -17.760           0.255  
> 2019 05 08 04 25 53.5188020  0  6                     
I02  20905942.647         260.655          10.332           0.255  
I03  20626544.536        -941.731         -18.212           0.255  
I04  21950119.973        -422.017          -8.935           0.255  
I05  23740544.552       10511.454         222.564           0.255  
I06  22337031.773        1767.699          36.692           0.255  
I07  23673406.451        -725.512         -12.014           0.255  
> 2019 05 08 04 25 53.5688020  0  6                     
I02  20905943.331         260.993           8.632           0.255  
I03  20626543.215        -942.688         -21.100           0.255  
I04  21950126.010        -422.436          -8.837           0.255  
I05  23740540.083       10522.482         222.470           0.255  
I06  22337029.826        1769.582          35.646           0.255  
I07  23673408.124        -726.408         -19.395           0.255  
> 2019 05 08 04 25 53.6188020  0  6                     
I02  20905941.365         261.271           7.001           0.255  
I03  20626544.933        -943.697         -21.828           0.255  
I04  21950118.879        -422.916         -10.108           0.255  
I05  23740538.382       10533.450         220.069           0.255  
I06  22337034.771        1771.443          36.489           0.255  
I07  23673402.032        -727.304         -24.115           0.255  
> 2019 05 08 04 25 53.6688020  0  6                     
I02  20905941.875         261.519           5.621           0.255  
I03  20626542.027        -944.694         -19.870           0.255  
I04  21950127.889        -423.350          -9.422           0.255  
I05  23740536.435       10544.400         217.426           0.255  
I06  22337032.799        1773.275          35.913           0.255  
I07  23673408.265        -728.195         -24.388           0.255  
> 2019 05 08 04 25 53.7188020  0  6                     
I02  20905944.656         261.785           9.981           0.255  
I03  20626539.128        -945.653         -19.376           0.255  
I04  21950133.990        -423.737          -6.234           0.255  
I05  23740534.824       10555.390         220.309           0.255  
I06  22337029.939        1775.174          39.826           0.255  
I07  23673401.271        -729.104         -20.363           0.255  
> 2019 05 08 04 25 53.7688020  0  6                     
I02  20905944.593         262.060           8.808           0.255  
I03  20626548.670        -946.626         -16.367           0.255  
I04  21950123.793        -424.180          -3.007           0.255  
I05  23740529.730       10566.375         222.002           0.255  
I06  22337028.157        1777.019          40.341           0.255  
I07  23673403.800        -729.992         -23.154           0.255  
> 2019 05 08 04 25 53.8188020  0  6                     
I02  20905942.883         262.354           7.212           0.255  
I03  20626546.328        -947.620         -19.792           0.255  
I04  21950120.635        -424.642          -7.401           0.255  
I05  23740527.126       10577.373         221.948           0.255  
I06  22337030.082        1778.874          38.589           0.255  
I07  23673411.070        -730.794         -23.986           0.255  
> 2019 05 08 04 25 53.8688020  0  6                     
I02  20905941.986         262.618           7.699           0.255  
I03  20626544.532        -948.604         -18.516           0.255  
I04  21950127.463        -425.061          -4.774           0.255  
I05  23740523.775       10588.342         224.214           0.255  
I06  22337031.712        1780.715          38.654           0.255  
I07  23673402.871        -731.734         -17.982           0.255  
> 2019 05 08 04 25 53.9188020  0  6                     
I02  20905943.071         262.891           9.119           0.255  
I03  20626544.040        -949.589         -20.722           0.255  
I04  21950118.316        -425.497          -8.100           0.255  
I05  23740521.731       10599.299         220.442           0.255  
I06  22337031.843        1782.560          37.799           0.255  
I07  23673408.062        -732.642         -24.972           0.255  
> 2019 05 08 04 25 53.9688020  0  6                     
I02  20905942.018         263.142           4.893           0.255  
I03  20626543.428        -950.538         -15.699           0.255  
I04  21950124.868        -425.900          -7.618           0.255  
I05  23740518.802       10610.322         223.827           0.255  
I06  22337027.519        1784.437          37.646           0.255  
I07  23673414.725        -733.488         -17.656           0.255  
> 2019 05 08 04 25 54.0188020  0  6                     
I02  20905945.632         263.458           9.000           0.255  
I03  20626542.532        -951.525         -19.984           0.255  
I04  21950129.678        -426.343          -8.412           0.255  
I05  23740513.950       10621.285         219.380           0.255  
I06  22337024.785        1786.332          37.995           0.255  
I07  23673406.103        -734.337         -10.086           0.255  
> 2019 05 08 04 25 54.0688020  0  6                     
I02  20905941.068         263.768           8.184           0.255  
I03  20626542.514        -952.515         -20.800           0.255  
I04  21950123.670        -426.774         -12.184           0.255  
I05  23740510.419       10632.249         216.793           0.255  
I06  22337029.195        1788.174          34.154           0.255  
I07  23673413.565        -735.145         -11.190           0.255  
> 2019 05 08 04 25 54.1188020  0  6                     
