     3.03           OBSERVATION DATA    M: Mixed            RINEX VERSION / TYPE
GNSS-SDRLIB v1.1                        20230710 093931 UTC PGM / RUN BY / DATE 
                                                            MARKER NAME         
                                                            MARKER NUMBER       
                                                            MARKER TYPE         
                                                            OBSERVER / AGENCY   
GNSS-SDRLIB         GNSS-SDRLIB         1.1                 REC # / TYPE / VERS 
                                                            ANT # / TYPE        
        0.0000        0.0000        0.0000                  APPROX POSITION XYZ 
        0.0000        0.0000        0.0000                  ANTENNA: DELTA H/E/N
G    4 C1C L1C D1C S1C                                      SYS / # / OBS TYPES 
R    4 C1C L1C D1C S1C                                      SYS / # / OBS TYPES 
E    4 C1C L1C D1C S1C                                      SYS / # / OBS TYPES 
J    4 C1C L1C D1C S1C                                      SYS / # / OBS TYPES 
S    4 C1C L1C D1C S1C                                      SYS / # / OBS TYPES 
C    4 C1C L1C D1C S1C                                      SYS / # / OBS TYPES 
  1970    01    01    00    00   00.0000000     GPS         TIME OF FIRST OBS   
  1970    01    01    00    00   00.0000000     GPS         TIME OF LAST OBS    
G L1C  0.00000                                              SYS / PHASE SHIFT   
R L1C  0.00000                                              SYS / PHASE SHIFT   
E L1C  0.00000                                              SYS / PHASE SHIFT   
J L1C  0.00000                                              SYS / PHASE SHIFT   
S L1C  0.00000                                              SYS / PHASE SHIFT   
C L1C  0.00000                                              SYS / PHASE SHIFT   
  0                                                         GLONASS SLOT / FRQ #
 C1C    0.000 C1P    0.000 C2C    0.000 C2P    0.000        GLONASS COD/PHS/BIS 
                                                            END OF HEADER       
> 2023 05 18 00 00 36.0688020  0  3                     
G02  22336826.875      -12312.722        -483.746           0.255  
G04  22527681.496       48701.584        2039.323           0.255  
G05  20627155.022       -7393.716        -465.753           0.255  
> 2023 05 18 00 00 36.0688020  0  5                     
G02  22336826.875      -12312.722        -483.746           0.255  
G03  23613783.522      -46768.557       -2128.251           0.244  
G04  22527681.496       48701.584        2039.323           0.255  
G05  20627155.022       -7393.716        -465.753           0.255  
G07  23100397.122       -8665.417       -1434.850           0.252  
> 2023 05 18 00 00 36.0688020  0  6                     
G01  24306131.437       95987.909        2911.706           0.239  
G02  22336826.875      -12312.722        -483.746           0.255  
G03  23613783.522      -46768.557       -2128.251           0.244  
G04  22527681.496       48701.584        2039.323           0.255  
G05  20627155.022       -7393.716        -465.753           0.255  
G07  23100397.122       -8665.417       -1434.850           0.252  
> 2023 05 18 00 00 36.0688020  0  7                     
G01  24306131.437       95987.909        2911.706           0.239  
G02  22336826.875      -12312.722        -483.746           0.255  
G03  23613783.522      -46768.557       -2128.251           0.244  
G04  22527681.496       48701.584        2039.323           0.255  
G05  20627155.022       -7393.716        -465.753           0.255  
G06  23403729.680      -16526.423       -1337.326           0.248  
G07  23100397.122       -8665.417       -1434.850           0.252  
> 2023 05 18 00 00 36.1688020  0  7                     
G01  24306059.517       96279.002        2912.262           0.239  
G02  22336839.096      -12362.489        -605.309           0.255  
G03  23613838.994      -46981.251       -2126.671           0.244  
G04  22527629.721       48905.941        2141.331           0.255  
G05  20627166.896       -7440.294        -467.500           0.255  
G06  23403761.823      -16657.287       -1309.770           0.248  
G07  23100433.681       -8808.324       -1433.764           0.251  
> 2023 05 18 00 00 36.2688020  0  7                     
G01  24305984.028       96570.090        2911.441           0.239  
G02  22336851.357      -12409.492        -483.170           0.255  
G03  23613893.552      -47193.949       -2126.286           0.244  
G04  22527578.075       49109.227        2047.520           0.255  
G05  20627178.452       -7486.858        -467.089           0.255  
G06  23403795.766      -16788.295       -1284.571           0.248  
G07  23100471.917       -8952.003       -1460.110           0.251  
> 2023 05 18 00 00 36.3688020  0  7                     
G01  24305909.765       96861.187        2912.697           0.239  
G02  22336863.716      -12457.897        -488.801           0.255  
G03  23613947.443      -47406.646       -2127.049           0.244  
G04  22527526.291       49313.157        2037.200           0.255  
G05  20627190.820       -7533.429        -463.278           0.255  
G06  23403828.872      -16919.116       -1308.109           0.248  
G07  23100507.137       -9095.162       -1433.825           0.252  
> 2023 05 18 00 00 36.4688020  0  7                     
G01  24305835.618       97152.270        2911.342           0.239  
G02  22336876.046      -12506.232        -488.723           0.255  
G03  23614001.273      -47619.347       -2127.352           0.244  
G04  22527474.249       49517.020        2038.526           0.255  
G05  20627202.722       -7580.045        -463.944           0.255  
G06  23403862.382      -17050.038       -1309.044           0.248  
G07  23100544.034       -9238.566       -1433.021           0.251  
> 2023 05 18 00 00 36.5688020  0  7                     
G01  24305761.210       97443.356        2910.232           0.239  
G02  22336888.555      -12554.577        -482.000           0.255  
G03  23614054.456      -47832.044       -2126.502           0.244  
G04  22527422.239       49720.876        2039.040           0.255  
G05  20627214.824       -7626.652        -467.456           0.255  
G06  23403895.474      -17180.967       -1309.018           0.248  
G07  23100580.810       -9381.989       -1433.272           0.251  
> 2023 05 18 00 00 36.6688020  0  7                     
G01  24305684.667       97734.448        2910.693           0.239  
G02  22336901.343      -12603.011        -479.561           0.255  
G03  23614109.835      -48044.755       -2127.558           0.244  
G04  22527370.726       49924.729        2039.024           0.255  
G05  20627226.157       -7673.221        -468.378           0.255  
G06  23403929.610      -17311.888       -1309.611           0.248  
G07  23100616.094       -9525.415       -1434.734           0.252  
> 2023 05 18 00 00 36.7688020  0  7                     
G01  24305612.444       98025.533        2912.172           0.239  
G02  22336913.447      -12651.455        -483.650           0.255  
G03  23614163.789      -48257.445       -2127.323           0.244  
G04  22527318.578       50128.574        2038.652           0.255  
G05  20627238.280       -7719.794        -466.643           0.255  
G06  23403962.899      -17442.824       -1310.006           0.248  
G07  23100651.835       -9668.831       -1434.660           0.251  
> 2023 05 18 00 00 36.8688020  0  7                     
G01  24305541.566       98316.619        2911.559           0.239  
G02  22336926.260      -12699.343        -457.613           0.255  
G03  23614217.908      -48470.157       -2134.052           0.244  
G04  22527266.507       50332.423        2039.373           0.255  
G05  20627250.327       -7766.371        -463.772           0.255  
G06  23403994.379      -17573.763       -1309.171           0.248  
G07  23100688.685       -9812.262       -1434.890           0.251  
> 2023 05 18 00 00 36.9688020  0  7                     
G01  24305465.373       98607.719        2911.076           0.239  
G02  22336937.829      -12748.241        -487.613           0.255  
G03  23614272.224      -48682.849       -2126.800           0.244  
G04  22527213.853       50536.265        2037.553           0.255  
G05  20627262.189       -7813.000        -464.839           0.255  
G06  23404027.855      -17704.704       -1302.587           0.248  
G07  23100726.914       -9955.678       -1432.557           0.252  
> 2023 05 18 00 00 37.0688020  0  7                     
G01  24305391.862       98898.806        2911.365           0.239  
G02  22336950.361      -12796.606        -483.251           0.255  
G03  23614326.210      -48895.551       -2127.024           0.244  
G04  22527162.539       50740.105        2036.986           0.255  
G05  20627273.817       -7859.638        -467.482           0.255  
G06  23404062.022      -17835.488       -1286.298           0.248  
G07  23100763.534      -10099.371       -1441.290           0.252  
> 2023 05 18 00 00 37.1688020  0  7                     
G01  24305317.964       99189.894        2911.239           0.239  
G02  22336962.488      -12845.057        -479.193           0.255  
G03  23614380.108      -49108.255       -2127.365           0.244  
G04  22527109.644       50943.957        2039.539           0.255  
G05  20627286.035       -7906.225        -468.068           0.255  
G06  23404095.587      -17966.583       -1309.787           0.248  
G07  23100799.530      -10242.520       -1435.180           0.251  
> 2023 05 18 00 00 37.2688020  0  7                     
G01  24305242.270       99480.986        2910.987           0.239  
G02  22336975.208      -12893.523        -480.304           0.255  
G03  23614434.529      -49320.960       -2127.740           0.244  
G04  22527058.214       51147.791        2038.294           0.255  
G05  20627296.970       -7952.812        -467.315           0.255  
G06  23404129.272      -18097.526       -1309.149           0.248  
G07  23100837.303      -10385.937       -1435.092           0.252  
> 2023 05 18 00 00 37.3688020  0  7                     
G01  24305165.102       99772.069        2910.461           0.239  
G02  22336987.223      -12941.991        -488.485           0.255  
G03  23614488.644      -49533.661       -2126.314           0.244  
G04  22527006.171       51351.506        2061.541           0.255  
G05  20627309.994       -7999.406        -463.642           0.255  
G06  23404161.620      -18228.421       -1336.924           0.248  
G07  23100872.777      -10529.373       -1435.650           0.252  
> 2023 05 18 00 00 37.4688020  0  7                     
G01  24305092.388      100063.176        2914.904           0.239  
G02  22337000.830      -12990.368        -484.117           0.255  
G03  23614542.282      -49746.372       -2128.177           0.244  
G04  22526955.085       51555.442        2039.229           0.255  
G05  20627321.301       -8046.062        -466.654           0.255  
G06  23404194.982      -18359.439       -1310.211           0.248  
G07  23100908.958      -10672.779       -1434.768           0.250  
> 2023 05 18 00 00 37.5688020  0  7                     
G01  24305019.837      100354.249        2911.205           0.239  
G02  22337011.549      -13036.358        -260.104           0.255  
G03  23614596.703      -49958.904       -2117.271           0.244  
G04  22526902.561       51759.810        2108.428           0.255  
G05  20627333.351       -8092.692        -465.430           0.255  
G06  23404229.039      -18490.297       -1294.965           0.248  
G07  23100945.442      -10816.556       -1635.738           0.251  
> 2023 05 18 00 00 37.6688020  0  7                     
G01  24304945.971      100645.322        2909.291           0.239  
G02  22337022.650      -13087.195        -481.526           0.255  
G03  23614650.140      -50171.780       -2126.484           0.244  
G04  22526851.929       51963.104        2037.365           0.255  
G05  20627346.446       -8139.329        -467.379           0.255  
G06  23404263.523      -18621.349       -1309.812           0.248  
G07  23100980.552      -10959.631       -1435.498           0.250  
> 2023 05 18 00 00 37.7688020  0  7                     
G01  24304870.365      100936.431        2911.409           0.238  
G02  22337036.418      -13135.679        -480.530           0.255  
G03  23614706.488      -50384.497       -2126.448           0.244  
G04  22526799.344       52166.938        2039.102           0.255  
G05  20627357.280       -8185.938        -468.323           0.255  
G06  23404297.097      -18752.312       -1309.475           0.248  
G07  23101017.689      -11103.060       -1433.579           0.251  
> 2023 05 18 00 00 37.8688020  0  7                     
G01  24304796.565      101227.488        2908.474           0.238  
G02  22337049.774      -13184.109        -482.680           0.255  
G03  23614759.874      -50597.234       -2123.214           0.244  
G04  22526748.326       52370.759        2037.978           0.255  
G05  20627368.638       -8232.571        -467.004           0.255  
G06  23404329.030      -18883.367       -1344.136           0.248  
G07  23101055.138      -11247.065       -1429.267           0.252  
> 2023 05 18 00 00 37.9688020  0  7                     
G01  24304720.737      101518.593        2907.778           0.239  
G02  22337061.428      -13232.564        -481.213           0.255  
G03  23614813.639      -50809.927       -2126.512           0.244  
G04  22526694.919       52574.581        2037.981           0.255  
G05  20627380.665       -8279.215        -467.852           0.255  
G06  23404362.664      -19014.249       -1310.340           0.248  
G07  23101092.540      -11389.920       -1434.429           0.252  
> 2023 05 18 00 00 38.0688020  0  7                     
G01  24304648.473      101809.713        2910.867           0.239  
G02  22337072.922      -13281.038        -481.843           0.255  
G03  23614868.264      -51022.645       -2128.076           0.244  
G04  22526643.177       52778.397        2038.015           0.255  
G05  20627393.057       -8325.847        -468.445           0.255  
G06  23404396.085      -19145.215       -1310.138           0.248  
G07  23101128.835      -11533.357       -1435.290           0.252  
> 2023 05 18 00 00 38.1688020  0  7                     
G01  24304576.502      102100.797        2912.224           0.238  
G02  22337086.389      -13329.489        -483.467           0.255  
G03  23614920.898      -51235.362       -2127.476           0.244  
G04  22526591.414       52982.229        2036.796           0.255  
G05  20627404.576       -8372.503        -466.784           0.255  
G06  23404429.477      -19276.190       -1309.917           0.248  
G07  23101164.939      -11676.770       -1435.502           0.251  
> 2023 05 18 00 00 38.2688020  0  7                     
G01  24304499.084      102391.861        2909.155           0.239  
G02  22337098.113      -13377.986        -482.889           0.255  
G03  23614975.741      -51448.073       -2127.024           0.244  
G04  22526539.236       53186.042        2037.594           0.255  
G05  20627416.864       -8419.132        -468.298           0.255  
G06  23404463.728      -19407.166       -1309.939           0.248  
G07  23101199.434      -11820.199       -1433.741           0.252  
> 2023 05 18 00 00 38.3688020  0  7                     
G01  24304425.058      102682.966        2911.091           0.239  
G02  22337110.543      -13427.922        -544.119           0.255  
G03  23615030.249      -51660.856       -2158.059           0.244  
G04  22526487.456       53389.344        1900.763           0.255  
G05  20627428.599       -8465.780        -466.519           0.255  
G06  23404495.746      -19537.955       -1302.725           0.248  
G07  23101237.994      -11963.629       -1433.083           0.251  
> 2023 05 18 00 00 38.4688020  0  7                     
G01  24304352.459      102974.048        2909.568           0.239  
G02  22337123.221      -13474.970        -485.769           0.255  
G03  23615084.370      -51873.515       -2128.408           0.244  
G04  22526436.327       53594.063        2102.864           0.255  
G05  20627440.079       -8512.419        -465.005           0.255  
G06  23404529.497      -19669.331       -1321.790           0.248  
G07  23101275.738      -12106.774       -1405.022           0.251  
> 2023 05 18 00 00 38.5688020  0  7                     
G01  24304280.622      103265.137        2910.404           0.239  
G02  22337136.535      -13523.175        -456.835           0.255  
G03  23615139.018      -52086.241       -2115.198           0.244  
G04  22526383.296       53797.833        2121.433           0.255  
G05  20627451.399       -8559.092        -465.783           0.255  
G06  23404563.547      -19800.000       -1309.607           0.248  
G07  23101310.972      -12250.263       -1445.597           0.252  
> 2023 05 18 00 00 38.6688020  0  7                     
G01  24304206.192      103556.233        2912.694           0.239  
G02  22337148.425      -13571.903        -485.304           0.255  
G03  23615193.213      -52298.934       -2126.017           0.244  
G04  22526333.218       54001.264        2035.500           0.255  
G05  20627463.393       -8605.758        -465.474           0.255  
G06  23404597.151      -19931.100       -1310.214           0.248  
G07  23101348.713      -12393.935       -1435.284           0.251  
> 2023 05 18 00 00 38.7688020  0  7                     
G01  24304128.162      103847.324        2912.573           0.239  
G02  22337160.396      -13620.396        -485.086           0.255  
G03  23615248.464      -52511.650       -2126.374           0.244  
G04  22526280.313       54205.082        2037.310           0.255  
G05  20627475.208       -8652.416        -466.275           0.255  
G06  23404629.779      -20062.094       -1309.999           0.248  
G07  23101385.353      -12537.372       -1434.213           0.250  
> 2023 05 18 00 00 38.8688020  0  7                     
G01  24304054.758      104138.393        2909.193           0.239  
G02  22337173.173      -13668.904        -485.938           0.255  
G03  23615301.924      -52724.390       -2127.204           0.244  
G04  22526227.176       54408.884        2038.106           0.255  
G05  20627487.689       -8699.078        -466.356           0.255  
G06  23404663.968      -20193.088       -1310.019           0.248  
G07  23101419.498      -12680.817       -1434.056           0.252  
> 2023 05 18 00 00 38.9688020  0  7                     
G01  24303978.714      104429.328        2861.472           0.239  
G02  22337184.775      -13716.906        -450.676           0.255  
G03  23615357.327      -52936.937       -2093.605           0.244  
G04  22526175.093       54611.997        1801.557           0.255  
G05  20627499.680       -8745.746        -465.833           0.255  
G06  23404696.516      -20323.970       -1286.511           0.248  
G07  23101458.321      -12824.219       -1471.331           0.251  
> 2023 05 18 00 00 39.0688020  0  7                     
G01  24303907.325      104720.582        2909.562           0.239  
G02  22337196.994      -13765.933        -488.101           0.255  
G03  23615407.691      -53149.840       -2126.050           0.244  
G04  22526123.818       54816.498        2037.947           0.255  
G05  20627511.967       -8792.405        -464.851           0.255  
G06  23404730.677      -20455.121       -1288.810           0.248  
G07  23101494.070      -12968.325       -1492.691           0.251  
> 2023 05 18 00 00 39.1688020  0  7                     
G01  24303831.250      105011.689        2897.775           0.239  
G02  22337209.549      -13815.073        -469.405           0.255  
G03  23615462.920      -53362.568       -2127.201           0.244  
G04  22526071.544       55019.946        1974.949           0.255  
G05  20627524.006       -8839.079        -465.839           0.255  
G06  23404764.190      -20586.087       -1309.902           0.248  
G07  23101529.486      -13111.074       -1467.570           0.252  
> 2023 05 18 00 00 39.2688020  0  7                     
G01  24303756.952      105302.772        2910.914           0.240  
G02  22337221.281      -13862.903        -484.114           0.255  
G03  23615518.375      -53575.295       -2127.659           0.244  
G04  22526020.180       55224.074        2037.171           0.255  
G05  20627535.367       -8885.788        -467.160           0.255  
G06  23404797.054      -20717.099       -1310.248           0.248  
G07  23101567.409      -13254.559       -1435.492           0.251  
> 2023 05 18 00 00 39.3688020  0  7                     
G01  24303680.619      105593.858        2911.388           0.239  
G02  22337233.449      -13911.439        -484.733           0.255  
G03  23615573.490      -53788.014       -2126.340           0.244  
G04  22525969.253       55427.871        2038.380           0.255  
G05  20627547.623       -8932.460        -467.399           0.255  
G06  23404830.077      -20848.096       -1309.201           0.248  
G07  23101604.029      -13398.007       -1434.698           0.251  
> 2023 05 18 00 00 39.4688020  0  7                     
G01  24303607.365      105884.946        2910.801           0.239  
G02  22337246.536      -13959.976        -485.212           0.255  
G03  23615627.415      -54000.757       -2127.736           0.244  
G04  22525916.518       55631.664        2038.813           0.255  
G05  20627559.388       -8979.141        -467.143           0.255  
G06  23404863.558      -20979.071       -1309.022           0.248  
G07  23101640.149      -13541.441       -1434.835           0.251  
> 2023 05 18 00 00 39.5688020  0  7                     
G01  24303533.480      106176.026        2910.490           0.239  
G02  22337259.801      -14008.477        -485.881           0.255  
G03  23615681.435      -54213.485       -2127.643           0.244  
G04  22525863.750       55835.454        2038.676           0.255  
G05  20627570.929       -9025.845        -467.129           0.255  
G06  23404896.916      -21110.132       -1310.664           0.248  
G07  23101675.542      -13684.887       -1434.389           0.252  
> 2023 05 18 00 00 39.6688020  0  7                     
G01  24303461.542      106467.117        2910.422           0.239  
G02  22337271.269      -14057.009        -484.227           0.255  
G03  23615734.540      -54426.216       -2128.157           0.244  
G04  22525812.156       56039.229        2036.680           0.255  
G05  20627582.732       -9072.542        -466.945           0.255  
G06  23404930.907      -21241.143       -1310.163           0.248  
G07  23101713.505      -13828.319       -1434.034           0.252  
> 2023 05 18 00 00 39.7688020  0  7                     
G01  24303387.783      106758.199        2910.233           0.239  
G02  22337284.169      -14105.574        -485.436           0.255  
G03  23615790.245      -54638.942       -2127.447           0.244  
G04  22525759.749       56243.016        2038.146           0.255  
G05  20627594.428       -9119.227        -466.819           0.255  
G06  23404963.777      -21372.161       -1310.365           0.248  
G07  23101750.327      -13971.758       -1434.264           0.251  
> 2023 05 18 00 00 39.8688020  0  7                     
G01  24303312.538      107049.303        2911.788           0.239  
G02  22337296.085      -14154.107        -484.474           0.255  
G03  23615843.970      -54851.683       -2127.836           0.244  
G04  22525708.015       56446.805        2039.169           0.255  
G05  20627606.203       -9165.927        -467.903           0.255  
G06  23404996.937      -21503.186       -1310.082           0.248  
G07  23101787.216      -14115.206       -1434.458           0.251  
> 2023 05 18 00 00 39.9688020  0  7                     
G01  24303239.035      107339.716        2765.570           0.239  
G02  22337309.623      -14203.425        -651.865           0.255  
G03  23615898.660      -55064.408       -2128.070           0.244  
G04  22525655.898       56650.576        2038.822           0.255  
G05  20627618.436       -9212.636        -467.585           0.255  
G06  23405030.300      -21634.081       -1280.433           0.248  
G07  23101822.256      -14258.650       -1473.336           0.251  
> 2023 05 18 00 00 40.0688020  0  7                     
G01  24303163.822      107631.475        2910.970           0.239  
G02  22337321.353      -14251.187        -483.504           0.255  
G03  23615952.444      -55277.217       -2112.913           0.244  
G04  22525604.145       56854.357        2038.518           0.255  
G05  20627630.605       -9259.343        -467.849           0.255  
G06  23405063.796      -21765.240       -1309.773           0.248  
G07  23101859.165      -14402.101       -1434.695           0.252  
> 2023 05 18 00 00 40.1688020  0  7                     
G01  24303089.807      107922.556        2910.222           0.240  
G02  22337333.252      -14299.761        -485.894           0.255  
G03  23616007.698      -55489.881       -2126.786           0.244  
G04  22525552.539       57058.115        2036.669           0.255  
G05  20627642.770       -9306.050        -466.646           0.255  
G06  23405096.485      -21896.268       -1309.668           0.248  
G07  23101896.525      -14545.544       -1434.802           0.251  
> 2023 05 18 00 00 40.2688020  0  7                     
G01  24303016.705      108213.666        2910.769           0.239  
G02  22337344.180      -14348.321        -485.646           0.255  
G03  23616060.919      -55702.278       -2095.004           0.244  
G04  22525500.362       57261.894        2038.486           0.255  
G05  20627654.595       -9352.765        -465.896           0.255  
G06  23405129.890      -22027.312       -1310.575           0.248  
G07  23101933.344      -14688.982       -1436.390           0.251  
> 2023 05 18 00 00 40.3688020  0  7                     
G01  24302942.234      108504.743        2911.027           0.239  
G02  22337356.711      -14396.891        -489.132           0.255  
G03  23616114.562      -55915.360       -2127.998           0.244  
G04  22525447.794       57465.670        2038.252           0.255  
G05  20627666.993       -9399.487        -465.669           0.255  
G06  23405164.178      -22158.346       -1311.050           0.248  
G07  23101968.682      -14832.425       -1433.818           0.251  
> 2023 05 18 00 00 40.4688020  0  7                     
G01  24302868.977      108795.846        2912.453           0.239  
G02  22337369.644      -14445.426        -488.524           0.255  
G03  23616169.326      -56128.097       -2127.305           0.244  
G04  22525396.942       57669.441        2039.568           0.255  
G05  20627678.493       -9446.220        -465.988           0.255  
G06  23405196.988      -22289.386       -1309.984           0.248  
G07  23102005.807      -14975.873       -1433.723           0.252  
> 2023 05 18 00 00 40.5688020  0  7                     
G01  24302796.075      109086.922        2911.101           0.239  
G02  22337382.587      -14493.994        -486.221           0.255  
G03  23616223.392      -56340.843       -2127.309           0.244  
G04  22525346.446       57872.915        1987.817           0.255  
G05  20627690.884       -9492.949        -467.187           0.255  
G06  23405231.403      -22420.431       -1309.885           0.248  
G07  23102040.848      -15119.320       -1435.065           0.251  
> 2023 05 18 00 00 40.6688020  0  7                     
G01  24302720.779      109378.020        2911.483           0.239  
G02  22337394.370      -14542.575        -483.716           0.255  
G03  23616277.435      -56553.582       -2126.384           0.244  
G04  22525293.045       58076.966        2037.257           0.255  
G05  20627702.219       -9539.674        -468.070           0.255  
G06  23405263.575      -22551.477       -1309.959           0.248  
G07  23102079.911      -15262.760       -1435.021           0.252  
> 2023 05 18 00 00 40.7688020  0  7                     
G01  24302645.713      109669.101        2910.121           0.239  
G02  22337407.038      -14591.179        -482.368           0.255  
G03  23616331.312      -56766.332       -2127.384           0.244  
G04  22525240.258       58281.125        2109.954           0.255  
G05  20627714.419       -9586.402        -469.200           0.255  
G06  23405296.741      -22682.526       -1310.147           0.248  
G07  23102116.610      -15405.943       -1413.072           0.251  
> 2023 05 18 00 00 40.8688020  0  7                     
G01  24302571.307      109960.185        2910.955           0.239  
G02  22337418.934      -14640.309        -574.349           0.255  
G03  23616386.609      -56979.072       -2130.266           0.244  
G04  22525190.131       58484.487        2038.424           0.255  
G05  20627725.196       -9633.137        -468.156           0.255  
G06  23405331.153      -22813.582       -1310.422           0.248  
G07  23102154.497      -15549.660       -1435.538           0.251  
> 2023 05 18 00 00 40.9688020  0  7                     
G01  24302499.671      110251.284        2910.809           0.239  
G02  22337430.650      -14688.395        -488.960           0.255  
G03  23616441.233      -57191.819       -2127.091           0.244  
G04  22525136.350       58688.249        2037.366           0.255  
G05  20627738.149       -9679.847        -464.945           0.255  
G06  23405365.051      -22944.674       -1309.802           0.248  
G07  23102187.419      -15693.122       -1436.327           0.252  
> 2023 05 18 00 00 41.0688020  0  7                     
G01  24302423.649      110542.367        2911.752           0.239  
G02  22337444.299      -14736.793        -471.096           0.255  
G03  23616493.036      -57404.870       -2152.527           0.244  
G04  22525085.112       58892.183        2009.873           0.255  
G05  20627749.505       -9726.608        -465.994           0.255  
G06  23405397.563      -23075.703       -1310.859           0.248  
G07  23102227.471      -15836.565       -1434.410           0.252  
> 2023 05 18 00 00 41.1688020  0  7                     
G01  24302349.006      110833.451        2911.186           0.239  
G02  22337455.563      -14785.543        -487.275           0.255  
G03  23616547.911      -57617.313       -2127.237           0.244  
G04  22525033.180       59095.761        2038.031           0.255  
G05  20627762.454       -9773.369        -466.724           0.255  
G06  23405431.369      -23206.760       -1311.489           0.248  
G07  23102261.675      -15980.010       -1435.122           0.251  
> 2023 05 18 00 00 41.2688020  0  7                     
G01  24302276.142      111124.534        2910.179           0.239  
G02  22337469.324      -14834.143        -487.402           0.255  
G03  23616603.066      -57830.064       -2128.068           0.244  
G04  22524981.788       59299.506        2038.589           0.255  
G05  20627774.061       -9820.121        -467.937           0.255  
G06  23405463.262      -23337.824       -1310.561           0.248  
G07  23102298.790      -16123.457       -1434.285           0.252  
> 2023 05 18 00 00 41.3688020  0  7                     
G01  24302201.888      111415.630        2910.612           0.239  
G02  22337481.029      -14882.773        -489.303           0.255  
G03  23616658.002      -58042.812       -2127.658           0.244  
G04  22524929.150       59503.244        2038.399           0.255  
G05  20627785.662       -9866.859        -465.830           0.255  
G06  23405497.274      -23468.892       -1311.085           0.248  
G07  23102334.760      -16266.907       -1432.786           0.251  
> 2023 05 18 00 00 41.4688020  0  7                     
G01  24302126.311      111706.723        2910.754           0.239  
G02  22337493.000      -14931.379        -485.336           0.255  
G03  23616711.393      -58255.440       -2079.091           0.244  
G04  22524876.386       59706.665        2004.354           0.255  
G05  20627797.798       -9913.616        -468.589           0.255  
G06  23405530.287      -23600.233       -1327.602           0.247  
G07  23102373.144      -16410.366       -1432.131           0.252  
> 2023 05 18 00 00 41.5688020  0  7                     
G01  24302051.594      111997.829        2911.141           0.239  
G02  22337506.700      -14980.015        -486.068           0.255  
G03  23616765.001      -58468.310       -2127.212           0.244  
G04  22524825.134       59910.744        2038.080           0.255  
G05  20627809.020       -9960.369        -467.727           0.255  
G06  23405565.283      -23731.102       -1330.153           0.248  
G07  23102408.546      -16553.358       -1355.687           0.251  
> 2023 05 18 00 00 41.6688020  0  7                     
G01  24301977.676      112288.895        2909.737           0.239  
G02  22337519.196      -15028.639        -489.159           0.255  
G03  23616819.668      -58681.064       -2127.840           0.244  
G04  22524772.038       60114.484        2038.284           0.255  
G05  20627820.865      -10007.134        -467.700           0.255  
G06  23405598.405      -23862.121       -1310.936           0.248  
G07  23102443.645      -16697.271       -1432.832           0.252  
> 2023 05 18 00 00 41.7688020  0  7                     
G01  24301903.549      112579.987        2910.456           0.239  
G02  22337531.327      -15077.263        -491.296           0.255  
G03  23616873.540      -58893.813       -2126.140           0.244  
G04  22524721.966       60318.218        2036.127           0.255  
G05  20627833.264      -10053.897        -465.750           0.255  
G06  23405631.477      -23993.194       -1310.253           0.248  
G07  23102480.729      -16840.747       -1433.477           0.252  
> 2023 05 18 00 00 41.8688020  0  7                     
G01  24301829.730      112871.085        2911.147           0.239  
G02  22337543.951      -15125.853        -489.903           0.255  
G03  23616927.403      -59106.564       -2126.813           0.244  
G04  22524669.571       60521.963        2037.987           0.255  
G05  20627844.866      -10100.694        -466.283           0.255  
G06  23405665.000      -24124.271       -1309.976           0.248  
G07  23102518.333      -16984.123       -1409.497           0.252  
> 2023 05 18 00 00 41.9688020  0  7                     
G01  24301755.318      113162.164        2911.294           0.239  
G02  22337556.409      -15174.451        -484.400           0.255  
G03  23616982.154      -59319.332       -2127.291           0.244  
G04  22524618.410       60725.698        2037.502           0.255  
G05  20627856.495      -10147.480        -468.730           0.255  
G06  23405697.866      -24255.359       -1310.877           0.248  
G07  23102554.849      -17127.669       -1435.220           0.251  
> 2023 05 18 00 00 42.0688020  0  7                     
G01  24301678.976      113453.261        2912.229           0.239  
G02  22337568.342      -15223.123        -483.596           0.255  
G03  23617037.174      -59532.086       -2126.558           0.244  
G04  22524566.465       60929.434        2037.983           0.255  
G05  20627869.211      -10194.247        -469.737           0.255  
G06  23405731.803      -24386.450       -1311.143           0.248  
G07  23102589.826      -17271.123       -1434.155           0.251  
> 2023 05 18 00 00 42.1688020  0  7                     
G01  24301605.982      113744.357        2911.019           0.239  
G02  22337581.640      -15271.796        -482.782           0.255  
G03  23617091.480      -59744.844       -2127.333           0.244  
G04  22524515.354       61133.153        2035.579           0.255  
G05  20627880.641      -10241.011        -470.555           0.255  
G06  23405764.787      -24517.537       -1310.814           0.248  
G07  23102626.746      -17414.564       -1433.410           0.252  
> 2023 05 18 00 00 42.2688020  0  7                     
G01  24301532.825      114035.448        2911.646           0.239  
G02  22337592.005      -15321.543        -552.235           0.255  
G03  23617145.229      -59957.605       -2127.254           0.244  
G04  22524462.047       61336.901        2038.800           0.255  
G05  20627893.156      -10287.776        -469.379           0.255  
G06  23405799.179      -24648.689       -1354.744           0.248  
G07  23102663.577      -17558.043       -1433.927           0.251  
> 2023 05 18 00 00 42.3688020  0  7                     
G01  24301458.963      114326.515        2909.914           0.239  
G02  22337605.853      -15369.137        -488.879           0.255  
G03  23617199.216      -60170.363       -2127.139           0.244  
G04  22524410.286       61540.622        2037.662           0.255  
G05  20627904.899      -10334.561        -466.619           0.255  
G06  23405832.378      -24779.727       -1311.497           0.248  
G07  23102700.345      -17701.495       -1433.973           0.251  
> 2023 05 18 00 00 42.4688020  0  7                     
G01  24301384.848      114617.623        2911.348           0.239  
G02  22337617.737      -15417.796        -492.407           0.255  
G03  23617253.428      -60383.137       -2128.255           0.244  
G04  22524357.725       61744.342        2037.655           0.255  
G05  20627916.675      -10381.350        -464.512           0.255  
G06  23405865.025      -24910.829       -1311.576           0.248  
G07  23102737.051      -17844.961       -1434.890           0.251  
> 2023 05 18 00 00 42.5688020  0  7                     
G01  24301310.103      114908.702        2911.704           0.239  
G02  22337630.421      -15466.416        -491.662           0.255  
G03  23617307.829      -60595.895       -2128.240           0.244  
G04  22524306.545       61948.059        2036.292           0.255  
G05  20627928.406      -10428.169        -465.623           0.255  
G06  23405898.603      -25041.924       -1310.380           0.248  
G07  23102773.851      -17988.695       -1457.117           0.252  
> 2023 05 18 00 00 42.6688020  0  7                     
G01  24301234.451      115199.779        2912.099           0.239  
G02  22337643.017      -15515.069        -488.114           0.255  
G03  23617359.918      -60808.655       -2127.745           0.244  
G04  22524254.478       62151.792        2038.706           0.255  
G05  20627940.247      -10474.969        -466.188           0.255  
G06  23405932.869      -25173.243       -1349.333           0.248  
G07  23102810.584      -18131.891       -1435.943           0.251  
> 2023 05 18 00 00 42.7688020  0  7                     
G01  24301160.680      115490.876        2910.978           0.239  
G02  22337655.532      -15563.726        -483.601           0.255  
G03  23617415.580      -61021.414       -2127.861           0.244  
G04  22524203.587       62355.493        2037.310           0.255  
G05  20627952.425      -10521.783        -468.951           0.255  
G06  23405964.854      -25304.139       -1310.841           0.248  
G07  23102847.293      -18275.341       -1435.821           0.252  
> 2023 05 18 00 00 42.8688020  0  7                     
G01  24301086.523      115781.962        2910.363           0.239  
G02  22337668.425      -15612.410        -481.630           0.255  
G03  23617470.332      -61234.188       -2128.319           0.244  
G04  22524150.637       62559.213        2036.142           0.255  
G05  20627964.314      -10568.578        -470.745           0.255  
G06  23405998.201      -25435.248       -1311.300           0.248  
G07  23102882.491      -18418.813       -1433.829           0.251  
> 2023 05 18 00 00 42.9688020  0  7                     
G01  24301013.471      116073.055        2910.259           0.239  
G02  22337680.625      -15662.399        -665.023           0.255  
G03  23617525.349      -61447.145       -2169.710           0.244  
G04  22524098.413       62763.218        2041.174           0.255  
G05  20627975.821      -10615.366        -469.254           0.255  
G06  23406032.911      -25566.374       -1322.012           0.248  
G07  23102918.533      -18562.148       -1404.187           0.251  
> 2023 05 18 00 00 43.0688020  0  7                     
G01  24300940.008      116364.138        2910.971           0.239  
G02  22337692.832      -15709.860        -487.502           0.255  
G03  23617578.416      -61659.724       -2127.954           0.244  
G04  22524046.734       62966.639        2037.417           0.255  
G05  20627987.919      -10662.152        -467.371           0.255  
G06  23406065.941      -25697.480       -1310.887           0.248  
G07  23102956.416      -18705.743       -1434.807           0.251  
> 2023 05 18 00 00 43.1688020  0  7                     
G01  24300865.658      116655.340        2906.785           0.239  
G02  22337704.510      -15758.547        -490.692           0.255  
G03  23617633.244      -61872.427       -2132.935           0.244  
G04  22523995.224       63170.045        1997.906           0.255  
G05  20627999.687      -10708.969        -466.504           0.255  
G06  23406099.500      -25828.529       -1305.231           0.248  
G07  23102993.974      -18849.310       -1427.311           0.252  
> 2023 05 18 00 00 43.2688020  0  7                     
G01  24300790.004      116946.309        2908.823           0.239  
G02  22337717.942      -15807.213        -492.899           0.255  
G03  23617688.423      -62085.266       -2127.977           0.244  
G04  22523942.950       63374.058        2037.499           0.255  
G05  20628011.360      -10755.806        -465.514           0.255  
G06  23406132.929      -25959.731       -1311.590           0.248  
G07  23103028.468      -18992.671       -1434.692           0.251  
> 2023 05 18 00 00 43.3688020  0  7                     
G01  24300716.572      117237.408        2911.545           0.239  
G02  22337730.667      -15855.886        -491.301           0.255  
G03  23617741.591      -62297.908       -2091.653           0.244  
G04  22523891.326       63577.763        2037.786           0.255  
G05  20628023.223      -10802.639        -465.923           0.255  
G06  23406166.099      -26090.854       -1311.299           0.248  
G07  23103066.646      -19135.842       -1434.167           0.251  
> 2023 05 18 00 00 43.4688020  0  7                     
G01  24300643.459      117528.502        2911.169           0.239  
G02  22337742.373      -15903.941        -403.406           0.255  
G03  23617795.778      -62510.813       -2128.344           0.244  
G04  22523839.147       63781.599        2084.774           0.255  
G05  20628036.273      -10849.478        -468.159           0.255  
G06  23406199.282      -26221.845       -1312.420           0.248  
G07  23103102.202      -19279.580       -1441.843           0.251  
> 2023 05 18 00 00 43.5688020  0  7                     
G01  24300568.142      117819.578        2911.702           0.240  
G02  22337754.773      -15953.264        -484.900           0.255  
G03  23617850.202      -62723.581       -2128.419           0.244  
G04  22523786.732       63985.160        2035.788           0.255  
G05  20628047.646      -10896.299        -468.738           0.255  
G06  23406231.994      -26353.117       -1311.425           0.248  
G07  23103139.236      -19423.091       -1436.465           0.251  
> 2023 05 18 00 00 43.6688020  0  7                     
G01  24300494.738      118110.693        2911.688           0.239  
G02  22337767.598      -16001.999        -484.999           0.255  
G03  23617903.005      -62936.360       -2127.253           0.244  
G04  22523735.441       64188.864        2037.108           0.255  
G05  20628059.356      -10943.130        -469.069           0.255  
G06  23406266.812      -26484.251       -1311.362           0.248  
G07  23103175.889      -19566.551       -1435.830           0.251  
> 2023 05 18 00 00 43.7688020  0  7                     
G01  24300418.810      118401.774        2911.395           0.240  
G02  22337779.882      -16050.731        -488.527           0.255  
G03  23617957.782      -63149.135       -2128.081           0.244  
G04  22523683.085       64392.550        2037.705           0.255  
G05  20628071.549      -10989.956        -468.044           0.255  
G06  23406298.833      -26615.397       -1311.644           0.248  
G07  23103212.858      -19710.000       -1431.606           0.251  
> 2023 05 18 00 00 43.8688020  0  7                     
G01  24300346.326      118692.856        2911.669           0.239  
G02  22337792.525      -16099.467        -486.472           0.255  
G03  23618012.532      -63361.905       -2128.028           0.244  
G04  22523631.652       64595.541        1942.332           0.255  
G05  20628083.230      -11036.788        -469.776           0.255  
G06  23406332.823      -26746.716       -1337.591           0.248  
G07  23103248.131      -19853.137       -1378.819           0.252  
> 2023 05 18 00 00 43.9688020  0  7                     
G01  24300272.510      118983.941        2910.779           0.239  
G02  22337804.106      -16148.176        -486.259           0.255  
G03  23618066.956      -63574.691       -2128.286           0.244  
G04  22523581.176       64799.940        2037.388           0.255  
G05  20628096.380      -11083.637        -468.449           0.255  
G06  23406366.494      -26877.678       -1311.194           0.248  
G07  23103284.355      -19996.973       -1438.890           0.251  
> 2023 05 18 00 00 44.0688020  0  7                     
G01  24300195.991      119275.032        2910.610           0.239  
G02  22337817.469      -16197.583        -573.842           0.255  
G03  23618122.624      -63787.341       -2083.708           0.244  
G04  22523528.431       65003.628        2037.530           0.255  
G05  20628106.240      -11130.492        -469.930           0.255  
G06  23406399.540      -27008.823       -1311.343           0.248  
G07  23103324.354      -20140.431       -1436.717           0.251  
> 2023 05 18 00 00 44.1688020  0  7                     
G01  24300124.296      119566.111        2910.109           0.239  
G02  22337829.584      -16244.955        -423.705           0.255  
G03  23618174.502      -64000.251       -2128.185           0.244  
G04  22523476.626       65207.315        2036.860           0.255  
G05  20628119.144      -11177.333        -468.782           0.255  
G06  23406433.444      -27139.983       -1311.614           0.248  
G07  23103357.848      -20283.885       -1431.166           0.251  
> 2023 05 18 00 00 44.2688020  0  7                     
G01  24300049.768      119857.218        2910.452           0.239  
G02  22337841.061      -16294.409        -488.473           0.255  
G03  23618229.323      -64213.108       -2122.766           0.244  
G04  22523424.507       65411.002        2036.779           0.255  
G05  20628131.141      -11224.178        -468.468           0.255  
G06  23406467.228      -27271.134       -1312.236           0.248  
G07  23103394.635      -20427.370       -1432.541           0.251  
> 2023 05 18 00 00 44.3688020  0  7                     
G01  24299974.911      120148.294        2910.905           0.239  
G02  22337855.061      -16343.138        -487.074           0.255  
G03  23618283.509      -64425.798       -2126.737           0.244  
G04  22523373.142       65614.681        2036.981           0.255  
G05  20628143.370      -11271.034        -468.384           0.255  
G06  23406501.484      -27402.286       -1311.677           0.248  
G07  23103430.774      -20570.866       -1436.919           0.251  
> 2023 05 18 00 00 44.4688020  0  7                     
G01  24299900.622      120439.387        2911.249           0.239  
G02  22337866.965      -16391.930        -491.954           0.255  
G03  23618337.371      -64638.600       -2128.680           0.244  
G04  22523320.310       65818.359        2036.095           0.255  
G05  20628155.962      -11317.874        -465.408           0.255  
G06  23406535.117      -27533.447       -1311.548           0.248  
G07  23103463.708      -20714.339       -1436.016           0.252  
> 2023 05 18 00 00 44.5688020  0  7                     
G01  24299827.257      120729.715        2845.626           0.239  
G02  22337880.388      -16440.646        -488.748           0.255  
G03  23618391.822      -64851.387       -2129.248           0.244  
G04  22523267.999       66022.041        2036.828           0.255  
G05  20628166.471      -11364.760        -467.737           0.255  
G06  23406567.328      -27664.605       -1311.871           0.248  
G07  23103503.474      -20857.351       -1416.669           0.251  
> 2023 05 18 00 00 44.6688020  0  7                     
G01  24299753.572      121021.583        2927.618           0.239  
G02  22337891.167      -16489.336        -555.576           0.255  
G03  23618446.204      -65063.814       -2074.892           0.244  
G04  22523216.266       66225.721        2037.661           0.255  
G05  20628179.237      -11411.635        -467.646           0.255  
G06  23406600.438      -27795.770       -1311.910           0.248  
G07  23103541.512      -21001.289       -1434.555           0.251  
> 2023 05 18 00 00 44.7688020  0  7                     
G01  24299678.946      121312.490        2849.598           0.239  
G02  22337903.688      -16538.252        -552.037           0.255  
G03  23618499.569      -65276.950       -2127.322           0.244  
G04  22523164.237       66429.943        2100.158           0.255  
G05  20628190.574      -11458.496        -467.547           0.255  
G06  23406633.858      -27926.689       -1291.484           0.248  
G07  23103579.298      -21144.777       -1435.885           0.251  
> 2023 05 18 00 00 44.8688020  0  7                     
G01  24299603.895      121603.738        2910.197           0.239  
G02  22337915.426      -16586.949        -489.102           0.255  
G03  23618553.337      -65489.729       -2127.148           0.244  
G04  22523112.616       66632.883        1989.639           0.255  
G05  20628203.054      -11505.361        -468.367           0.255  
G06  23406666.799      -28058.065       -1321.212           0.248  
G07  23103614.970      -21288.249       -1433.664           0.251  
> 2023 05 18 00 00 44.9688020  0  7                     
G01  24299528.757      121894.845        2911.896           0.239  
G02  22337928.342      -16635.730        -492.304           0.255  
G03  23618607.411      -65702.540       -2129.380           0.243  
G04  22523061.119       66836.738        2037.078           0.255  
G05  20628214.829      -11552.229        -467.190           0.255  
G06  23406700.209      -28189.286       -1312.571           0.248  
G07  23103651.530      -21431.723       -1432.756           0.252  
> 2023 05 18 00 00 45.0688020  0  7                     
G01  24299455.805      122185.918        2910.208           0.239  
G02  22337940.556      -16684.009        -423.467           0.255  
G03  23618662.556      -65915.330       -2129.247           0.243  
G04  22523010.039       67040.101        2024.094           0.255  
G05  20628226.367      -11599.127        -466.959           0.255  
G06  23406734.308      -28320.404       -1306.861           0.248  
G07  23103689.320      -21575.344       -1406.642           0.251  
> 2023 05 18 00 00 45.1688020  0  7                     
G01  24299382.271      122477.003        2910.767           0.239  
G02  22337953.567      -16733.236        -488.819           0.255  
G03  23618717.143      -66128.113       -2128.603           0.244  
G04  22522956.813       67244.057        2035.647           0.255  
G05  20628238.480      -11646.018        -468.433           0.255  
G06  23406767.380      -28451.631       -1312.088           0.248  
G07  23103724.532      -21718.685       -1433.691           0.251  
> 2023 05 18 00 00 45.2688020  0  7                     
G01  24299306.985      122768.094        2911.399           0.239  
G02  22337964.254      -16782.018        -486.786           0.255  
G03  23618772.239      -66340.904       -2127.813           0.244  
G04  22522904.429       67447.722        2036.996           0.255  
G05  20628251.178      -11692.907        -469.796           0.255  
G06  23406800.673      -28582.816       -1312.421           0.248  
G07  23103762.475      -21862.162       -1435.091           0.252  
> 2023 05 18 00 00 45.3688020  0  7                     
G01  24299233.813      123059.158        2910.759           0.239  
G02  22337978.184      -16830.834        -488.800           0.255  
G03  23618825.747      -66553.698       -2127.375           0.244  
G04  22522852.452       67651.386        2036.682           0.255  
G05  20628262.813      -11739.786        -469.453           0.255  
G06  23406835.274      -28713.999       -1312.053           0.248  
G07  23103796.949      -22005.636       -1434.795           0.251  
> 2023 05 18 00 00 45.4688020  0  7                     
G01  24299160.139      123350.253        2910.771           0.240  
G02  22337990.749      -16879.552        -444.325           0.255  
G03  23618878.905      -66766.308       -2081.382           0.244  
G04  22522800.991       67855.048        2037.281           0.255  
G05  20628272.496      -11786.694        -470.720           0.255  
G06  23406867.939      -28845.073       -1315.758           0.248  
G07  23103840.355      -22149.129       -1434.791           0.251  
> 2023 05 18 00 00 45.5688020  0  7                     
G01  24299084.617      123641.321        2911.880           0.239  
G02  22338003.087      -16928.439        -491.330           0.255  
G03  23618933.551      -66979.663       -2172.606           0.244  
G04  22522749.864       68058.710        2038.047           0.255  
G05  20628286.593      -11833.573        -467.496           0.255  
G06  23406901.987      -28976.377       -1312.696           0.248  
G07  23103869.375      -22292.623       -1410.170           0.251  
> 2023 05 18 00 00 45.6688020  0  7                     
G01  24299010.882      123932.403        2910.317           0.239  
G02  22338016.236      -16977.234        -486.822           0.255  
G03  23618988.066      -67192.087       -2127.773           0.244  
G04  22522697.584       68262.355        2036.135           0.255  
G05  20628298.940      -11880.475        -470.487           0.255  
G06  23406935.211      -29107.571       -1312.027           0.248  
G07  23103904.940      -22436.088       -1433.732           0.252  
> 2023 05 18 00 00 45.7688020  0  7                     
G01  24298937.026      124223.490        2910.761           0.239  
G02  22338029.766      -17026.020        -488.483           0.255  
G03  23619043.780      -67404.876       -2127.889           0.244  
G04  22522645.399       68466.010        2036.135           0.255  
G05  20628311.029      -11927.401        -469.605           0.255  
G06  23406968.472      -29238.768       -1312.377           0.248  
G07  23103939.183      -22579.561       -1432.970           0.251  
> 2023 05 18 00 00 45.8688020  0  7                     
G01  24298861.574      124514.578        2910.202           0.239  
G02  22338041.297      -17074.844        -489.027           0.255  
G03  23619098.473      -67617.689       -2128.129           0.244  
G04  22522593.337       68669.663        2037.193           0.255  
G05  20628321.816      -11974.289        -468.818           0.255  
G06  23407001.671      -29369.967       -1312.175           0.248  
G07  23103980.357      -22723.076       -1436.097           0.251  
> 2023 05 18 00 00 45.9688020  0  7                     
G01  24298787.051      124805.656        2911.135           0.239  
G02  22338054.265      -17123.659        -489.557           0.255  
G03  23619150.667      -67830.487       -2128.184           0.244  
G04  22522542.082       68873.311        2036.689           0.255  
G05  20628333.559      -12021.210        -469.104           0.255  
G06  23407035.808      -29501.164       -1311.608           0.248  
G07  23104017.517      -22866.535       -1434.333           0.251  
> 2023 05 18 00 00 46.0688020  0  7                     
G01  24298713.802      125096.749        2911.261           0.239  
G02  22338065.214      -17172.484        -488.030           0.255  
G03  23619205.429      -68043.284       -2127.554           0.244  
G04  22522489.382       69076.954        2036.883           0.255  
G05  20628346.413      -12068.110        -469.556           0.255  
G06  23407068.783      -29632.374       -1312.209           0.248  
G07  23104054.364      -23010.055       -1436.318           0.251  
> 2023 05 18 00 00 46.1688020  0  7                     
G01  24298638.950      125387.829        2911.870           0.239  
G02  22338076.942      -17221.314        -486.756           0.255  
G03  23619259.795      -68256.107       -2128.454           0.244  
G04  22522437.540       69280.588        2036.003           0.255  
G05  20628358.316      -12115.031        -470.512           0.255  
G06  23407102.698      -29763.580       -1311.579           0.248  
G07  23104091.508      -23153.527       -1434.493           0.252  
> 2023 05 18 00 00 46.2688020  0  7                     
G01  24298566.417      125678.898        2911.971           0.239  
G02  22338088.591      -17270.928        -617.628           0.255  
G03  23619313.882      -68468.938       -2125.210           0.244  
G04  22522386.334       69483.554        1939.231           0.255  
G05  20628370.609      -12161.956        -469.744           0.255  
G06  23407135.366      -29894.741       -1317.780           0.248  
G07  23104127.271      -23297.396       -1412.201           0.251  
> 2023 05 18 00 00 46.3688020  0  7                     
G01  24298492.140      125970.188        2925.811           0.239  
G02  22338102.068      -17318.998        -488.354           0.255  
G03  23619368.150      -68681.662       -2138.950           0.244  
G04  22522334.075       69687.871        2036.453           0.255  
G05  20628382.938      -12208.870        -469.850           0.255  
G06  23407167.419      -30026.008       -1312.395           0.248  
G07  23104162.539      -23440.505       -1432.890           0.251  
> 2023 05 18 00 00 46.4688020  0  7                     
G01  24298418.250      126261.069        2911.903           0.240  
G02  22338115.500      -17368.065        -502.039           0.255  
G03  23619422.735      -68894.508       -2128.727           0.244  
G04  22522282.426       69891.343        2045.424           0.255  
G05  20628394.030      -12255.806        -468.796           0.255  
G06  23407201.043      -30157.223       -1311.940           0.248  
G07  23104200.715      -23583.991       -1434.494           0.251  
> 2023 05 18 00 00 46.5688020  0  7                     
G01  24298343.706      126552.138        2911.244           0.239  
G02  22338127.151      -17416.652        -485.467           0.255  
G03  23619476.598      -69107.310       -2128.933           0.244  
G04  22522229.870       70095.135        2034.692           0.255  
G05  20628406.253      -12302.748        -470.868           0.255  
G06  23407236.278      -30288.454       -1312.337           0.248  
G07  23104235.683      -23727.467       -1433.437           0.251  
> 2023 05 18 00 00 46.6688020  0  7                     
G01  24298268.205      126843.231        2911.189           0.239  
