     3.03           OBSERVATION DATA    M: Mixed            RINEX VERSION / TYPE
GNSS-SDRLIB v1.1                        20230710 053345 UTC PGM / RUN BY / DATE 
                                                            MARKER NAME         
                                                            MARKER NUMBER       
                                                            MARKER TYPE         
                                                            OBSERVER / AGENCY   
GNSS-SDRLIB         GNSS-SDRLIB         1.1                 REC # / TYPE / VERS 
                                                            ANT # / TYPE        
        0.0000        0.0000        0.0000                  APPROX POSITION XYZ 
        0.0000        0.0000        0.0000                  ANTENNA: DELTA H/E/N
G    4 C1C L1C D1C S1C                                      SYS / # / OBS TYPES 
R    4 C1C L1C D1C S1C                                      SYS / # / OBS TYPES 
E    4 C1C L1C D1C S1C                                      SYS / # / OBS TYPES 
J    4 C1C L1C D1C S1C                                      SYS / # / OBS TYPES 
S    4 C1C L1C D1C S1C                                      SYS / # / OBS TYPES 
C    4 C1C L1C D1C S1C                                      SYS / # / OBS TYPES 
  1970    01    01    00    00   00.0000000     GPS         TIME OF FIRST OBS   
  1970    01    01    00    00   00.0000000     GPS         TIME OF LAST OBS    
G L1C  0.00000                                              SYS / PHASE SHIFT   
R L1C  0.00000                                              SYS / PHASE SHIFT   
E L1C  0.00000                                              SYS / PHASE SHIFT   
J L1C  0.00000                                              SYS / PHASE SHIFT   
S L1C  0.00000                                              SYS / PHASE SHIFT   
C L1C  0.00000                                              SYS / PHASE SHIFT   
  0                                                         GLONASS SLOT / FRQ #
 C1C    0.000 C1P    0.000 C2C    0.000 C2P    0.000        GLONASS COD/PHS/BIS 
                                                            END OF HEADER       
> 2023 05 18 00 00 36.0688020  0  1                     
G06  20627155.506       -5846.718        -465.592           0.255  
> 2023 05 18 00 00 36.0688020  0  2                     
G04  23613783.373      -41584.584       -2126.173           0.244  
G06  20627155.506       -5846.718        -465.592           0.255  
> 2023 05 18 00 00 36.0688020  0  3                     
G04  23613783.373      -41584.584       -2126.173           0.244  
G05  22527681.934       42423.105        1961.594           0.255  
G06  20627155.506       -5846.718        -465.592           0.255  
> 2023 05 14 00 00 14.7688020  0  5                     
G02  22401851.574       87026.066        2910.209           0.239  
G04  30703265.491      -41555.565       -2127.041           0.244  
G05  20623395.327       42395.796        2039.585           0.255  
G06  30714558.905       -5840.364        -465.634           0.255  
G07  24497351.593       -7913.512       -1309.037           0.248  
> 2023 05 18 00 00 36.0688020  0  6                     
G02  24306132.811       87065.788        2910.547           0.239  
G03  22336826.892      -10695.735        -466.456           0.255  
G04  23613783.373      -41584.584       -2126.173           0.244  
G05  22527681.934       42423.105        1961.594           0.255  
G06  20627155.506       -5846.718        -465.592           0.255  
G07  23403727.587       -7931.477       -1325.680           0.248  
> 2023 05 18 00 00 36.1688020  0  6                     
G02  24306057.788       87356.884        2911.070           0.239  
G03  22336838.788      -10744.095        -483.375           0.255  
G04  23613838.518      -41797.276       -2126.419           0.244  
G05  22527629.763       42627.477        2038.996           0.255  
G06  20627167.447       -5893.298        -465.841           0.255  
G07  23403761.437       -8062.295       -1309.061           0.248  
> 2023 05 18 00 00 36.2688020  0  6                     
G02  24305983.238       87647.979        2912.065           0.239  
G03  22336851.183      -10792.475        -483.981           0.255  
G04  23613893.139      -42009.975       -2126.252           0.244  
G05  22527578.010       42831.338        2038.775           0.255  
G06  20627178.563       -5939.874        -465.826           0.255  
G07  23403795.116       -8193.208       -1309.169           0.248  
> 2023 05 18 00 00 36.3688020  0  6                     
G02  24305909.116       87939.065        2911.615           0.239  
G03  22336864.105      -10840.858        -484.272           0.255  
G04  23613946.763      -42222.677       -2127.059           0.244  
G05  22527526.116       43035.193        2038.695           0.255  
G06  20627190.485       -5986.454        -465.471           0.255  
G07  23403828.835       -8324.125       -1308.891           0.248  
> 2023 05 18 00 00 36.4688020  0  6                     
G02  24305835.303       88230.152        2911.469           0.239  
G03  22336876.252      -10889.247        -484.351           0.255  
G04  23614000.633      -42435.368       -2127.146           0.244  
G05  22527474.392       43239.046        2038.829           0.255  
G06  20627202.656       -6033.036        -465.713           0.255  
G07  23403862.476       -8455.046       -1308.851           0.248  
> 2023 05 18 00 00 36.5688020  0  6                     
G02  24305760.968       88521.414        2935.063           0.239  
G03  22336888.539      -10937.345        -459.697           0.255  
G04  23614054.960      -42648.220       -2168.702           0.244  
G05  22527422.283       43442.868        2049.204           0.255  
G06  20627214.573       -6079.626        -466.125           0.255  
G07  23403895.649       -8585.974       -1295.909           0.248  
> 2023 05 18 00 00 36.6688020  0  6                     
G02  24305687.298       88812.332        2910.650           0.239  
G03  22336900.494      -10986.032        -485.000           0.255  
G04  23614109.892      -42860.775       -2127.452           0.244  
G05  22527370.173       43646.750        2038.140           0.255  
G06  20627226.753       -6126.210        -465.334           0.255  
G07  23403928.942       -8716.913       -1309.153           0.248  
> 2023 05 18 00 00 36.7688020  0  6                     
G02  24305612.652       89103.420        2910.905           0.239  
G03  22336913.341      -11034.431        -484.148           0.255  
G04  23614164.275      -43073.466       -2127.487           0.244  
G05  22527318.223       43850.595        2037.961           0.255  
G06  20627239.213       -6172.812        -465.732           0.255  
G07  23403962.462       -8847.840       -1308.992           0.248  
> 2023 05 18 00 00 36.8688020  0  6                     
G02  24305538.915       89394.510        2911.329           0.239  
G03  22336925.592      -11082.839        -484.421           0.255  
G04  23614217.553      -43286.170       -2127.320           0.244  
G05  22527266.161       44054.515        2014.630           0.255  
G06  20627250.665       -6219.400        -465.316           0.255  
G07  23403996.010       -8978.771       -1309.528           0.248  
> 2023 05 18 00 00 36.9688020  0  6                     
G02  24305463.994       89685.603        2911.377           0.239  
G03  22336937.538      -11131.245        -484.342           0.255  
G04  23614271.734      -43498.844       -2142.568           0.244  
G05  22527214.443       44258.298        2038.618           0.255  
G06  20627262.525       -6266.001        -465.907           0.255  
G07  23404029.019       -9109.711       -1309.111           0.248  
> 2023 05 18 00 00 37.0688020  0  6                     
G02  24305389.992       89976.691        2911.190           0.239  
G03  22336949.878      -11179.604        -459.946           0.255  
G04  23614325.582      -43711.566       -2126.737           0.244  
G05  22527162.621       44462.138        2038.587           0.255  
G06  20627274.528       -6312.608        -466.344           0.255  
G07  23404062.360       -9240.661       -1309.151           0.248  
> 2023 05 18 00 00 37.1688020  0  6                     
G02  24305316.367       90267.779        2912.259           0.239  
G03  22336962.448      -11228.075        -483.552           0.255  
G04  23614379.811      -43924.267       -2126.286           0.244  
G05  22527110.529       44665.978        2038.860           0.255  
G06  20627286.177       -6359.211        -466.039           0.255  
G07  23404095.485       -9371.600       -1309.442           0.248  
> 2023 05 18 00 00 37.2688020  0  6                     
G02  24305242.018       90558.865        2911.694           0.239  
G03  22336974.681      -11276.504        -483.951           0.255  
G04  23614434.055      -44136.983       -2127.750           0.244  
G05  22527058.869       44869.818        2037.681           0.255  
G06  20627298.593       -6405.828        -465.938           0.255  
G07  23404129.500       -9502.545       -1309.328           0.248  
> 2023 05 18 00 00 37.3688020  0  6                     
G02  24305166.222       90849.954        2910.482           0.239  
G03  22336987.104      -11324.934        -484.698           0.255  
G04  23614488.843      -44349.688       -2127.398           0.244  
G05  22527006.640       45073.645        2036.895           0.255  
G06  20627309.664       -6452.442        -465.487           0.255  
G07  23404163.581       -9633.501       -1309.596           0.248  
> 2023 05 18 00 00 37.4688020  0  6                     
G02  24305092.590       91141.053        2911.816           0.239  
G03  22336998.704      -11373.364        -488.884           0.255  
G04  23614542.715      -44562.447       -2134.421           0.244  
G05  22526954.749       45277.490        2039.132           0.255  
G06  20627321.982       -6499.055        -466.365           0.255  
G07  23404196.251       -9764.450       -1309.464           0.248  
> 2023 05 18 00 00 37.5688020  0  6                     
G02  24305018.162       91432.133        2911.504           0.239  
G03  22337011.578      -11421.793        -484.213           0.255  
G04  23614597.333      -44775.099       -2127.182           0.244  
G05  22526902.962       45481.325        2039.130           0.255  
G06  20627333.580       -6545.684        -466.657           0.255  
G07  23404229.286       -9895.406       -1309.108           0.248  
> 2023 05 18 00 00 37.6688020  0  6                     
G02  24304944.574       91723.224        2911.254           0.239  
G03  22337025.146      -11470.246        -484.730           0.255  
G04  23614650.913      -44987.809       -2127.028           0.244  
G05  22526851.142       45685.307        2088.043           0.255  
G06  20627344.172       -6592.304        -466.693           0.255  
G07  23404262.889      -10026.511       -1315.127           0.248  
> 2023 05 18 00 00 37.7688020  0  6                     
G02  24304869.672       92014.319        2910.760           0.239  
G03  22337036.847      -11518.689        -485.604           0.255  
G04  23614705.819      -45200.531       -2139.004           0.244  
G05  22526798.661       45888.971        2038.601           0.255  
G06  20627356.811       -6638.928        -465.272           0.255  
G07  23404296.413      -10157.338       -1303.802           0.248  
> 2023 05 18 00 00 37.8688020  0  6                     
G02  24304797.556       92305.408        2911.732           0.239  
G03  22337048.777      -11567.141        -484.867           0.255  
G04  23614759.778      -45413.234       -2127.337           0.244  
G05  22526746.729       46092.796        2037.507           0.255  
G06  20627368.591       -6685.561        -465.714           0.255  
G07  23404329.986      -10288.290       -1309.430           0.248  
> 2023 05 18 00 00 37.9688020  0  6                     
G02  24304721.647       92596.495        2911.265           0.239  
G03  22337061.494      -11615.592        -484.865           0.255  
G04  23614814.731      -45625.945       -2127.032           0.244  
G05  22526694.950       46296.614        2037.333           0.255  
G06  20627381.072       -6732.208        -466.972           0.255  
G07  23404363.129      -10419.257       -1309.187           0.248  
> 2023 05 18 00 00 38.0688020  0  6                     
G02  24304648.388       92887.587        2911.319           0.239  
G03  22337073.945      -11664.056        -484.774           0.255  
G04  23614867.713      -45838.673       -2127.427           0.244  
G05  22526643.298       46500.450        2039.073           0.255  
G06  20627392.777       -6778.845        -466.551           0.255  
G07  23404395.758      -10550.228       -1309.406           0.248  
> 2023 05 18 00 00 38.1688020  0  6                     
G02  24304574.277       93178.678        2910.426           0.239  
G03  22337085.985      -11712.522        -484.565           0.255  
G04  23614922.100      -46051.418       -2133.561           0.244  
G05  22526591.139       46704.535        2070.372           0.255  
G06  20627404.571       -6825.477        -466.439           0.255  
G07  23404428.611      -10681.208       -1309.750           0.248  
> 2023 05 18 00 00 38.2688020  0  6                     
G02  24304500.472       93469.764        2910.118           0.239  
G03  22337098.108      -11760.980        -484.084           0.255  
G04  23614975.578      -46264.130       -2127.670           0.244  
G05  22526539.126       46908.074        2038.638           0.255  
G06  20627415.715       -6872.126        -466.087           0.255  
G07  23404462.863      -10812.181       -1309.284           0.248  
> 2023 05 18 00 00 38.3688020  0  6                     
G02  24304425.707       93760.859        2910.512           0.239  
G03  22337110.276      -11809.460        -484.530           0.255  
G04  23615030.704      -46476.843       -2104.668           0.244  
G05  22526487.244       47111.942        2054.929           0.255  
G06  20627428.671       -6918.774        -466.349           0.255  
G07  23404496.199      -10943.170       -1305.853           0.248  
> 2023 05 18 00 00 38.4688020  0  6                     
G02  24304351.190       94051.944        2910.192           0.239  
G03  22337122.702      -11857.947        -485.207           0.255  
G04  23615085.335      -46689.536       -2126.703           0.244  
G05  22526435.059       47315.692        2036.355           0.255  
G06  20627441.003       -6965.435        -466.784           0.255  
G07  23404530.166      -11074.116       -1305.637           0.248  
> 2023 05 18 00 00 38.5688020  0  6                     
G02  24304276.666       94343.034        2910.874           0.239  
G03  22337134.996      -11906.427        -485.062           0.255  
G04  23615139.210      -46902.261       -2127.672           0.244  
G05  22526383.096       47519.510        2038.178           0.255  
G06  20627451.392       -7012.089        -466.411           0.255  
G07  23404563.898      -11205.130       -1309.936           0.248  
> 2023 05 18 00 00 38.6688020  0  6                     
G02  24304202.111       94634.133        2911.126           0.239  
G03  22337147.153      -11954.906        -485.616           0.255  
G04  23615195.211      -47114.983       -2128.367           0.244  
G05  22526330.849       47723.325        2038.988           0.255  
G06  20627464.243       -7058.752        -465.898           0.255  
G07  23404596.403      -11336.121       -1309.770           0.248  
> 2023 05 18 00 00 38.7688020  0  6                     
G02  24304128.360       94925.217        2910.760           0.239  
G03  22337159.289      -12003.399        -484.973           0.255  
G04  23615248.198      -47327.698       -2127.213           0.244  
G05  22526279.529       47927.116        2038.583           0.255  
G06  20627476.113       -7105.413        -466.400           0.255  
G07  23404630.027      -11467.113       -1309.967           0.248  
> 2023 05 18 00 00 38.8688020  0  6                     
G02  24304055.562       95216.300        2910.785           0.239  
G03  22337171.679      -12051.901        -484.586           0.255  
G04  23615302.299      -47540.420       -2127.752           0.244  
G05  22526227.929       48130.922        2037.885           0.255  
G06  20627487.942       -7152.081        -467.069           0.255  
G07  23404662.901      -11598.105       -1309.800           0.248  
> 2023 05 18 00 00 38.9688020  0  6                     
G02  24303981.973       95507.399        2911.715           0.239  
G03  22337184.259      -12100.395        -484.750           0.255  
G04  23615355.229      -47752.965       -2119.728           0.244  
G05  22526176.062       48334.721        2036.653           0.255  
G06  20627499.941       -7198.751        -466.994           0.255  
G07  23404696.068      -11729.097       -1309.793           0.248  
> 2023 05 18 00 00 39.0688020  0  6                     
G02  24303905.319       95798.487        2912.872           0.240  
G03  22337197.055      -12148.900        -484.546           0.255  
G04  23615410.300      -47965.877       -2128.521           0.244  
G05  22526124.122       48538.359        1996.751           0.255  
G06  20627511.533       -7245.420        -466.909           0.255  
G07  23404729.717      -11860.052       -1299.946           0.248  
> 2023 05 18 00 00 39.1688020  0  6                     
G02  24303831.674       96089.583        2911.732           0.239  
G03  22337209.360      -12197.413        -484.824           0.255  
G04  23615464.608      -48178.576       -2118.250           0.244  
G05  22526071.667       48742.325        2038.698           0.255  
G06  20627523.607       -7292.091        -466.588           0.255  
G07  23404763.670      -11991.097       -1310.153           0.248  
> 2023 05 18 00 00 39.2688020  0  6                     
G02  24303757.331       96380.674        2911.829           0.239  
G03  22337222.193      -12245.931        -485.462           0.255  
G04  23615517.902      -48391.322       -2126.754           0.244  
G05  22526019.978       48946.114        2038.414           0.255  
G06  20627535.522       -7338.776        -466.850           0.255  
G07  23404796.683      -12121.977       -1277.594           0.248  
> 2023 05 18 00 00 39.3688020  0  6                     
G02  24303684.956       96671.760        2911.710           0.239  
G03  22337234.931      -12294.436        -483.661           0.255  
G04  23615572.340      -48604.052       -2127.581           0.244  
G05  22525967.574       49149.909        2038.007           0.255  
G06  20627547.004       -7385.463        -467.039           0.255  
G07  23404829.623      -12253.109       -1309.723           0.248  
> 2023 05 18 00 00 39.4688020  0  6                     
G02  24303611.223       96962.843        2911.024           0.239  
G03  22337246.180      -12342.966        -485.235           0.255  
G04  23615626.366      -48816.781       -2128.653           0.244  
G05  22525915.865       49353.690        2036.082           0.255  
G06  20627558.728       -7432.146        -466.751           0.255  
G07  23404863.747      -12384.122       -1309.341           0.248  
> 2023 05 18 00 00 39.5688020  0  6                     
G02  24303536.997       97253.933        2910.766           0.239  
G03  22337258.380      -12391.491        -485.036           0.255  
G04  23615680.515      -49029.516       -2128.116           0.244  
G05  22525864.023       49557.490        2038.390           0.255  
G06  20627570.649       -7478.840        -466.916           0.255  
G07  23404897.553      -12515.137       -1310.049           0.248  
> 2023 05 18 00 00 39.6688020  0  6                     
G02  24303461.658       97545.009        2910.771           0.239  
G03  22337271.215      -12440.023        -485.286           0.255  
G04  23615735.528      -49242.247       -2127.707           0.244  
G05  22525811.948       49761.279        2038.646           0.255  
G06  20627583.655       -7525.531        -467.001           0.255  
G07  23404930.241      -12646.160       -1310.251           0.248  
> 2023 05 18 00 00 39.7688020  0  6                     
G02  24303387.490       97836.102        2911.099           0.239  
G03  22337282.268      -12488.562        -485.310           0.255  
G04  23615789.178      -49454.977       -2127.874           0.244  
G05  22525760.036       49965.052        2038.196           0.255  
G06  20627594.935       -7572.230        -467.287           0.255  
G07  23404964.177      -12777.177       -1310.278           0.248  
> 2023 05 18 00 00 39.8688020  0  6                     
G02  24303313.857       98127.186        2910.344           0.239  
G03  22337295.522      -12537.101        -484.742           0.255  
G04  23615843.453      -49667.701       -2127.352           0.244  
G05  22525708.277       50168.835        2037.876           0.255  
G06  20627607.098       -7618.933        -467.255           0.255  
G07  23404996.929      -12908.207       -1310.390           0.248  
> 2023 05 18 00 00 39.9688020  0  6                     
G02  24303238.377       98418.280        2911.204           0.239  
G03  22337307.173      -12585.651        -485.674           0.255  
G04  23615898.006      -49880.431       -2126.532           0.244  
G05  22525656.466       50372.607        2036.710           0.255  
G06  20627618.730       -7665.632        -466.913           0.255  
G07  23405030.439      -13039.225       -1310.369           0.248  
> 2023 05 18 00 00 40.0688020  0  6                     
G02  24303163.484       98709.365        2911.950           0.239  
G03  22337321.206      -12634.200        -486.119           0.255  
G04  23615952.910      -50093.179       -2127.278           0.244  
G05  22525604.566       50576.391        2037.922           0.255  
G06  20627630.824       -7712.346        -466.905           0.255  
G07  23405063.736      -13170.257       -1309.724           0.248  
> 2023 05 18 00 00 40.1688020  0  6                     
G02  24303088.904       99000.458        2910.920           0.239  
G03  22337333.227      -12682.755        -485.609           0.255  
G04  23616007.300      -50305.917       -2127.094           0.244  
G05  22525552.485       50780.163        2037.962           0.255  
G06  20627642.660       -7759.058        -467.092           0.255  
G07  23405097.269      -13301.149       -1269.793           0.248  
> 2023 05 18 00 00 40.2688020  0  6                     
G02  24303016.347       99291.544        2911.846           0.239  
G03  22337345.798      -12731.551        -515.164           0.255  
G04  23616061.385      -50518.653       -2127.389           0.244  
G05  22525500.620       50983.924        2037.161           0.255  
G06  20627654.697       -7805.770        -467.597           0.255  
G07  23405129.980      -13432.331       -1310.396           0.248  
> 2023 05 18 00 00 40.3688020  0  6                     
G02  24302941.965       99582.635        2910.888           0.239  
G03  22337357.837      -12779.878        -485.098           0.255  
G04  23616114.988      -50731.387       -2126.784           0.244  
G05  22525448.749       51187.692        2036.339           0.255  
G06  20627666.436       -7852.486        -467.505           0.255  
G07  23405163.392      -13563.357       -1309.991           0.248  
> 2023 05 18 00 00 40.4688020  0  6                     
G02  24302867.446       99873.721        2910.630           0.240  
G03  22337370.358      -12828.447        -485.062           0.255  
G04  23616168.345      -50944.126       -2127.152           0.244  
G05  22525396.766       51391.463        2038.157           0.255  
G06  20627678.237       -7899.208        -466.552           0.255  
G07  23405196.799      -13694.398       -1310.244           0.248  
> 2023 05 18 00 00 40.5688020  0  6                     
G02  24302794.505      100164.820        2910.730           0.239  
G03  22337382.751      -12877.019        -485.615           0.255  
G04  23616222.577      -51156.875       -2127.258           0.244  
G05  22525344.548       51595.234        2038.245           0.255  
G06  20627689.983       -7945.934        -467.732           0.255  
G07  23405230.454      -13825.449       -1309.965           0.248  
> 2023 05 18 00 00 40.6688020  0  6                     
G02  24302720.436      100455.899        2911.175           0.239  
G03  22337395.155      -12925.602        -486.114           0.255  
G04  23616277.387      -51369.615       -2128.096           0.244  
G05  22525292.963       51798.993        2037.869           0.255  
G06  20627701.554       -7992.664        -467.755           0.255  
G07  23405264.081      -13956.501       -1310.356           0.248  
> 2023 05 18 00 00 40.7688020  0  6                     
G02  24302645.635      100746.980        2910.078           0.239  
G03  22337407.473      -12974.184        -485.780           0.255  
G04  23616330.743      -51582.357       -2127.002           0.244  
G05  22525241.093       52002.748        2036.953           0.255  
G06  20627713.470       -8039.397        -468.242           0.255  
G07  23405297.616      -14087.430       -1306.561           0.248  
> 2023 05 18 00 00 40.8688020  0  6                     
G02  24302571.008      101038.083        2913.121           0.239  
G03  22337419.959      -13022.763        -485.693           0.255  
G04  23616385.414      -51795.098       -2128.555           0.244  
G05  22525188.893       52206.513        2037.205           0.255  
G06  20627726.107       -8086.131        -467.335           0.255  
G07  23405331.034      -14218.608       -1310.647           0.248  
> 2023 05 18 00 00 40.9688020  0  6                     
G02  24302496.154      101329.164        2911.351           0.239  
G03  22337432.860      -13071.362        -486.376           0.255  
G04  23616440.546      -52007.842       -2127.798           0.244  
G05  22525137.052       52410.278        2037.895           0.255  
G06  20627737.713       -8132.864        -466.260           0.255  
G07  23405364.169      -14349.663       -1311.359           0.248  
> 2023 05 18 00 00 41.0688020  0  6                     
G02  24302423.356      101620.240        2910.728           0.239  
G03  22337444.736      -13119.954        -486.840           0.255  
G04  23616494.070      -52220.587       -2127.444           0.244  
G05  22525085.268       52614.142        2103.560           0.255  
G06  20627750.650       -8179.608        -466.754           0.255  
G07  23405398.345      -14480.469       -1277.597           0.248  
> 2023 05 18 00 00 41.1688020  0  6                     
G02  24302348.031      101911.330        2910.749           0.239  
G03  22337457.680      -13168.554        -486.456           0.255  
G04  23616548.871      -52433.339       -2127.680           0.244  
G05  22525033.531       52817.779        2036.683           0.255  
G06  20627760.672       -8226.361        -467.010           0.255  
G07  23405431.585      -14611.781       -1311.153           0.248  
> 2023 05 18 00 00 41.2688020  0  6                     
G02  24302273.049      102202.428        2911.555           0.239  
G03  22337469.460      -13217.158        -486.397           0.255  
G04  23616604.192      -52646.097       -2128.357           0.244  
G05  22524980.910       53021.527        2037.328           0.255  
G06  20627772.898       -8273.109        -467.571           0.255  
G07  23405465.032      -14742.846       -1310.409           0.248  
> 2023 05 18 00 00 41.3688020  0  6                     
G02  24302199.107      102493.514        2911.575           0.239  
G03  22337481.802      -13265.764        -486.045           0.255  
G04  23616657.668      -52858.786       -2132.765           0.244  
G05  22524929.372       53225.283        2037.839           0.255  
G06  20627785.393       -8319.864        -468.408           0.255  
G07  23405497.632      -14873.918       -1310.734           0.248  
> 2023 05 18 00 00 41.4688020  0  6                     
G02  24302126.277      102784.595        2909.939           0.239  
G03  22337494.144      -13314.374        -485.810           0.255  
G04  23616711.142      -53071.616       -2086.100           0.244  
G05  22524877.441       53429.023        2037.733           0.255  
G06  20627797.821       -8366.615        -467.300           0.255  
G07  23405532.121      -15004.991       -1311.367           0.248  
> 2023 05 18 00 00 41.5688020  0  6                     
G02  24302052.190      103075.696        2911.300           0.239  
G03  22337506.532      -13362.934        -482.719           0.255  
G04  23616765.243      -53284.530       -2130.494           0.244  
G05  22524825.138       53632.316        1967.296           0.255  
G06  20627809.622       -8413.382        -467.653           0.255  
G07  23405564.555      -15136.062       -1310.930           0.248  
> 2023 05 18 00 00 41.6688020  0  6                     
G02  24301977.969      103366.790        2910.995           0.239  
G03  22337518.434      -13411.623        -486.022           0.255  
G04  23616819.104      -53497.094       -2127.002           0.244  
G05  22524773.654       53836.511        2037.425           0.255  
G06  20627821.591       -8460.140        -468.295           0.255  
G07  23405597.810      -15267.141       -1310.946           0.248  
> 2023 05 18 00 00 41.7688020  0  6                     
G02  24301904.304      103657.871        2910.566           0.239  
G03  22337530.933      -13460.249        -485.717           0.255  
G04  23616873.962      -53709.853       -2127.802           0.244  
G05  22524721.619       54040.587        2104.265           0.255  
G06  20627833.072       -8506.902        -467.974           0.255  
G07  23405631.148      -15398.223       -1310.635           0.248  
> 2023 05 18 00 00 41.8688020  0  6                     
G02  24301829.808      103948.944        2910.323           0.239  
G03  22337543.285      -13508.884        -486.187           0.255  
G04  23616927.866      -53922.605       -2127.460           0.244  
G05  22524669.869       54244.038        2065.583           0.255  
G06  20627845.082       -8553.673        -467.545           0.255  
G07  23405664.678      -15529.302       -1310.969           0.248  
> 2023 05 18 00 00 41.9688020  0  6                     
G02  24301755.326      104240.035        2910.633           0.239  
G03  22337555.526      -13557.509        -486.037           0.255  
G04  23616981.984      -54135.366       -2127.350           0.244  
G05  22524618.113       54447.715        2036.299           0.255  
G06  20627856.865       -8600.449        -467.866           0.255  
G07  23405697.804      -15660.386       -1311.126           0.248  
> 2023 05 18 00 00 42.0688020  0  6                     
G02  24301681.386      104531.130        2909.708           0.239  
G03  22337568.046      -13606.149        -485.709           0.255  
G04  23617036.896      -54348.128       -2127.409           0.244  
G05  22524566.047       54651.462        2038.512           0.255  
G06  20627868.994       -8647.228        -468.052           0.255  
G07  23405731.856      -15791.468       -1310.635           0.248  
> 2023 05 18 00 00 42.1688020  0  6                     
G02  24301606.258      104822.214        2910.761           0.239  
G03  22337580.739      -13654.802        -485.785           0.255  
G04  23617091.512      -54560.967       -2170.145           0.244  
G05  22524514.399       54855.546        2112.010           0.255  
G06  20627880.995       -8694.005        -468.030           0.255  
G07  23405765.188      -15922.348       -1300.020           0.248  
> 2023 05 18 00 00 42.2688020  0  6                     
G02  24301532.893      105113.250        2908.775           0.239  
G03  22337593.866      -13704.187        -533.872           0.255  
G04  23617144.940      -54773.633       -2127.978           0.244  
G05  22524462.404       55058.915        2037.202           0.255  
G06  20627892.591       -8740.787        -468.120           0.255  
G07  23405799.042      -16053.522       -1297.661           0.248  
> 2023 05 18 00 00 42.3688020  0  6                     
G02  24301459.183      105404.399        2911.466           0.239  
G03  22337606.010      -13752.123        -487.658           0.255  
G04  23617198.832      -54986.437       -2123.000           0.244  
G05  22524410.387       55262.650        2086.655           0.255  
G06  20627904.513       -8787.569        -467.149           0.255  
G07  23405832.389      -16184.810       -1327.302           0.248  
> 2023 05 18 00 00 42.4688020  0  6                     
G02  24301384.808      105695.489        2911.070           0.239  
G03  22337618.587      -13800.766        -486.989           0.255  
G04  23617253.189      -55199.166       -2127.706           0.244  
G05  22524358.393       55466.372        2037.750           0.255  
G06  20627916.165       -8834.366        -468.039           0.255  
G07  23405865.580      -16315.847       -1311.215           0.248  
> 2023 05 18 00 00 42.5688020  0  6                     
G02  24301310.541      105986.578        2911.259           0.239  
G03  22337630.819      -13849.429        -485.785           0.255  
G04  23617307.639      -55412.082       -2153.790           0.244  
G05  22524306.391       55670.089        2037.466           0.255  
G06  20627928.471       -8881.161        -468.223           0.255  
G07  23405898.579      -16447.058       -1325.306           0.248  
> 2023 05 18 00 00 42.6688020  0  6                     
G02  24301236.067      106277.662        2911.269           0.239  
G03  22337643.179      -13898.100        -486.306           0.255  
G04  23617361.737      -55624.677       -2126.620           0.244  
G05  22524254.404       55873.806        2036.741           0.255  
G06  20627940.734       -8927.957        -468.505           0.255  
G07  23405932.880      -16578.054       -1310.780           0.248  
> 2023 05 18 00 00 42.7688020  0  6                     
G02  24301162.476      106568.753        2911.348           0.239  
G03  22337655.042      -13946.774        -487.575           0.255  
G04  23617415.652      -55837.451       -2128.084           0.244  
G05  22524202.353       56077.525        2036.894           0.255  
G06  20627952.523       -8974.755        -467.727           0.255  
G07  23405966.260      -16709.168       -1311.419           0.248  
> 2023 05 18 00 00 42.8688020  0  6                     
G02  24301088.452      106859.844        2910.763           0.239  
G03  22337667.400      -13995.445        -487.496           0.255  
G04  23617470.815      -56050.214       -2127.365           0.244  
G05  22524150.410       56281.250        2037.900           0.255  
G06  20627964.253       -9021.560        -467.453           0.255  
G07  23405998.332      -16840.273       -1310.615           0.248  
> 2023 05 18 00 00 42.9688020  0  6                     
G02  24301014.392      107150.930        2910.558           0.239  
G03  22337679.860      -14044.121        -487.437           0.255  
G04  23617524.883      -56262.979       -2119.809           0.244  
G05  22524098.831       56485.089        2048.635           0.255  
G06  20627976.061       -9068.372        -467.905           0.255  
G07  23406032.346      -16971.390       -1310.937           0.248  
> 2023 05 18 00 00 43.0688020  0  6                     
G02  24300939.468      107442.020        2910.700           0.239  
G03  22337692.399      -14092.810        -487.064           0.255  
G04  23617578.891      -56475.756       -2127.311           0.244  
G05  22524046.919       56688.651        2036.294           0.255  
G06  20627988.089       -9115.182        -468.180           0.255  
G07  23406065.725      -17102.502       -1311.233           0.248  
> 2023 05 18 00 00 43.1688020  0  6                     
G02  24300865.623      107733.115        2911.936           0.239  
G03  22337704.602      -14141.504        -487.200           0.255  
G04  23617632.629      -56688.509       -2123.990           0.244  
G05  22523994.951       56892.372        2037.817           0.255  
G06  20628000.516       -9161.991        -467.956           0.255  
G07  23406099.142      -17233.637       -1301.318           0.248  
> 2023 05 18 00 00 43.2688020  0  6                     
G02  24300791.488      108024.203        2911.257           0.239  
G03  22337716.391      -14190.198        -488.011           0.255  
G04  23617686.298      -56901.285       -2127.486           0.244  
G05  22523942.946       57096.069        2037.332           0.255  
G06  20628012.566       -9208.812        -467.613           0.255  
G07  23406132.504      -17364.748       -1310.892           0.248  
> 2023 05 18 00 00 43.3688020  0  6                     
G02  24300716.959      108315.294        2911.132           0.239  
G03  22337728.960      -14238.891        -488.383           0.255  
G04  23617741.172      -57114.063       -2127.538           0.244  
G05  22523891.213       57299.776        2036.372           0.255  
G06  20628024.624       -9255.636        -467.594           0.255  
G07  23406166.083      -17495.877       -1311.351           0.248  
> 2023 05 18 00 00 43.4688020  0  6                     
G02  24300642.040      108606.385        2910.971           0.239  
G03  22337742.415      -14287.587        -487.499           0.255  
G04  23617796.065      -57326.836       -2127.532           0.244  
G05  22523839.136       57503.483        2037.213           0.255  
G06  20628036.048       -9302.468        -468.072           0.255  
G07  23406199.435      -17627.004       -1311.189           0.248  
> 2023 05 18 00 00 43.5688020  0  6                     
G02  24300566.821      108897.462        2909.486           0.239  
G03  22337755.098      -14336.297        -486.899           0.255  
G04  23617850.995      -57539.608       -2126.139           0.244  
G05  22523787.316       57707.184        2037.358           0.255  
G06  20628047.562       -9349.293        -468.638           0.255  
G07  23406232.988      -17758.138       -1311.743           0.248  
> 2023 05 18 00 00 43.6688020  0  6                     
G02  24300493.380      109188.551        2910.645           0.239  
G03  22337766.200      -14385.019        -487.284           0.255  
G04  23617904.118      -57752.379       -2127.317           0.244  
G05  22523735.629       57910.877        2036.612           0.255  
G06  20628060.187       -9396.125        -468.616           0.255  
G07  23406265.711      -17889.272       -1311.552           0.248  
> 2023 05 18 00 00 43.7688020  0  6                     
G02  24300419.239      109479.650        2910.728           0.239  
G03  22337778.349      -14433.738        -486.656           0.255  
G04  23617958.254      -57965.170       -2127.487           0.244  
G05  22523683.779       58114.571        2036.503           0.255  
G06  20628072.261       -9442.953        -468.743           0.255  
G07  23406300.123      -18020.415       -1311.618           0.248  
> 2023 05 18 00 00 43.8688020  0  6                     
G02  24300345.713      109770.740        2911.473           0.239  
G03  22337791.849      -14482.462        -487.590           0.255  
G04  23618011.636      -58177.946       -2128.197           0.244  
G05  22523631.518       58318.272        2037.825           0.255  
G06  20628083.029       -9489.793        -467.894           0.255  
G07  23406333.963      -18151.553       -1311.197           0.248  
> 2023 05 18 00 00 43.9688020  0  6                     
G02  24300272.520      110061.827        2911.263           0.239  
G03  22337804.351      -14531.190        -487.304           0.255  
G04  23618066.474      -58390.727       -2127.439           0.244  
G05  22523579.697       58521.956        2037.041           0.255  
G06  20628095.697       -9536.635        -468.365           0.255  
G07  23406365.275      -18282.703       -1311.411           0.248  
> 2023 05 18 00 00 44.0688020  0  6                     
G02  24300197.007      110352.899        2910.442           0.239  
G03  22337816.817      -14579.872        -485.126           0.255  
G04  23618121.839      -58603.297       -2109.154           0.244  
G05  22523527.787       58725.638        2035.887           0.255  
G06  20628106.869       -9583.480        -467.978           0.255  
G07  23406401.209      -18413.846       -1311.493           0.248  
> 2023 05 18 00 00 44.1688020  0  6                     
G02  24300123.228      110643.979        2910.020           0.239  
G03  22337829.149      -14628.655        -487.203           0.255  
G04  23618175.632      -58816.278       -2127.367           0.244  
G05  22523475.733       58929.340        2037.808           0.255  
G06  20628119.391       -9630.332        -468.756           0.255  
G07  23406433.146      -18544.995       -1311.486           0.248  
> 2023 05 18 00 00 44.2688020  0  6                     
G02  24300048.762      110935.084        2911.022           0.239  
G03  22337841.184      -14677.401        -487.345           0.255  
G04  23618228.997      -59029.068       -2128.216           0.244  
G05  22523423.956       59133.014        2037.023           0.255  
G06  20628131.979       -9677.181        -468.463           0.255  
G07  23406466.587      -18676.149       -1311.164           0.248  
> 2023 05 18 00 00 44.3688020  0  6                     
G02  24299974.696      111226.167        2910.049           0.239  
G03  22337853.501      -14726.139        -487.071           0.255  
G04  23618283.765      -59241.850       -2128.053           0.244  
G05  22523372.201       59336.686        2034.911           0.255  
G06  20628144.684       -9724.039        -468.574           0.255  
G07  23406499.166      -18807.306       -1311.063           0.248  
> 2023 05 18 00 00 44.4688020  0  6                     
G02  24299900.957      111517.254        2910.047           0.239  
G03  22337865.474      -14774.897        -488.240           0.255  
G04  23618338.527      -59454.637       -2127.805           0.244  
G05  22523320.311       59540.387        2038.009           0.255  
G06  20628154.962       -9770.892        -467.854           0.255  
G07  23406533.315      -18938.473       -1312.421           0.248  
> 2023 05 18 00 00 44.5688020  0  6                     
G02  24299827.017      111808.340        2910.001           0.240  
G03  22337877.612      -14823.254        -470.400           0.255  
G04  23618392.111      -59667.203       -2092.868           0.244  
G05  22523268.380       59744.055        2036.939           0.255  
G06  20628167.523       -9817.765        -468.675           0.255  
G07  23406566.883      -19069.688       -1315.943           0.248  
> 2023 05 18 00 00 44.6688020  0  6                     
G02  24299752.784      112099.437        2910.323           0.239  
G03  22337891.111      -14872.397        -489.050           0.255  
G04  23618446.148      -59880.209       -2128.096           0.244  
G05  22523216.704       59947.729        2035.751           0.255  
G06  20628178.750       -9864.634        -468.145           0.255  
G07  23406600.556      -19200.791       -1310.967           0.248  
> 2023 05 18 00 00 44.7688020  0  6                     
G02  24299678.805      112390.530        2910.872           0.239  
G03  22337903.902      -14920.999        -471.773           0.255  
G04  23618500.472      -60093.157       -2190.801           0.244  
G05  22523164.477       60150.655        1926.205           0.255  
G06  20628190.803       -9911.502        -468.500           0.255  
G07  23406634.122      -19332.131       -1301.259           0.248  
> 2023 05 18 00 00 44.8688020  0  6                     
G02  24299604.304      112681.601        2911.500           0.239  
G03  22337916.096      -14969.927        -487.768           0.255  
G04  23618554.714      -60305.774       -2127.620           0.244  
G05  22523112.283       60355.083        2037.279           0.255  
G06  20628202.499       -9958.372        -468.492           0.255  
G07  23406667.994      -19463.131       -1311.216           0.248  
> 2023 05 18 00 00 44.9688020  0  6                     
G02  24299529.809      112972.700        2910.561           0.239  
G03  22337928.250      -15018.821        -480.715           0.255  
G04  23618608.914      -60518.577       -2128.381           0.244  
G05  22523060.835       60558.747        2035.988           0.255  
G06  20628214.973      -10005.250        -469.606           0.255  
G07  23406700.822      -19594.297       -1311.450           0.248  
> 2023 05 18 00 00 45.0688020  0  6                     
G02  24299457.103      113263.785        2911.201           0.239  
G03  22337941.195      -15067.476        -486.655           0.255  
G04  23618662.760      -60731.363       -2128.002           0.244  
G05  22523008.942       60762.427        2037.777           0.255  
G06  20628227.012      -10052.134        -469.513           0.255  
G07  23406734.303      -19725.469       -1311.240           0.248  
> 2023 05 18 00 00 45.1688020  0  6                     
G02  24299382.661      113554.859        2910.259           0.239  
G03  22337953.689      -15116.261        -487.233           0.255  
G04  23618716.555      -60944.151       -2127.776           0.244  
G05  22522956.751       60966.082        2037.278           0.255  
G06  20628238.962      -10099.006        -468.750           0.255  
G07  23406767.827      -19856.650       -1311.841           0.248  
> 2023 05 18 00 00 45.2688020  0  6                     
G02  24299306.733      113845.946        2910.037           0.239  
G03  22337965.988      -15165.045        -488.172           0.255  
G04  23618771.500      -61156.942       -2127.266           0.244  
G05  22522905.028       61169.741        2035.673           0.255  
G06  20628251.180      -10145.900        -468.339           0.255  
G07  23406801.301      -19987.830       -1311.570           0.248  
> 2023 05 18 00 00 45.3688020  0  6                     
G02  24299233.357      114137.029        2910.998           0.239  
G03  22337977.996      -15214.017        -496.829           0.255  
G04  23618827.045      -61369.737       -2127.479           0.244  
G05  22522853.110       61373.779        2071.679           0.255  
G06  20628263.051      -10192.781        -468.314           0.255  
G07  23406833.241      -20119.116       -1348.038           0.248  
> 2023 05 18 00 00 45.4688020  0  6                     
G02  24299159.670      114428.115        2911.560           0.239  
G03  22337990.678      -15262.624        -487.405           0.255  
G04  23618880.082      -61582.533       -2128.129           0.244  
G05  22522801.221       61577.058        2036.927           0.255  
G06  20628274.543      -10239.680        -468.640           0.255  
G07  23406868.379      -20250.205       -1312.190           0.248  
> 2023 05 18 00 00 45.5688020  0  6                     
G02  24299085.215      114719.183        2910.191           0.240  
G03  22338003.846      -15311.423        -487.876           0.255  
G04  23618933.996      -61795.324       -2127.099           0.244  
G05  22522749.294       61780.714        2035.587           0.255  
G06  20628286.570      -10286.585        -468.746           0.255  
G07  23406900.377      -20381.397       -1312.412           0.248  
> 2023 05 18 00 00 45.6688020  0  6                     
G02  24299011.172      115010.270        2911.699           0.239  
G03  22338016.292      -15360.230        -487.593           0.255  
G04  23618988.125      -62008.174       -2136.720           0.244  
G05  22522697.137       61984.383        2037.615           0.255  
G06  20628298.505      -10333.483        -468.954           0.255  
G07  23406933.782      -20512.751       -1334.179           0.248  
> 2023 05 18 00 00 45.7688020  0  6                     
G02  24298936.892      115301.345        2909.917           0.239  
G03  22338026.965      -15409.027        -488.187           0.255  
G04  23619043.303      -62220.919       -2127.479           0.244  
G05  22522645.713       62188.025        2037.003           0.255  
G06  20628310.388      -10380.391        -468.820           0.255  
G07  23406967.638      -20643.788       -1312.012           0.248  
> 2023 05 18 00 00 45.8688020  0  6                     
G02  24298861.810      115592.433        2910.510           0.239  
G03  22338039.719      -15457.848        -488.779           0.255  
G04  23619097.410      -62433.723       -2128.238           0.244  
G05  22522593.711       62391.662        2035.118           0.255  
G06  20628322.669      -10427.296        -469.366           0.255  
G07  23407001.711      -20774.982       -1311.227           0.248  
> 2023 05 18 00 00 45.9688020  0  6                     
G02  24298787.934      115883.523        2911.280           0.239  
G03  22338052.705      -15506.663        -488.826           0.255  
G04  23619151.598      -62646.524       -2128.292           0.244  
G05  22522541.687       62595.322        2037.112           0.255  
G06  20628334.508      -10474.204        -468.893           0.255  
G07  23407036.031      -20906.189       -1311.737           0.248  
> 2023 05 18 00 00 46.0688020  0  6                     
G02  24298713.938      116174.603        2911.212           0.239  
G03  22338064.011      -15555.491        -488.557           0.255  
G04  23619205.938      -62859.316       -2127.433           0.244  
G05  22522489.787       62798.959        2036.154           0.255  
G06  20628347.365      -10521.120        -469.325           0.255  
G07  23407069.046      -21037.398       -1312.095           0.248  
> 2023 05 18 00 00 46.1688020  0  6                     
G02  24298640.201      116465.689        2910.847           0.239  
G03  22338077.393      -15604.318        -488.831           0.255  
G04  23619260.513      -63072.125       -2127.836           0.244  
G05  22522438.018       63002.600        2035.445           0.255  
G06  20628357.676      -10568.033        -468.633           0.255  
G07  23407102.253      -21168.606       -1312.737           0.248  
> 2023 05 18 00 00 46.2688020  0  6                     
G02  24298565.876      116756.781        2911.265           0.239  
G03  22338089.330      -15653.142        -488.235           0.255  
G04  23619313.963      -63284.517       -2095.941           0.244  
G05  22522385.743       63206.251        2037.080           0.255  
G06  20628370.485      -10614.963        -469.203           0.255  
G07  23407136.097      -21299.817       -1311.843           0.248  
> 2023 05 18 00 00 46.3688020  0  6                     
G02  24298491.007      117047.854        2912.056           0.239  
G03  22338102.725      -15701.972        -488.633           0.255  
G04  23619367.721      -63497.731       -2129.235           0.244  
G05  22522334.208       63409.879        2036.088           0.255  
G06  20628382.257      -10661.890        -469.033           0.255  
G07  23407169.568      -21431.028       -1311.381           0.248  
> 2023 05 18 00 00 46.4688020  0  6                     
G02  24298416.659      117338.937        2911.229           0.239  
G03  22338115.388      -15750.813        -487.848           0.255  
G04  23619422.199      -63710.538       -2128.411           0.244  
G05  22522282.107       63613.519        2036.006           0.255  
G06  20628394.550      -10708.818        -469.493           0.255  
G07  23407202.545      -21562.249       -1312.300           0.248  
> 2023 05 18 00 00 46.5688020  0  6                     
G02  24298342.926      117630.017        2911.239           0.239  
G03  22338126.957      -15799.670        -488.934           0.255  
G04  23619477.147      -63923.343       -2128.665           0.244  
G05  22522230.313       63817.158        2036.993           0.255  
G06  20628406.507      -10755.745        -468.957           0.255  
G07  23407236.039      -21693.476       -1312.647           0.248  
> 2023 05 18 00 00 46.6688020  0  6                     
G02  24298270.017      117921.095        2910.579           0.239  
G03  22338140.031      -15848.517        -488.585           0.255  
G04  23619531.432      -64136.154       -2127.869           0.244  
G05  22522178.626       64020.784        2035.842           0.255  
G06  20628418.183      -10802.683        -469.431           0.255  
G07  23407268.644      -21824.700       -1312.143           0.248  
> 2023 05 18 00 00 46.7688020  0  6                     
G02  24298196.130      118212.184        2910.705           0.239  
G03  22338152.020      -15897.372        -488.744           0.255  
G04  23619585.241      -64348.966       -2127.467           0.244  
G05  22522126.491       64224.422        2036.975           0.255  
G06  20628430.101      -10849.618        -469.536           0.255  
G07  23407301.646      -21955.923       -1312.397           0.248  
> 2023 05 18 00 00 46.8688020  0  6                     
G02  24298119.541      118503.263        2910.744           0.239  
G03  22338164.044      -15946.238        -488.339           0.255  
G04  23619639.222      -64561.779       -2128.575           0.244  
G05  22522074.892       64428.041        2036.668           0.255  
G06  20628442.619      -10896.556        -469.592           0.255  
G07  23407335.283      -22087.157       -1313.074           0.248  
> 2023 05 18 00 00 46.9688020  0  6                     
G02  24298046.035      118794.349        2910.295           0.239  
G03  22338177.387      -15995.100        -489.014           0.255  
G04  23619693.334      -64774.591       -2128.666           0.244  
G05  22522022.988       64631.658        2034.900           0.255  
G06  20628454.335      -10943.494        -469.406           0.255  
G07  23407369.236      -22218.380       -1311.769           0.248  
> 2023 05 18 00 00 47.0688020  0  6                     
G02  24297971.910      119085.432        2910.199           0.239  
G03  22338189.904      -16043.974        -490.787           0.255  
G04  23619747.644      -64987.403       -2128.291           0.244  
G05  22521970.854       64835.300        2036.789           0.255  
G06  20628465.883      -10990.438        -468.285           0.255  
G07  23407402.976      -22349.623       -1312.055           0.248  
> 2023 05 18 00 00 47.1688020  0  6                     
G02  24297898.560      119376.515        2910.318           0.239  
G03  22338202.272      -16092.828        -489.748           0.255  
G04  23619801.958      -65200.215       -2128.150           0.244  
G05  22521919.194       65038.913        2036.168           0.255  
G06  20628478.135      -11037.400        -468.902           0.255  
G07  23407436.009      -22480.866       -1313.458           0.248  
> 2023 05 18 00 00 47.2688020  0  6                     
G02  24297824.211      119667.603        2910.740           0.239  
G03  22338214.456      -16141.697        -488.685           0.255  
G04  23619855.741      -65413.027       -2129.020           0.244  
G05  22521867.054       65242.518        2035.853           0.255  
G06  20628490.041      -11084.361        -469.544           0.255  
G07  23407470.056      -22612.105       -1312.401           0.248  
> 2023 05 18 00 00 47.3688020  0  6                     
G02  24297749.539      119958.690        2910.925           0.239  
G03  22338227.895      -16190.580        -489.039           0.255  
G04  23619911.535      -65625.930       -2134.361           0.244  
G05  22521814.949       65446.147        2036.556           0.255  
G06  20628501.364      -11131.322        -469.666           0.255  
G07  23407503.233      -22743.345       -1312.431           0.248  
> 2023 05 18 00 00 47.4688020  0  6                     
G02  24297675.923      120249.774        2911.467           0.239  
G03  22338240.103      -16239.465        -488.595           0.255  
G04  23619965.120      -65838.813       -2133.269           0.244  
G05  22521763.348       65649.755        2035.981           0.255  
G06  20628513.949      -11178.275        -469.693           0.255  
G07  23407537.227      -22874.446       -1306.967           0.248  
> 2023 05 18 00 00 47.5688020  0  6                     
G02  24297602.397      120540.847        2910.064           0.239  
G03  22338252.245      -16288.362        -489.302           0.255  
G04  23620018.634      -66051.485       -2127.694           0.244  
G05  22521711.320       65853.379        2036.849           0.255  
G06  20628526.926      -11225.239        -469.233           0.255  
G07  23407570.400      -23005.842       -1312.703           0.248  
> 2023 05 18 00 00 47.6688020  0  6                     
G02  24297527.625      120831.935        2911.381           0.239  
G03  22338264.532      -16337.249        -489.391           0.255  
G04  23620073.270      -66264.297       -2128.580           0.244  
G05  22521659.341       66056.976        2036.519           0.255  
G06  20628538.020      -11272.212        -469.870           0.255  
G07  23407603.590      -23137.081       -1311.607           0.248  
> 2023 05 18 00 00 47.7688020  0  6                     
G02  24297452.866      121122.999        2910.765           0.239  
G03  22338277.038      -16386.138        -488.638           0.255  
G04  23620127.355      -66477.119       -2128.251           0.244  
G05  22521607.539       66260.584        2035.554           0.255  
G06  20628550.093      -11319.190        -470.264           0.255  
G07  23407637.611      -23268.354       -1313.133           0.248  
> 2023 05 18 00 00 47.8688020  0  6                     
G02  24297380.417      121414.084        2910.750           0.239  
G03  22338289.662      -16435.041        -488.858           0.255  
G04  23620180.310      -66689.945       -2128.142           0.244  
G05  22521556.054       66464.196        2036.495           0.255  
G06  20628562.345      -11366.170        -470.099           0.255  
G07  23407669.815      -23399.608       -1312.524           0.248  
> 2023 05 18 00 00 47.9688020  0  6                     
G02  24297305.883      121705.165        2909.973           0.239  
G03  22338301.331      -16483.947        -488.747           0.255  
G04  23620234.747      -66902.768       -2128.228           0.244  
G05  22521503.453       66667.789        2035.164           0.255  
G06  20628574.878      -11413.145        -469.902           0.255  
G07  23407703.809      -23530.866       -1312.471           0.248  
> 2023 05 18 00 00 48.0688020  0  6                     
G02  24297230.328      121996.259        2910.191           0.239  
G03  22338314.517      -16532.866        -489.402           0.255  
G04  23620289.126      -67115.588       -2127.676           0.244  
G05  22521451.738       66871.401        2037.184           0.255  
G06  20628586.230      -11460.132        -469.298           0.255  
G07  23407737.070      -23662.136       -1313.347           0.248  
> 2023 05 18 00 00 48.1688020  0  6                     
G02  24297155.199      122287.339        2910.562           0.239  
G03  22338326.631      -16581.780        -488.884           0.255  
G04  23620344.688      -67328.417       -2128.350           0.244  
G05  22521399.942       67074.711        2016.409           0.255  
G06  20628597.722      -11507.114        -470.261           0.255  
G07  23407770.369      -23793.348       -1304.179           0.248  
> 2023 05 18 00 00 48.2688020  0  6                     
