     3.03           OBSERVATION DATA    M: Mixed            RINEX VERSION / TYPE
GNSS-SDRLIB v1.1                        20230702 153800 UTC PGM / RUN BY / DATE 
                                                            MARKER NAME         
                                                            MARKER NUMBER       
                                                            MARKER TYPE         
                                                            OBSERVER / AGENCY   
GNSS-SDRLIB         GNSS-SDRLIB         1.1                 REC # / TYPE / VERS 
                                                            ANT # / TYPE        
        0.0000        0.0000        0.0000                  APPROX POSITION XYZ 
        0.0000        0.0000        0.0000                  ANTENNA: DELTA H/E/N
G    4 C5A L5A D5A S5A                                      SYS / # / OBS TYPES 
R    4 C5A L5A D5A S5A                                      SYS / # / OBS TYPES 
E    4 C5A L5A D5A S5A                                      SYS / # / OBS TYPES 
J    4 C5A L5A D5A S5A                                      SYS / # / OBS TYPES 
S    4 C5A L5A D5A S5A                                      SYS / # / OBS TYPES 
C    4 C5A L5A D5A S5A                                      SYS / # / OBS TYPES 
I    4 C5A L5A D5A S5A                                      SYS / # / OBS TYPES 
  1970    01    01    00    00   00.0000000     GPS         TIME OF FIRST OBS   
  1970    01    01    00    00   00.0000000     GPS         TIME OF LAST OBS    
G L5A  0.00000                                              SYS / PHASE SHIFT   
R L5A  0.00000                                              SYS / PHASE SHIFT   
E L5A  0.00000                                              SYS / PHASE SHIFT   
J L5A  0.00000                                              SYS / PHASE SHIFT   
S L5A  0.00000                                              SYS / PHASE SHIFT   
C L5A  0.00000                                              SYS / PHASE SHIFT   
I L5A                                                       SYS / PHASE SHIFT   
  0                                                         GLONASS SLOT / FRQ #
 C1C    0.000 C1P    0.000 C2C    0.000 C2P    0.000        GLONASS COD/PHS/BIS 
                                                            END OF HEADER       
> 2019 05 08 04 25 48.0688020  0  1                     
I05  20625694.831        9990.105         236.046           0.191  
> 2019 05 08 04 25 48.1688020  0  1                     
I05  20625691.365       10013.606         232.909           0.191  
> 2019 05 08 04 25 48.2688020  0  1                     
I05  20625688.341       10037.150         243.998           0.185  
> 2019 05 08 04 25 48.3688020  0  1                     
I05  20625686.902       10060.864         243.841           0.189  
> 2019 05 08 04 25 48.4688020  0  1                     
I05  20625682.591       10084.546         246.423           0.189  
> 2019 05 08 04 25 48.5688020  0  1                     
I05  20625681.225       10108.220         234.748           0.190  
> 2019 05 08 04 25 48.6688020  0  1                     
I05  20625677.374       10131.706         235.862           0.190  
> 2019 05 08 04 25 48.7688020  0  1                     
I05  20625677.036       10155.317         234.991           0.189  
> 2019 05 08 04 25 48.8688020  0  1                     
I05  20625672.242       10178.860         232.758           0.190  
> 2019 05 08 04 25 48.9688020  0  1                     
I05  20625666.842       10202.537         242.268           0.190  
> 2019 05 08 04 25 49.0688020  0  1                     
I05  20625663.141       10226.138         231.389           0.190  
> 2019 05 08 04 25 49.1688020  0  1                     
I05  20625661.289       10249.835         239.191           0.189  
> 2019 05 08 04 25 49.2688020  0  1                     
I05  20625660.356       10273.543         237.765           0.192  
> 2019 05 08 04 25 49.3688020  0  1                     
I05  20625658.982       10297.196         239.451           0.191  
> 2019 05 08 04 25 49.4688020  0  1                     
I05  20625656.248       10320.811         240.126           0.191  
> 2019 05 08 04 25 49.5688020  0  1                     
I05  20625655.471       10344.415         236.797           0.193  
> 2019 05 08 04 25 49.6688020  0  1                     
I05  20625649.183       10368.083         242.634           0.192  
> 2019 05 08 04 25 49.7688020  0  1                     
I05  20625644.694       10391.575         228.076           0.189  
> 2019 05 08 04 25 49.8688020  0  1                     
I05  20625642.922       10415.311         245.829           0.190  
> 2019 05 08 04 25 49.9688020  0  1                     
I05  20625641.727       10439.037         233.226           0.189  
> 2019 05 08 04 25 50.0688020  0  1                     
I05  20625638.638       10462.835         239.199           0.187  
> 2019 05 08 04 25 50.1688020  0  1                     
I05  20625633.641       10486.498         236.654           0.192  
> 2019 05 08 04 25 50.2688020  0  1                     
I05  20625631.310       10510.144         235.556           0.189  
> 2019 05 08 04 25 50.3688020  0  1                     
I05  20625629.347       10534.014         241.569           0.187  
> 2019 05 08 04 25 50.4688020  0  1                     
I05  20625627.372       10557.539         231.279           0.189  
> 2019 05 08 04 25 50.5688020  0  1                     
I05  20625627.216       10581.201         241.391           0.190  
> 2019 05 08 04 25 50.6688020  0  1                     
I05  20625624.906       10604.790         235.641           0.191  
> 2019 05 08 04 25 50.7688020  0  1                     
I05  20625620.084       10628.535         244.720           0.187  
> 2019 05 08 04 25 50.8688020  0  1                     
I05  20625618.076       10652.447         241.103           0.191  
> 2019 05 08 04 25 50.9688020  0  1                     
I05  20625614.755       10676.317         241.329           0.188  
> 2019 05 08 04 25 51.0688020  0  1                     
I05  20625610.262       10700.283         240.585           0.192  
> 2019 05 08 04 25 51.1688020  0  1                     
I05  20625606.974       10724.136         236.753           0.188  
> 2019 05 08 04 25 51.2688020  0  1                     
I05  20625604.269       10748.073         243.924           0.187  
> 2019 05 08 04 25 51.3688020  0  1                     
I05  20625599.684       10771.987         232.660           0.188  
> 2019 05 08 04 25 51.4688020  0  1                     
I05  20625596.739       10795.953         245.656           0.190  
> 2019 05 08 04 25 51.5688020  0  1                     
I05  20625595.407       10819.910         240.436           0.191  
> 2019 05 08 04 25 51.6688020  0  1                     
I05  20625590.737       10843.869         244.274           0.190  
> 2019 05 08 04 25 51.7688020  0  1                     
I05  20625587.216       10867.995         239.110           0.190  
> 2019 05 08 04 25 51.8688020  0  1                     
I05  20625588.036       10892.272         247.906           0.191  
> 2019 05 08 04 25 51.9688020  0  1                     
I05  20625582.980       10916.598         243.312           0.188  
> 2019 05 08 04 25 52.0688020  0  1                     
I05  20625580.793       10940.737         232.432           0.188  
> 2019 05 08 04 25 52.1688020  0  1                     
I05  20625579.266       10965.064         247.926           0.190  
> 2019 05 08 04 25 52.2688020  0  1                     
I05  20625572.741       10989.195         238.008           0.189  
> 2019 05 08 04 25 52.3688020  0  1                     
I05  20625569.134       11013.434         245.305           0.191  
> 2019 05 08 04 25 52.4688020  0  1                     
I05  20625567.932       11037.624         238.869           0.190  
> 2019 05 08 04 25 52.5688020  0  1                     
I05  20625565.588       11061.861         244.407           0.188  
> 2019 05 08 04 25 52.6688020  0  1                     
I05  20625564.137       11086.044         241.012           0.192  
> 2019 05 08 04 25 52.7688020  0  1                     
I05  20625559.759       11110.166         240.885           0.189  
> 2019 05 08 04 25 52.8688020  0  1                     
I05  20625557.408       11134.601         247.058           0.186  
> 2019 05 08 04 25 52.9688020  0  1                     
I05  20625552.900       11158.705         233.470           0.188  
> 2019 05 08 04 25 53.0688020  0  1                     
I05  20625552.030       11182.855         243.491           0.190  
> 2019 05 08 04 25 53.1688020  0  1                     
I05  20625549.818       11206.872         241.471           0.192  
> 2019 05 08 04 25 53.2688020  0  1                     
I05  20625547.338       11231.175         252.284           0.188  
> 2019 05 08 04 25 53.3688020  0  1                     
I05  20625542.901       11255.618         242.087           0.192  
> 2019 05 08 04 25 53.4688020  0  1                     
I05  20625540.072       11280.033         248.914           0.189  
> 2019 05 08 04 25 53.5688020  0  1                     
I05  20625537.846       11304.448         243.402           0.191  
> 2019 05 08 04 25 53.6688020  0  1                     
I05  20625529.753       11328.847         248.684           0.191  
> 2019 05 08 04 25 53.7688020  0  1                     
I05  20625528.581       11353.303         250.268           0.187  
> 2019 05 08 04 25 53.8688020  0  1                     
I05  20625526.871       11377.686         246.201           0.192  
> 2019 05 08 04 25 53.9688020  0  1                     
I05  20625526.144       11402.060         242.734           0.188  
> 2019 05 08 04 25 54.0688020  0  1                     
I05  20625524.450       11426.109         236.947           0.190  
> 2019 05 08 04 25 54.1688020  0  1                     
I05  20625519.957       11449.996         238.719           0.191  
> 2019 05 08 04 25 54.2688020  0  1                     
I05  20625516.787       11473.801         233.395           0.191  
> 2019 05 08 04 25 54.3688020  0  1                     
I05  20625512.750       11497.725         238.903           0.190  
> 2019 05 08 04 25 54.4688020  0  1                     
I05  20625510.576       11521.464         227.099           0.189  
> 2019 05 08 04 25 54.5688020  0  1                     
I05  20625506.611       11545.392         234.657           0.188  
> 2019 05 08 04 25 54.6688020  0  1                     
I05  20625504.812       11569.570         246.230           0.190  
> 2019 05 08 04 25 54.7688020  0  1                     
I05  20625504.362       11593.652         237.355           0.191  
> 2019 05 08 04 25 54.8688020  0  1                     
I05  20625499.952       11617.809         250.898           0.191  
> 2019 05 08 04 25 54.9688020  0  1                     
I05  20625498.204       11641.945         236.427           0.187  
> 2019 05 08 04 25 55.0688020  0  1                     
I05  20625494.975       11666.099         240.781           0.189  
> 2019 05 08 04 25 55.1688020  0  1                     
I05  20625492.874       11690.300         242.632           0.189  
> 2019 05 08 04 25 55.2688020  0  1                     
I05  20625490.332       11714.289         235.495           0.188  
> 2019 05 08 04 25 55.3688020  0  1                     
I05  20625487.246       11738.572         248.526           0.187  
> 2019 05 08 04 25 55.4688020  0  1                     
I05  20625487.615       11762.607         241.753           0.190  
> 2019 05 08 04 25 55.5688020  0  1                     
I05  20625480.919       11786.781         251.079           0.188  
> 2019 05 08 04 25 55.6688020  0  1                     
I05  20625474.884       11810.936         243.282           0.191  
> 2019 05 08 04 25 55.7688020  0  1                     
I05  20625472.413       11835.029         251.701           0.189  
> 2019 05 08 04 25 55.8688020  0  1                     
I05  20625471.834       11859.307         244.766           0.187  
> 2019 05 08 04 25 55.9688020  0  1                     
I05  20625467.808       11883.471         245.599           0.190  
> 2019 05 08 04 25 56.0688020  0  1                     
I05  20625466.572       11907.566         242.793           0.187  
> 2019 05 08 04 25 56.1688020  0  1                     
I05  20625463.260       11931.582         236.152           0.188  
> 2019 05 08 04 25 56.2688020  0  1                     
I05  20625457.281       11955.794         245.647           0.187  
> 2019 05 08 04 25 56.3688020  0  1                     
I05  20625455.604       11980.067         248.975           0.190  
> 2019 05 08 04 25 56.4688020  0  1                     
I05  20625451.258       12004.196         252.184           0.188  
> 2019 05 08 04 25 56.5688020  0  1                     
I05  20625449.241       12028.304         239.192           0.193  
> 2019 05 08 04 25 56.6688020  0  1                     
I05  20625449.211       12052.485         250.810           0.190  
> 2019 05 08 04 25 56.7688020  0  1                     
I05  20625445.400       12076.632         237.272           0.190  
> 2019 05 08 04 25 56.8688020  0  1                     
I05  20625441.348       12100.814         243.787           0.191  
> 2019 05 08 04 25 56.9688020  0  1                     
I05  20625514.435       12124.976         241.598           0.188  
> 2019 05 08 04 25 57.0688020  0  1                     
I05  20625512.331       12148.933         234.280           0.190  
> 2019 05 08 04 25 57.1688020  0  1                     
I05  20625511.488       12173.026         248.892           0.189  
> 2019 05 08 04 25 57.2688020  0  1                     
I05  20625506.464       12196.942         238.243           0.191  
> 2019 05 08 04 25 57.3688020  0  1                     
I05  20625499.446       12221.015         248.528           0.187  
> 2019 05 08 04 25 57.4688020  0  1                     
I05  20625497.081       12244.863         231.780           0.189  
> 2019 05 08 04 25 57.5688020  0  1                     
I05  20625492.844       12268.789         238.530           0.189  
> 2019 05 08 04 25 57.6688020  0  1                     
I05  20625488.702       12292.726         235.838           0.188  
> 2019 05 08 04 25 57.7688020  0  1                     
I05  20625412.653       12316.560         232.392           0.189  
> 2019 05 08 04 25 57.8688020  0  1                     
I05  20625411.289       12340.640         249.017           0.189  
> 2019 05 08 04 25 57.9688020  0  1                     
I05  20625411.737       12364.429         231.359           0.189  
> 2019 05 08 04 25 58.0688020  0  1                     
I05  20625408.601       12388.388         239.285           0.190  
> 2019 05 08 04 25 58.1688020  0  1                     
I05  20625404.978       12412.193         228.667           0.187  
> 2019 05 08 04 25 58.2688020  0  1                     
I05  20625402.474       12436.027         244.571           0.188  
> 2019 05 08 04 25 58.3688020  0  1                     
I05  20625397.679       12459.866         237.065           0.189  
> 2019 05 08 04 25 58.4688020  0  1                     
I05  20625396.870       12483.521         235.859           0.190  
> 2019 05 08 04 25 58.5688020  0  1                     
I05  20625395.155       12507.153         233.631           0.190  
> 2019 05 08 04 25 58.6688020  0  1                     
I05  20625387.498       12530.783         223.783           0.187  
> 2019 05 08 04 25 58.7688020  0  1                     
I05  20625384.413       12554.290         232.500           0.191  
> 2019 05 08 04 25 58.8688020  0  1                     
I05  20625378.138       12577.929         241.003           0.190  
> 2019 05 08 04 25 58.9688020  0  1                     
I05  20625380.062       12601.305         226.524           0.191  
> 2019 05 08 04 25 59.0688020  0  1                     
I05  20625378.030       12624.803         229.751           0.189  
> 2019 05 08 04 25 59.1688020  0  1                     
I05  20625375.605       12648.400         232.092           0.191  
> 2019 05 08 04 25 59.2688020  0  1                     
I05  20625371.444       12671.878         238.257           0.189  
> 2019 05 08 04 25 59.3688020  0  1                     
I05  20625364.630       12695.506         232.833           0.189  
> 2019 05 08 04 25 59.4688020  0  1                     
I05  20625363.351       12719.189         246.510           0.189  
> 2019 05 08 04 25 59.5688020  0  1                     
I05  20625359.504       12742.801         235.339           0.189  
> 2019 05 08 04 25 59.6688020  0  1                     
I05  20625355.138       12766.430         239.082           0.190  
> 2019 05 08 04 25 59.7688020  0  1                     
I05  20625355.878       12790.080         239.232           0.189  
> 2019 05 08 04 25 59.8688020  0  1                     
I05  20625350.675       12813.640         238.622           0.190  
> 2019 05 08 04 25 59.9688020  0  1                     
I05  20625346.499       12837.271         236.780           0.190  
> 2019 05 08 04 26 00.0688020  0  1                     
I05  20625344.663       12860.716         228.656           0.189  
> 2019 05 08 04 26 00.1688020  0  1                     
I05  20625343.949       12884.323         244.399           0.188  
> 2019 05 08 04 26 00.2688020  0  1                     
I05  20625341.063       12907.774         236.745           0.189  
> 2019 05 08 04 26 00.3688020  0  1                     
I05  20625339.585       12931.385         236.732           0.189  
> 2019 05 08 04 26 00.4688020  0  1                     
I05  20625337.751       12954.738         236.110           0.190  
> 2019 05 08 04 26 00.5688020  0  1                     
I05  20625335.076       12978.306         245.776           0.190  
> 2019 05 08 04 26 00.6688020  0  1                     
I05  20625330.833       13001.902         240.164           0.190  
> 2019 05 08 04 26 00.7688020  0  1                     
I05  20625326.950       13025.480         239.452           0.189  
> 2019 05 08 04 26 00.8688020  0  1                     
I05  20625326.469       13049.245         240.675           0.187  
> 2019 05 08 04 26 00.9688020  0  1                     
I05  20625324.769       13072.778         236.261           0.191  
> 2019 05 08 04 26 01.0688020  0  1                     
I05  20625321.812       13096.431         237.301           0.190  
> 2019 05 08 04 26 01.1688020  0  1                     
I05  20625315.595       13119.958         234.270           0.190  
> 2019 05 08 04 26 01.2688020  0  1                     
I05  20625311.747       13143.598         240.964           0.189  
> 2019 05 08 04 26 01.3688020  0  1                     
I05  20625308.865       13167.553         239.319           0.185  
> 2019 05 08 04 26 01.4688020  0  1                     
I05  20625305.539       13191.156         239.896           0.189  
> 2019 05 08 04 26 01.5688020  0  1                     
I05  20625305.871       13214.695         231.920           0.192  
> 2019 05 08 04 26 01.6688020  0  1                     
I05  20625302.496       13238.300         243.032           0.189  
> 2019 05 08 04 26 01.7688020  0  1                     
I05  20625299.298       13261.960         234.056           0.190  
> 2019 05 08 04 26 01.8688020  0  1                     
I05  20625299.932       13285.596         248.275           0.187  
> 2019 05 08 04 26 01.9688020  0  1                     
I05  20625296.960       13309.170         241.375           0.189  
> 2019 05 08 04 26 02.0688020  0  1                     
I05  20625292.539       13332.624         238.244           0.191  
> 2019 05 08 04 26 02.1688020  0  1                     
I05  20625290.151       13356.213         242.627           0.188  
> 2019 05 08 04 26 02.2688020  0  1                     
I05  20625285.530       13379.511         229.283           0.192  
> 2019 05 08 04 26 02.3688020  0  1                     
I05  20625281.892       13403.118         243.693           0.189  
> 2019 05 08 04 26 02.4688020  0  1                     
I05  20625279.361       13426.482         228.042           0.191  
> 2019 05 08 04 26 02.5688020  0  1                     
I05  20625275.176       13450.057         241.246           0.191  
> 2019 05 08 04 26 02.6688020  0  1                     
I05  20625274.213       13473.569         234.910           0.191  
> 2019 05 08 04 26 02.7688020  0  1                     
I05  20625272.154       13497.054         237.508           0.191  
> 2019 05 08 04 26 02.8688020  0  1                     
I05  20625266.689       13520.713         242.673           0.190  
> 2019 05 08 04 26 02.9688020  0  1                     
I05  20625264.818       13544.096         227.008           0.187  
> 2019 05 08 04 26 03.0688020  0  1                     
I05  20625264.156       13567.693         235.096           0.191  
> 2019 05 08 04 26 03.1688020  0  1                     
I05  20625261.784       13591.092         228.746           0.190  
> 2019 05 08 04 26 03.2688020  0  1                     
I05  20625256.973       13614.643         237.006           0.186  
> 2019 05 08 04 26 03.3688020  0  1                     
I05  20625255.782       13638.386         233.178           0.190  
> 2019 05 08 04 26 03.4688020  0  1                     
I05  20625253.578       13662.025         243.184           0.191  
> 2019 05 08 04 26 03.5688020  0  1                     
I05  20625249.728       13685.670         232.687           0.190  
> 2019 05 08 04 26 03.6688020  0  1                     
I05  20625245.923       13709.150         233.520           0.191  
> 2019 05 08 04 26 03.7688020  0  1                     
I05  20625242.174       13732.673         231.715           0.190  
> 2019 05 08 04 26 03.8688020  0  1                     
I05  20625239.796       13756.117         231.874           0.190  
> 2019 05 08 04 26 03.9688020  0  1                     
I05  20625237.767       13779.669         242.164           0.190  
> 2019 05 08 04 26 04.0688020  0  1                     
I05  20625233.105       13803.211         231.491           0.190  
> 2019 05 08 04 26 04.1688020  0  1                     
I05  20625228.659       13826.917         242.992           0.190  
> 2019 05 08 04 26 04.2688020  0  1                     
I05  20625226.560       13850.622         235.189           0.192  
> 2019 05 08 04 26 04.3688020  0  1                     
I05  20625228.301       13874.452         246.626           0.190  
> 2019 05 08 04 26 04.4688020  0  1                     
I05  20625226.428       13898.081         235.392           0.192  
> 2019 05 08 04 26 04.5688020  0  1                     
I05  20625224.114       13921.687         234.785           0.191  
> 2019 05 08 04 26 04.6688020  0  1                     
I05  20625217.462       13945.331         241.923           0.190  
> 2019 05 08 04 26 04.7688020  0  1                     
I05  20625215.538       13968.833         232.878           0.191  
> 2019 05 08 04 26 04.8688020  0  1                     
I05  20625213.808       13992.494         242.222           0.187  
> 2019 05 08 04 26 04.9688020  0  1                     
I05  20625207.915       14015.958         230.401           0.188  
> 2019 05 08 04 26 05.0688020  0  1                     
I05  20625205.386       14039.732         237.134           0.190  
> 2019 05 08 04 26 05.1688020  0  1                     
I05  20625205.857       14063.469         230.494           0.189  
> 2019 05 08 04 26 05.2688020  0  1                     
I05  20625200.743       14087.298         245.474           0.187  
> 2019 05 08 04 26 05.3688020  0  1                     
I05  20625195.376       14111.191         237.230           0.189  
> 2019 05 08 04 26 05.4688020  0  1                     
I05  20625181.399       14134.869         238.670           0.191  
> 2019 05 08 04 26 05.5688020  0  1                     
I05  20625184.092       14158.497         239.669           0.192  
> 2019 05 08 04 26 05.6688020  0  1                     
I05  20625184.625       14181.977         235.524           0.191  
> 2019 05 08 04 26 05.7688020  0  1                     
I05  20625185.798       14205.665         231.469           0.190  
> 2019 05 08 04 26 05.8688020  0  1                     
I05  20625183.952       14229.177         231.426           0.191  
> 2019 05 08 04 26 05.9688020  0  1                     
I05  20625183.934       14252.690         234.648           0.191  
> 2019 05 08 04 26 06.0688020  0  1                     
I05  20625180.172       14276.239         226.071           0.190  
> 2019 05 08 04 26 06.1688020  0  1                     
I05  20625176.231       14299.814         230.863           0.192  
> 2019 05 08 04 26 06.2688020  0  1                     
I05  20625174.736       14323.427         229.445           0.187  
> 2019 05 08 04 26 06.3688020  0  1                     
I05  20625175.596       14347.116         234.241           0.192  
> 2019 05 08 04 26 06.4688020  0  1                     
I05  20625172.180       14370.884         246.000           0.190  
> 2019 05 08 04 26 06.5688020  0  1                     
I05  20625169.240       14394.593         235.695           0.192  
> 2019 05 08 04 26 06.6688020  0  1                     
I05  20625165.353       14418.371         242.509           0.189  
> 2019 05 08 04 26 06.7688020  0  1                     
I05  20625161.232       14442.114         234.910           0.189  
> 2019 05 08 04 26 06.8688020  0  1                     
I05  20625154.303       14465.832         237.380           0.192  
> 2019 05 08 04 26 06.9688020  0  1                     
I05  20625152.305       14489.562         237.806           0.190  
> 2019 05 08 04 26 07.0688020  0  1                     
I05  20625148.383       14513.159         233.139           0.189  
> 2019 05 08 04 26 07.1688020  0  1                     
I05  20625144.408       14536.870         238.777           0.191  
> 2019 05 08 04 26 07.2688020  0  1                     
I05  20625145.499       14560.487         234.991           0.190  
> 2019 05 08 04 26 07.3688020  0  1                     
I05  20625141.285       14584.279         248.790           0.189  
> 2019 05 08 04 26 07.4688020  0  1                     
I05  20625137.497       14607.911         237.901           0.190  
> 2019 05 08 04 26 07.5688020  0  1                     
I05  20625135.161       14631.543         239.462           0.191  
> 2019 05 08 04 26 07.6688020  0  1                     
I05  20625132.441       14655.246         236.957           0.192  
> 2019 05 08 04 26 07.7688020  0  1                     
I05  20625129.255       14678.871         237.703           0.189  
> 2019 05 08 04 26 07.8688020  0  1                     
I05  20625127.788       14702.530         240.282           0.188  
> 2019 05 08 04 26 07.9688020  0  1                     
I05  20625125.059       14725.979         234.373           0.190  
> 2019 05 08 04 26 08.0688020  0  1                     
I05  20625121.091       14749.690         240.412           0.191  
> 2019 05 08 04 26 08.1688020  0  1                     
I05  20625110.491       14773.221         233.651           0.192  
> 2019 05 08 04 26 08.2688020  0  1                     
I05  20625113.193       14796.882         239.241           0.191  
> 2019 05 08 04 26 08.3688020  0  1                     
I05  20625115.384       14820.725         233.279           0.189  
> 2019 05 08 04 26 08.4688020  0  1                     
I05  20625113.491       14844.402         236.218           0.190  
> 2019 05 08 04 26 08.5688020  0  1                     
I05  20625111.211       14868.134         236.141           0.191  
> 2019 05 08 04 26 08.6688020  0  1                     
I05  20625109.263       14891.706         235.993           0.190  
> 2019 05 08 04 26 08.7688020  0  1                     
I05  20625105.857       14915.314         239.042           0.188  
> 2019 05 08 04 26 08.8688020  0  1                     
I05  20625100.382       14938.795         233.194           0.188  
> 2019 05 08 04 26 08.9688020  0  1                     
I05  20625096.374       14962.386         241.300           0.190  
> 2019 05 08 04 26 09.0688020  0  1                     
I05  20625093.197       14986.072         232.253           0.190  
> 2019 05 08 04 26 09.1688020  0  1                     
I05  20625092.061       15009.820         246.485           0.190  
> 2019 05 08 04 26 09.2688020  0  1                     
I05  20625089.953       15033.502         239.486           0.190  
> 2019 05 08 04 26 09.3688020  0  1                     
I05  20625088.338       15057.147         243.650           0.190  
> 2019 05 08 04 26 09.4688020  0  1                     
I05  20625083.410       15080.756         243.196           0.188  
> 2019 05 08 04 26 09.5688020  0  1                     
I05  20625076.144       15104.160         234.776           0.190  
> 2019 05 08 04 26 09.6688020  0  1                     
I05  20625073.712       15127.706         234.485           0.190  
> 2019 05 08 04 26 09.7688020  0  1                     
I05  20625073.125       15151.223         236.102           0.191  
> 2019 05 08 04 26 09.8688020  0  1                     
I05  20625069.262       15174.851         243.019           0.190  
> 2019 05 08 04 26 09.9688020  0  1                     
I05  20625068.634       15198.458         235.610           0.189  
> 2019 05 08 04 26 10.0688020  0  1                     
I05  20625062.366       15222.135         241.312           0.189  
> 2019 05 08 04 26 10.1688020  0  1                     
I05  20625061.947       15245.919         232.645           0.190  
> 2019 05 08 04 26 10.2688020  0  1                     
I05  20625059.729       15269.578         237.637           0.190  
> 2019 05 08 04 26 10.3688020  0  1                     
I05  20625053.982       15293.406         244.573           0.186  
> 2019 05 08 04 26 10.4688020  0  1                     
I05  20625055.139       15317.012         236.433           0.190  
> 2019 05 08 04 26 10.5688020  0  1                     
I05  20625053.865       15340.596         236.919           0.189  
> 2019 05 08 04 26 10.6688020  0  1                     
I05  20625047.593       15364.259         237.868           0.191  
> 2019 05 08 04 26 10.7688020  0  1                     
I05  20625044.725       15387.793         235.743           0.191  
> 2019 05 08 04 26 10.8688020  0  1                     
I05  20625042.822       15411.386         235.008           0.191  
> 2019 05 08 04 26 10.9688020  0  1                     
I05  20625040.316       15434.962         244.706           0.187  
> 2019 05 08 04 26 11.0688020  0  1                     
I05  20625037.323       15458.507         241.952           0.190  
> 2019 05 08 04 26 11.1688020  0  1                     
I05  20625037.370       15482.031         226.922           0.189  
> 2019 05 08 04 26 11.2688020  0  1                     
I05  20625033.653       15505.806         243.391           0.188  
> 2019 05 08 04 26 11.3688020  0  1                     
I05  20625030.801       15529.645         240.818           0.189  
> 2019 05 08 04 26 11.4688020  0  1                     
I05  20625025.538       15553.388         247.531           0.188  
> 2019 05 08 04 26 11.5688020  0  1                     
I05  20625023.678       15577.061         241.091           0.190  
> 2019 05 08 04 26 11.6688020  0  1                     
I05  20625022.606       15600.704         240.679           0.192  
> 2019 05 08 04 26 11.7688020  0  1                     
I05  20625018.249       15624.415         240.648           0.186  
> 2019 05 08 04 26 11.8688020  0  1                     
I05  20625016.289       15647.932         235.363           0.189  
> 2019 05 08 04 26 11.9688020  0  1                     
I05  20625012.348       15671.618         246.843           0.186  
> 2019 05 08 04 26 12.0688020  0  1                     
I05  20625007.821       15695.338         238.277           0.189  
> 2019 05 08 04 26 12.1688020  0  1                     
I05  20625006.794       15718.931         237.358           0.190  
> 2019 05 08 04 26 12.2688020  0  1                     
I05  20625002.783       15742.500         236.913           0.192  
> 2019 05 08 04 26 12.3688020  0  1                     
I05  20625002.609       15766.209         238.966           0.189  
> 2019 05 08 04 26 12.4688020  0  1                     
I05  20624998.764       15789.817         239.852           0.189  
> 2019 05 08 04 26 12.5688020  0  1                     
I05  20624993.738       15813.324         247.113           0.188  
> 2019 05 08 04 26 12.6688020  0  1                     
I05  20624991.618       15836.852         230.683           0.191  
> 2019 05 08 04 26 12.7688020  0  1                     
I05  20624988.798       15860.578         244.656           0.187  
> 2019 05 08 04 26 12.8688020  0  1                     
I05  20624984.803       15884.390         237.123           0.188  
> 2019 05 08 04 26 12.9688020  0  1                     
I05  20624982.421       15908.081         233.473           0.189  
> 2019 05 08 04 26 13.0688020  0  1                     
I05  20624975.662       15931.792         233.059           0.193  
> 2019 05 08 04 26 13.1688020  0  1                     
I05  20624977.009       15955.283         228.089           0.189  
> 2019 05 08 04 26 13.2688020  0  1                     
I05  20624974.191       15978.945         237.828           0.189  
> 2019 05 08 04 26 13.3688020  0  1                     
I05  20624970.759       16002.716         237.096           0.190  
> 2019 05 08 04 26 13.4688020  0  1                     
I05  20624957.335       16026.392         244.056           0.190  
> 2019 05 08 04 26 13.5688020  0  1                     
I05  20624960.259       16050.241         235.343           0.191  
> 2019 05 08 04 26 13.6688020  0  1                     
I05  20624961.282       16073.868         237.568           0.190  
> 2019 05 08 04 26 13.7688020  0  1                     
I05  20624962.825       16097.523         239.144           0.190  
> 2019 05 08 04 26 13.8688020  0  1                     
I05  20624960.362       16121.108         238.692           0.191  
> 2019 05 08 04 26 13.9688020  0  1                     
I05  20624959.778       16144.760         243.513           0.188  
> 2019 05 08 04 26 14.0688020  0  1                     
I05  20624956.487       16168.318         244.997           0.185  
> 2019 05 08 04 26 14.1688020  0  1                     
I05  20624949.170       16191.973         238.558           0.188  
> 2019 05 08 04 26 14.2688020  0  1                     
I05  20624948.068       16215.487         231.736           0.188  
> 2019 05 08 04 26 14.3688020  0  1                     
I05  20624945.425       16239.296         237.911           0.190  
> 2019 05 08 04 26 14.4688020  0  1                     
I05  20624943.377       16262.710         228.176           0.189  
> 2019 05 08 04 26 14.5688020  0  1                     
I05  20624941.234       16286.341         243.432           0.189  
> 2019 05 08 04 26 14.6688020  0  1                     
I05  20624934.739       16309.771         236.317           0.191  
> 2019 05 08 04 26 14.7688020  0  1                     
I05  20624930.886       16333.310         245.456           0.185  
> 2019 05 08 04 26 14.8688020  0  1                     
I05  20624925.995       16356.917         233.527           0.189  
> 2019 05 08 04 26 14.9688020  0  1                     
I05  20624924.732       16380.344         235.812           0.190  
> 2019 05 08 04 26 15.0688020  0  1                     
I05  20624924.341       16404.005         231.765           0.190  
> 2019 05 08 04 26 15.1688020  0  1                     
I05  20624921.083       16427.481         234.616           0.192  
> 2019 05 08 04 26 15.2688020  0  1                     
I05  20624915.580       16450.954         239.270           0.188  
> 2019 05 08 04 26 15.3688020  0  1                     
I05  20624911.025       16474.495         233.583           0.191  
> 2019 05 08 04 26 15.4688020  0  1                     
I05  20624907.530       16498.038         240.248           0.188  
> 2019 05 08 04 26 15.5688020  0  1                     
I05  20624906.158       16521.498         236.510           0.188  
> 2019 05 08 04 26 15.6688020  0  1                     
I05  20624907.555       16545.077         247.155           0.187  
> 2019 05 08 04 26 15.7688020  0  1                     
I05  20624904.646       16568.581         238.203           0.189  
> 2019 05 08 04 26 15.8688020  0  1                     
I05  20624904.851       16592.040         235.536           0.192  
> 2019 05 08 04 26 15.9688020  0  1                     
I05  20624899.261       16615.531         232.572           0.190  
> 2019 05 08 04 26 16.0688020  0  1                     
I05  20624899.618       16639.040         227.913           0.188  
> 2019 05 08 04 26 16.1688020  0  1                     
I05  20624894.689       16662.570         239.666           0.188  
> 2019 05 08 04 26 16.2688020  0  1                     
I05  20624889.350       16685.988         227.017           0.191  
> 2019 05 08 04 26 16.3688020  0  1                     
I05  20624887.155       16709.685         242.106           0.189  
> 2019 05 08 04 26 16.4688020  0  1                     
I05  20624885.994       16733.237         231.344           0.190  
> 2019 05 08 04 26 16.5688020  0  1                     
I05  20624882.174       16757.005         250.802           0.188  
> 2019 05 08 04 26 16.6688020  0  1                     
I05  20624878.135       16780.433         230.954           0.191  
> 2019 05 08 04 26 16.7688020  0  1                     
I05  20624875.859       16803.954         239.747           0.189  
> 2019 05 08 04 26 16.8688020  0  1                     
I05  20624871.286       16827.630         236.823           0.190  
> 2019 05 08 04 26 16.9688020  0  1                     
I05  20624872.963       16851.115         233.538           0.192  
> 2019 05 08 04 26 17.0688020  0  1                     
I05  20624874.535       16874.774         237.389           0.188  
> 2019 05 08 04 26 17.1688020  0  1                     
I05  20624869.523       16898.113         227.358           0.188  
> 2019 05 08 04 26 17.2688020  0  1                     
I05  20624863.221       16921.708         244.008           0.186  
> 2019 05 08 04 26 17.3688020  0  1                     
I05  20624862.005       16945.281         237.227           0.189  
> 2019 05 08 04 26 17.4688020  0  1                     
I05  20624858.061       16968.906         247.611           0.189  
> 2019 05 08 04 26 17.5688020  0  1                     
I05  20624856.247       16992.443         231.508           0.189  
> 2019 05 08 04 26 17.6688020  0  1                     
I05  20624850.595       17015.983         236.892           0.190  
> 2019 05 08 04 26 17.7688020  0  1                     
I05  20624845.977       17039.594         238.076           0.188  
> 2019 05 08 04 26 17.8688020  0  1                     
I05  20624843.008       17062.999         234.450           0.189  
> 2019 05 08 04 26 17.9688020  0  1                     
I05  20624842.161       17086.470         240.256           0.190  
> 2019 05 08 04 26 18.0688020  0  1                     
I05  20624838.933       17109.984         231.098           0.190  
> 2019 05 08 04 26 18.1688020  0  1                     
I05  20624835.972       17133.646         241.528           0.189  
> 2019 05 08 04 26 18.2688020  0  1                     
I05  20624835.610       17157.361         237.836           0.190  
> 2019 05 08 04 26 18.3688020  0  1                     
I05  20624833.255       17181.104         240.102           0.191  
> 2019 05 08 04 26 18.4688020  0  1                     
I05  20624830.866       17204.779         239.748           0.190  
> 2019 05 08 04 26 18.5688020  0  1                     
I05  20624828.150       17228.314         231.969           0.188  
> 2019 05 08 04 26 18.6688020  0  1                     
I05  20624824.520       17252.045         237.363           0.190  
> 2019 05 08 04 26 18.7688020  0  1                     
I05  20624818.024       17275.593         228.956           0.189  
> 2019 05 08 04 26 18.8688020  0  1                     
I05  20624815.318       17299.246         249.107           0.187  
> 2019 05 08 04 26 18.9688020  0  1                     
I05  20624812.730       17322.809         237.025           0.188  
> 2019 05 08 04 26 19.0688020  0  1                     
I05  20624812.563       17346.391         236.652           0.188  
> 2019 05 08 04 26 19.1688020  0  1                     
I05  20624810.995       17370.096         239.149           0.190  
> 2019 05 08 04 26 19.2688020  0  1                     
I05  20624805.658       17393.544         230.790           0.190  
> 2019 05 08 04 26 19.3688020  0  1                     
I05  20624800.196       17417.277         240.602           0.191  
> 2019 05 08 04 26 19.4688020  0  1                     
I05  20624801.164       17440.770         231.280           0.189  
> 2019 05 08 04 26 19.5688020  0  1                     
I05  20624798.474       17464.441         239.801           0.189  
> 2019 05 08 04 26 19.6688020  0  1                     
I05  20624797.331       17487.963         233.092           0.190  
> 2019 05 08 04 26 19.7688020  0  1                     
I05  20624790.238       17511.649         246.244           0.187  
> 2019 05 08 04 26 19.8688020  0  1                     
I05  20624787.454       17535.384         242.046           0.193  
> 2019 05 08 04 26 19.9688020  0  1                     
I05  20624785.243       17558.953         238.951           0.188  
> 2019 05 08 04 26 20.0688020  0  1                     
I05  20624780.969       17582.615         231.804           0.190  
> 2019 05 08 04 26 20.1688020  0  1                     
I05  20624779.503       17606.155         232.847           0.191  
> 2019 05 08 04 26 20.2688020  0  1                     
I05  20624776.971       17629.784         243.004           0.186  
> 2019 05 08 04 26 20.3688020  0  1                     
I05  20624772.923       17653.379         235.755           0.190  
> 2019 05 08 04 26 20.4688020  0  1                     
I05  20624773.413       17677.014         242.696           0.191  
> 2019 05 08 04 26 20.5688020  0  1                     
I05  20624767.196       17700.599         230.663           0.189  
> 2019 05 08 04 26 20.6688020  0  1                     
I05  20624764.274       17724.311         247.159           0.189  
> 2019 05 08 04 26 20.7688020  0  1                     
I05  20624760.028       17747.904         236.395           0.191  
> 2019 05 08 04 26 20.8688020  0  1                     
I05  20624759.726       17771.374         235.191           0.190  
> 2019 05 08 04 26 20.9688020  0  1                     
I05  20624754.458       17795.006         237.511           0.191  
> 2019 05 08 04 26 21.0688020  0  1                     
I05  20624754.166       17818.471         226.879           0.188  
> 2019 05 08 04 26 21.1688020  0  1                     
I05  20624750.816       17842.091         236.430           0.191  
> 2019 05 08 04 26 21.2688020  0  1                     
I05  20624750.824       17865.558         228.506           0.191  
> 2019 05 08 04 26 21.3688020  0  1                     
I05  20624749.918       17889.258         246.528           0.189  
> 2019 05 08 04 26 21.4688020  0  1                     
I05  20624743.720       17912.830         239.284           0.191  
> 2019 05 08 04 26 21.5688020  0  1                     
I05  20624743.339       17936.434         240.067           0.192  
> 2019 05 08 04 26 21.6688020  0  1                     
I05  20624737.379       17960.002         236.016           0.188  
> 2019 05 08 04 26 21.7688020  0  1                     
I05  20624735.581       17983.423         231.347           0.189  
> 2019 05 08 04 26 21.8688020  0  1                     
I05  20624733.723       18007.121         240.757           0.188  
> 2019 05 08 04 26 21.9688020  0  1                     
I05  20624729.954       18030.488         230.350           0.192  
> 2019 05 08 04 26 22.0688020  0  1                     
I05  20624728.670       18054.110         241.216           0.192  
> 2019 05 08 04 26 22.1688020  0  1                     
I05  20624726.626       18077.563         229.809           0.190  
> 2019 05 08 04 26 22.2688020  0  1                     
I05  20624723.068       18101.213         242.360           0.188  
> 2019 05 08 04 26 22.3688020  0  1                     
I05  20624720.796       18124.919         234.748           0.190  
> 2019 05 08 04 26 22.4688020  0  1                     
I05  20624715.543       18148.621         250.198           0.189  
> 2019 05 08 04 26 22.5688020  0  1                     
I05  20624709.201       18172.103         230.797           0.190  
> 2019 05 08 04 26 22.6688020  0  1                     
I05  20624706.657       18195.598         234.368           0.191  
> 2019 05 08 04 26 22.7688020  0  1                     
I05  20624703.508       18219.156         237.752           0.191  
> 2019 05 08 04 26 22.8688020  0  1                     
I05  20624703.667       18242.539         239.092           0.193  
> 2019 05 08 04 26 22.9688020  0  1                     
I05  20624698.629       18266.092         230.949           0.192  
> 2019 05 08 04 26 23.0688020  0  1                     
I05  20624695.443       18289.697         231.657           0.191  
> 2019 05 08 04 26 23.1688020  0  1                     
I05  20624695.024       18313.337         234.086           0.190  
> 2019 05 08 04 26 23.2688020  0  1                     
I05  20624690.632       18336.952         237.212           0.189  
> 2019 05 08 04 26 23.3688020  0  1                     
I05  20624683.901       18360.591         237.670           0.190  
> 2019 05 08 04 26 23.4688020  0  1                     
I05  20624684.445       18384.245         235.932           0.190  
> 2019 05 08 04 26 23.5688020  0  1                     
I05  20624683.318       18407.632         232.137           0.190  
> 2019 05 08 04 26 23.6688020  0  1                     
I05  20624679.268       18431.163         240.246           0.190  
> 2019 05 08 04 26 23.7688020  0  1                     
I05  20624675.907       18454.771         232.950           0.191  
> 2019 05 08 04 26 23.8688020  0  1                     
I05  20624668.163       18478.287         244.610           0.188  
> 2019 05 08 04 26 23.9688020  0  1                     
I05  20624669.464       18501.785         230.435           0.187  
> 2019 05 08 04 26 24.0688020  0  1                     
I05  20624667.648       18525.300         230.938           0.187  
> 2019 05 08 04 26 24.1688020  0  1                     
I05  20624665.134       18548.860         236.920           0.189  
> 2019 05 08 04 26 24.2688020  0  1                     
I05  20624662.785       18572.265         229.008           0.191  
> 2019 05 08 04 26 24.3688020  0  1                     
I05  20624659.586       18595.983         242.493           0.188  
> 2019 05 08 04 26 24.4688020  0  1                     
I05  20624655.942       18619.623         237.592           0.187  
> 2019 05 08 04 26 24.5688020  0  1                     
I05  20624654.468       18643.237         236.651           0.190  
> 2019 05 08 04 26 24.6688020  0  1                     
I05  20624651.169       18666.898         236.618           0.190  
> 2019 05 08 04 26 24.7688020  0  1                     
I05  20624645.488       18690.519         238.167           0.191  
> 2019 05 08 04 26 24.8688020  0  1                     
I05  20624645.378       18714.150         239.566           0.188  
> 2019 05 08 04 26 24.9688020  0  1                     
I05  20624641.298       18737.705         246.260           0.187  
> 2019 05 08 04 26 25.0688020  0  1                     
I05  20624638.377       18761.222         235.335           0.188  
> 2019 05 08 04 26 25.1688020  0  1                     
I05  20624637.241       18784.781         242.889           0.187  
> 2019 05 08 04 26 25.2688020  0  1                     
I05  20624634.249       18808.376         230.639           0.189  
> 2019 05 08 04 26 25.3688020  0  1                     
I05  20624631.194       18832.020         245.169           0.187  
> 2019 05 08 04 26 25.4688020  0  1                     
I05  20624627.820       18855.554         237.806           0.191  
> 2019 05 08 04 26 25.5688020  0  1                     
I05  20624624.132       18879.028         237.476           0.189  
> 2019 05 08 04 26 25.6688020  0  1                     
I05  20624623.255       18902.622         235.687           0.189  
> 2019 05 08 04 26 25.7688020  0  1                     
I05  20624620.015       18926.063         230.563           0.189  
> 2019 05 08 04 26 25.8688020  0  1                     
I05  20624617.403       18949.647         244.478           0.188  
> 2019 05 08 04 26 25.9688020  0  1                     
I05  20624614.259       18973.158         236.916           0.187  
> 2019 05 08 04 26 26.0688020  0  1                     
I05  20624609.206       18996.777         237.352           0.189  
> 2019 05 08 04 26 26.1688020  0  1                     
I05  20624606.465       19020.430         237.583           0.189  
> 2019 05 08 04 26 26.2688020  0  1                     
I05  20624601.522       19044.017         235.177           0.189  
> 2019 05 08 04 26 26.3688020  0  1                     
I05  20624600.610       19067.711         234.382           0.190  
> 2019 05 08 04 26 26.4688020  0  1                     
I05  20624598.905       19091.401         245.031           0.187  
> 2019 05 08 04 26 26.5688020  0  1                     
I05  20624596.672       19114.850         232.403           0.189  
> 2019 05 08 04 26 26.6688020  0  1                     
I05  20624592.782       19138.359         238.564           0.190  
> 2019 05 08 04 26 26.7688020  0  1                     
I05  20624593.123       19161.942         238.568           0.189  
> 2019 05 08 04 26 26.8688020  0  1                     
I05  20624588.707       19185.351         237.539           0.190  
> 2019 05 08 04 26 26.9688020  0  1                     
I05  20624585.391       19208.768         235.762           0.189  
> 2019 05 08 04 26 27.0688020  0  1                     
I05  20624583.030       19232.196         229.072           0.189  
> 2019 05 08 04 26 27.1688020  0  1                     
I05  20624580.792       19255.756         240.047           0.189  
> 2019 05 08 04 26 27.2688020  0  1                     
I05  20624580.363       19279.249         237.565           0.192  
> 2019 05 08 04 26 27.3688020  0  1                     
I05  20624581.226       19302.754         247.391           0.186  
> 2019 05 08 04 26 27.4688020  0  1                     
I05  20624574.806       19326.294         234.100           0.191  
> 2019 05 08 04 26 27.5688020  0  1                     
I05  20624571.723       19349.856         241.642           0.188  
> 2019 05 08 04 26 27.6688020  0  1                     
I05  20624568.536       19373.394         233.543           0.189  
> 2019 05 08 04 26 27.7688020  0  1                     
I05  20624566.718       19396.901         236.505           0.188  
> 2019 05 08 04 26 27.8688020  0  1                     
I05  20624562.135       19420.453         241.395           0.185  
> 2019 05 08 04 26 27.9688020  0  1                     
I05  20624559.820       19443.721         227.042           0.188  
> 2019 05 08 04 26 28.0688020  0  1                     
I05  20624553.173       19467.311         235.148           0.188  
> 2019 05 08 04 26 28.1688020  0  1                     
I05  20624552.459       19490.803         229.183           0.187  
> 2019 05 08 04 26 28.2688020  0  1                     
I05  20624545.539       19514.551         245.878           0.184  
> 2019 05 08 04 26 28.3688020  0  1                     
I05  20624545.027       19538.082         231.008           0.187  
> 2019 05 08 04 26 28.4688020  0  1                     
I05  20624541.516       19561.685         239.100           0.190  
> 2019 05 08 04 26 28.5688020  0  1                     
I05  20624535.823       19585.224         231.284           0.186  
> 2019 05 08 04 26 28.6688020  0  1                     
I05  20624533.192       19608.778         239.387           0.187  
> 2019 05 08 04 26 28.7688020  0  1                     
I05  20624533.214       19632.361         234.667           0.186  
> 2019 05 08 04 26 28.8688020  0  1                     
I05  20624530.069       19655.745         233.456           0.190  
> 2019 05 08 04 26 28.9688020  0  1                     
I05  20624528.397       19679.231         235.714           0.188  
> 2019 05 08 04 26 29.0688020  0  1                     
I05  20624526.980       19702.682         228.737           0.185  
> 2019 05 08 04 26 29.1688020  0  1                     
I05  20624521.407       19726.334         242.438           0.190  
> 2019 05 08 04 26 29.2688020  0  1                     
I05  20624509.426       19749.900         235.436           0.188  
> 2019 05 08 04 26 29.3688020  0  1                     
I05  20624510.142       19773.484         246.200           0.188  
> 2019 05 08 04 26 29.4688020  0  1                     
I05  20624513.288       19797.093         230.808           0.189  
> 2019 05 08 04 26 29.5688020  0  1                     
I05  20624510.448       19820.661         236.315           0.188  
> 2019 05 08 04 26 29.6688020  0  1                     
I05  20624505.757       19844.317         238.721           0.190  
> 2019 05 08 04 26 29.7688020  0  1                     
I05  20624501.560       19867.717         230.890           0.190  
> 2019 05 08 04 26 29.8688020  0  1                     
I05  20624500.218       19891.374         243.869           0.187  
> 2019 05 08 04 26 29.9688020  0  1                     
I05  20624498.862       19914.723         230.423           0.188  
> 2019 05 08 04 26 30.0688020  0  1                     
I05  20624497.200       19938.351         236.431           0.188  
> 2019 05 08 04 26 30.1688020  0  1                     
I05  20624494.034       19961.985         232.253           0.188  
> 2019 05 08 04 26 30.2688020  0  1                     
I05  20624493.635       19985.629         243.532           0.188  
> 2019 05 08 04 26 30.3688020  0  1                     
I05  20624489.916       20009.394         241.182           0.189  
> 2019 05 08 04 26 30.4688020  0  1                     
I05  20624484.415       20032.908         234.068           0.187  
> 2019 05 08 04 26 30.5688020  0  1                     
I05  20624480.991       20056.609         242.409           0.188  
> 2019 05 08 04 26 30.6688020  0  1                     
I05  20624480.836       20080.294         235.576           0.189  
> 2019 05 08 04 26 30.7688020  0  1                     
I05  20624478.156       20103.967         235.960           0.190  
> 2019 05 08 04 26 30.8688020  0  1                     
I05  20624474.763       20127.677         237.670           0.191  
> 2019 05 08 04 26 30.9688020  0  1                     
I05  20624471.734       20151.253         233.055           0.190  
> 2019 05 08 04 26 31.0688020  0  1                     
I05  20624471.084       20174.994         238.690           0.191  
> 2019 05 08 04 26 31.1688020  0  1                     
I05  20624468.864       20198.760         238.639           0.190  
> 2019 05 08 04 26 31.2688020  0  1                     
I05  20624464.470       20222.316         233.329           0.190  
> 2019 05 08 04 26 31.3688020  0  1                     
I05  20624461.230       20246.093         246.182           0.187  
> 2019 05 08 04 26 31.4688020  0  1                     
I05  20624460.089       20269.633         232.427           0.190  
> 2019 05 08 04 26 31.5688020  0  1                     
I05  20624455.130       20293.275         240.626           0.191  
> 2019 05 08 04 26 31.6688020  0  1                     
I05  20624451.641       20316.935         235.667           0.188  
> 2019 05 08 04 26 31.7688020  0  1                     
I05  20624448.168       20340.505         238.907           0.189  
> 2019 05 08 04 26 31.8688020  0  1                     
I05  20624446.031       20364.246         240.225           0.189  
> 2019 05 08 04 26 31.9688020  0  1                     
I05  20624442.661       20387.723         236.246           0.189  
> 2019 05 08 04 26 32.0688020  0  1                     
I05  20624440.314       20411.324         237.389           0.189  
> 2019 05 08 04 26 32.1688020  0  1                     
I05  20624437.946       20434.754         227.341           0.191  
> 2019 05 08 04 26 32.2688020  0  1                     
I05  20624438.055       20458.439         241.888           0.188  
> 2019 05 08 04 26 32.3688020  0  1                     
I05  20624434.076       20482.076         237.287           0.191  
> 2019 05 08 04 26 32.4688020  0  1                     
I05  20624431.539       20505.720         242.850           0.190  
> 2019 05 08 04 26 32.5688020  0  1                     
I05  20624427.093       20529.330         234.907           0.191  
> 2019 05 08 04 26 32.6688020  0  1                     
I05  20624423.561       20552.963         242.291           0.190  
> 2019 05 08 04 26 32.7688020  0  1                     
I05  20624422.823       20576.595         234.994           0.191  
> 2019 05 08 04 26 32.8688020  0  1                     
I05  20624422.987       20600.033         228.619           0.191  
> 2019 05 08 04 26 32.9688020  0  1                     
I05  20624416.764       20623.597         236.779           0.189  
> 2019 05 08 04 26 33.0688020  0  1                     
I05  20624413.127       20647.151         231.270           0.190  
> 2019 05 08 04 26 33.1688020  0  1                     
I05  20624410.943       20670.798         241.687           0.189  
> 2019 05 08 04 26 33.2688020  0  1                     
I05  20624407.287       20694.371         231.707           0.190  
> 2019 05 08 04 26 33.3688020  0  1                     
I05  20624400.094       20718.026         244.607           0.190  
> 2019 05 08 04 26 33.4688020  0  1                     
I05  20624399.046       20741.655         238.241           0.188  
> 2019 05 08 04 26 33.5688020  0  1                     
I05  20624396.749       20765.161         236.340           0.189  
> 2019 05 08 04 26 33.6688020  0  1                     
I05  20624392.956       20788.838         238.882           0.189  
> 2019 05 08 04 26 33.7688020  0  1                     
I05  20624392.458       20812.361         230.403           0.188  
> 2019 05 08 04 26 33.8688020  0  1                     
I05  20624387.885       20835.977         243.336           0.188  
> 2019 05 08 04 26 33.9688020  0  1                     
I05  20624384.663       20859.386         234.025           0.189  
> 2019 05 08 04 26 34.0688020  0  1                     
I05  20624377.860       20883.042         241.317           0.191  
