     3.03           OBSERVATION DATA    M: Mixed            RINEX VERSION / TYPE
GNSS-SDRLIB v1.1                        20230712 051319 UTC PGM / RUN BY / DATE 
                                                            MARKER NAME         
                                                            MARKER NUMBER       
                                                            MARKER TYPE         
                                                            OBSERVER / AGENCY   
GNSS-SDRLIB         GNSS-SDRLIB         1.1                 REC # / TYPE / VERS 
                                                            ANT # / TYPE        
        0.0000        0.0000        0.0000                  APPROX POSITION XYZ 
        0.0000        0.0000        0.0000                  ANTENNA: DELTA H/E/N
G    4 C1C L1C D1C S1C                                      SYS / # / OBS TYPES 
R    4 C1C L1C D1C S1C                                      SYS / # / OBS TYPES 
E    4 C1C L1C D1C S1C                                      SYS / # / OBS TYPES 
J    4 C1C L1C D1C S1C                                      SYS / # / OBS TYPES 
S    4 C1C L1C D1C S1C                                      SYS / # / OBS TYPES 
C    4 C1C L1C D1C S1C                                      SYS / # / OBS TYPES 
I    4 C1C L1C D1C S1C                                      SYS / # / OBS TYPES 
  1970    01    01    00    00   00.0000000     GPS         TIME OF FIRST OBS   
  1970    01    01    00    00   00.0000000     GPS         TIME OF LAST OBS    
G L1C                                                       SYS / PHASE SHIFT   
R L1C                                                       SYS / PHASE SHIFT   
E L1C  0.00000                                              SYS / PHASE SHIFT   
J L1C                                                       SYS / PHASE SHIFT   
S L1C                                                       SYS / PHASE SHIFT   
C L1C  0.00000                                              SYS / PHASE SHIFT   
I L1C  0.00000                                              SYS / PHASE SHIFT   
  0                                                         GLONASS SLOT / FRQ #
 C1C    0.000 C1P    0.000 C2C    0.000 C2P    0.000        GLONASS COD/PHS/BIS 
                                                            END OF HEADER       
> 2023 05 18 00 00 36.0688020  0  1                     
G05  20629656.919      -32250.165       -2055.293           0.255  
> 2023 05 18 00 00 36.0688020  0  3                     
G04  24825694.899      -26888.214       -1385.231           0.229  
G05  20629656.919      -32250.165       -2055.293           0.255  
G06  20765011.749       20572.721        1245.675           0.255  
> 2023 05 18 00 00 36.0688020  0  4                     
G04  24825694.899      -26888.214       -1385.231           0.229  
G05  20629656.919      -32250.165       -2055.293           0.255  
G06  20765011.749       20572.391        1174.334           0.255  
G07  20798266.400      -10914.587       -1814.262           0.255  
> 2023 05 18 00 00 36.0688020  0  5                     
G02  23067729.266       48780.838        1653.909           0.239  
G04  24825694.899      -26888.214       -1385.231           0.229  
G05  20629656.919      -32250.165       -2055.293           0.255  
G06  20765011.749       20572.391        1174.334           0.255  
G07  20798266.400      -10921.947       -1817.876           0.255  
> 2023 05 18 00 00 36.0688020  0  6                     
G02  23067729.266       48780.870        1635.926           0.239  
G03  24876234.084      -11468.134        -518.315           0.228  
G04  24825694.899      -26888.214       -1385.231           0.229  
G05  20629656.919      -32250.165       -2055.293           0.255  
G06  20765011.749       20572.391        1174.334           0.255  
G07  20798266.400      -10921.947       -1817.876           0.255  
> 2023 05 18 00 00 36.1688020  0  6                     
G02  23067688.501       48944.375        1635.745           0.239  
G03  24876246.966      -11519.979        -518.584           0.228  
G04  24825729.368      -27026.698       -1385.690           0.228  
G05  20629709.400      -32455.673       -2055.190           0.255  
G06  20764980.118       20689.732        1173.104           0.255  
G07  20798313.459      -11103.264       -1818.471           0.255  
> 2023 05 18 00 00 36.2688020  0  6                     
G02  23067647.117       49107.884        1636.463           0.239  
G03  24876260.659      -11571.827        -518.529           0.228  
G04  24825764.755      -27165.190       -1386.366           0.228  
G05  20629761.855      -32661.187       -2055.402           0.255  
G06  20764951.070       20807.074        1174.384           0.255  
G07  20798359.568      -11285.071       -1818.021           0.255  
> 2023 05 18 00 00 36.3688020  0  6                     
G02  23067604.920       49271.407        1677.277           0.239  
G03  24876274.827      -11623.556        -497.068           0.228  
G04  24825800.306      -27304.386       -1486.542           0.228  
G05  20629813.900      -32866.704       -2055.313           0.255  
G06  20764920.272       20924.581        1166.188           0.255  
G07  20798407.705      -11466.890       -1817.802           0.255  
> 2023 05 18 00 00 36.4688020  0  6                     
G02  23067563.435       49434.948        1689.756           0.239  
G03  24876287.149      -11675.531        -518.300           0.228  
G04  24825835.555      -27442.177       -1387.142           0.228  
G05  20629865.972      -33072.223       -2055.318           0.255  
G06  20764891.293       21041.787        1173.190           0.255  
G07  20798452.729      -11648.720       -1817.783           0.255  
> 2023 05 18 00 00 36.5688020  0  6                     
G02  23067521.881       49598.410        1636.979           0.239  
G03  24876300.609      -11727.391        -519.055           0.228  
G04  24825871.267      -27580.663       -1387.004           0.228  
G05  20629918.569      -33277.745       -2055.458           0.255  
G06  20764861.483       21159.138        1174.455           0.255  
G07  20798498.962      -11830.549       -1817.778           0.255  
> 2023 05 18 00 00 36.6688020  0  6                     
G02  23067480.353       49761.915        1636.687           0.239  
G03  24876313.655      -11779.253        -518.669           0.228  
G04  24825906.022      -27719.121       -1385.876           0.228  
G05  20629970.955      -33483.266       -2055.151           0.255  
G06  20764830.406       21276.474        1173.451           0.255  
G07  20798546.472      -12012.383       -1818.172           0.255  
> 2023 05 18 00 00 36.7688020  0  6                     
G02  23067438.041       49925.416        1636.071           0.239  
G03  24876326.482      -11831.122        -519.456           0.228  
G04  24825941.196      -27857.596       -1385.890           0.228  
G05  20630023.324      -33688.798       -2055.148           0.255  
G06  20764801.890       21393.831        1173.560           0.255  
G07  20798591.827      -12194.260       -1819.194           0.255  
> 2023 05 18 00 00 36.8688020  0  6                     
G02  23067396.822       50088.941        1637.198           0.239  
G03  24876340.068      -11882.989        -519.097           0.228  
G04  24825976.419      -27996.078       -1387.085           0.228  
G05  20630075.792      -33894.328       -2055.174           0.255  
G06  20764770.113       21511.172        1173.951           0.255  
G07  20798639.053      -12375.938       -1811.220           0.255  
> 2023 05 18 00 00 36.9688020  0  6                     
G02  23067354.631       50252.449        1635.781           0.239  
G03  24876352.181      -11934.847        -518.321           0.228  
G04  24826012.065      -28134.545       -1387.322           0.228  
G05  20630128.068      -34099.863       -2055.285           0.255  
G06  20764742.189       21628.502        1172.944           0.255  
G07  20798684.701      -12557.889       -1818.721           0.255  
> 2023 05 18 00 00 37.0688020  0  6                     
G02  23067313.310       50415.964        1636.816           0.239  
G03  24876365.922      -11986.727        -518.840           0.228  
G04  24826047.315      -28273.009       -1386.525           0.228  
G05  20630180.570      -34305.400       -2055.396           0.255  
G06  20764713.153       21745.860        1172.140           0.255  
G07  20798729.416      -12739.739       -1817.964           0.255  
> 2023 05 18 00 00 37.1688020  0  6                     
G02  23067271.788       50579.481        1635.970           0.239  
G03  24876380.012      -12038.602        -519.198           0.228  
G04  24826082.367      -28411.461       -1386.144           0.228  
G05  20630232.628      -34510.940       -2055.266           0.255  
G06  20764680.303       21863.213        1173.920           0.255  
G07  20798777.822      -12921.594       -1818.554           0.255  
> 2023 05 18 00 00 37.2688020  0  6                     
G02  23067229.942       50742.970        1633.735           0.239  
G03  24876392.949      -12090.481        -519.346           0.228  
G04  24826118.142      -28549.889       -1383.297           0.228  
G05  20630285.266      -34716.482       -2055.252           0.255  
G06  20764650.393       21980.549        1173.621           0.255  
G07  20798824.644      -13103.442       -1818.261           0.255  
> 2023 05 18 00 00 37.3688020  0  6                     
G02  23067188.934       50906.484        1634.157           0.239  
G03  24876407.066      -12142.359        -519.097           0.228  
G04  24826151.673      -28688.353       -1382.625           0.228  
G05  20630337.608      -34922.032       -2055.421           0.255  
G06  20764623.026       22097.916        1157.022           0.255  
G07  20798867.195      -13285.307       -1817.772           0.255  
> 2023 05 18 00 00 37.4688020  0  6                     
G02  23067146.280       51069.973        1616.191           0.239  
G03  24876420.200      -12194.501        -525.899           0.228  
G04  24826187.185      -28826.817       -1384.301           0.228  
G05  20630389.830      -35127.579       -2055.181           0.255  
G06  20764590.558       22215.242        1171.970           0.255  
G07  20798915.656      -13467.160       -1757.109           0.255  
> 2023 05 18 00 00 37.5688020  0  6                     
G02  23067104.585       51233.525        1635.342           0.239  
G03  24876433.266      -12246.134        -518.936           0.228  
G04  24826223.807      -28965.290       -1385.050           0.228  
G05  20630442.121      -35333.133       -2055.331           0.255  
G06  20764561.826       22332.606        1173.477           0.255  
G07  20798962.370      -13649.042       -1818.257           0.255  
> 2023 05 18 00 00 37.6688020  0  6                     
G02  23067063.048       51397.031        1635.571           0.239  
G03  24876445.617      -12298.027        -519.849           0.228  
G04  24826258.867      -29103.736       -1385.353           0.228  
G05  20630494.679      -35538.687       -2055.306           0.255  
G06  20764530.556       22450.102        1166.043           0.255  
G07  20799011.358      -13830.892       -1815.562           0.255  
> 2023 05 18 00 00 37.7688020  0  6                     
G02  23067022.241       51560.540        1634.724           0.238  
G03  24876458.988      -12349.924        -520.475           0.228  
G04  24826293.217      -29242.164       -1383.915           0.227  
G05  20630546.760      -35744.248       -2055.552           0.255  
G06  20764501.575       22567.277        1171.691           0.255  
G07  20799057.040      -14012.769       -1815.624           0.255  
> 2023 05 18 00 00 37.8688020  0  6                     
G02  23066982.206       51724.053        1634.156           0.239  
G03  24876471.484      -12401.807        -519.118           0.228  
G04  24826325.420      -29380.615       -1383.327           0.228  
G05  20630599.237      -35949.808       -2055.529           0.255  
G06  20764472.659       22684.612        1170.654           0.255  
G07  20799101.790      -14194.660       -1818.278           0.255  
> 2023 05 18 00 00 37.9688020  0  6                     
G02  23066938.854       51887.573        1634.996           0.239  
G03  24876485.303      -12453.713        -519.363           0.228  
G04  24826362.949      -29519.064       -1384.423           0.228  
G05  20630651.793      -36155.376       -2055.528           0.255  
G06  20764439.274       22801.984        1172.145           0.255  
G07  20799150.734      -14376.553       -1818.182           0.255  
> 2023 05 18 00 00 38.0688020  0  6                     
G02  23066897.249       52051.103        1634.897           0.239  
G03  24876499.460      -12505.623        -519.396           0.228  
G04  24826398.203      -29657.508       -1384.182           0.228  
G05  20630703.948      -36360.940       -2055.375           0.255  
G06  20764406.847       22919.323        1176.138           0.255  
G07  20799200.154      -14558.440       -1820.248           0.255  
> 2023 05 18 00 00 38.1688020  0  6                     
G02  23066854.307       52214.616        1635.413           0.239  
G03  24876513.050      -12557.519        -519.150           0.228  
G04  24826436.561      -29795.936       -1385.037           0.228  
G05  20630756.590      -36566.514       -2055.400           0.255  
G06  20764379.712       23036.672        1173.756           0.255  
G07  20799243.640      -14740.308       -1819.675           0.255  
> 2023 05 18 00 00 38.2688020  0  6                     
G02  23066814.985       52378.261        1646.976           0.239  
G03  24876524.543      -12609.546        -518.974           0.228  
G04  24826468.701      -29934.366       -1383.204           0.228  
G05  20630808.565      -36772.087       -2055.750           0.255  
G06  20764350.120       23153.684        1132.624           0.255  
G07  20799287.173      -14922.207       -1816.928           0.255  
> 2023 05 18 00 00 38.3688020  0  6                     
G02  23066771.972       52541.654        1635.291           0.239  
G03  24876537.351      -12661.352        -519.314           0.228  
G04  24826506.423      -30072.786       -1383.652           0.227  
G05  20630861.537      -36977.663       -2055.668           0.255  
G06  20764320.922       23271.554        1191.347           0.255  
G07  20799335.611      -15104.082       -1818.275           0.255  
> 2023 05 18 00 00 38.4688020  0  6                     
G02  23066729.483       52705.171        1635.221           0.239  
G03  24876551.174      -12713.261        -519.736           0.228  
G04  24826542.201      -30211.227       -1384.198           0.228  
G05  20630913.752      -37183.243       -2055.750           0.255  
G06  20764289.829       23388.290        1116.038           0.255  
G07  20799383.368      -15285.992       -1818.603           0.255  
> 2023 05 18 00 00 38.5688020  0  6                     
G02  23066688.738       52868.694        1635.237           0.239  
G03  24876564.303      -12765.169        -519.060           0.228  
G04  24826577.176      -30349.662       -1384.217           0.228  
G05  20630966.303      -37388.828       -2055.883           0.255  
G06  20764262.096       23506.063        1174.028           0.255  
G07  20799427.422      -15467.898       -1818.492           0.255  
> 2023 05 18 00 00 38.6688020  0  6                     
G02  23066644.070       53032.220        1635.792           0.239  
G03  24876579.565      -12817.091        -519.230           0.228  
G04  24826616.145      -30488.078       -1385.286           0.227  
G05  20631018.933      -37594.414       -2056.007           0.255  
G06  20764232.989       23623.402        1173.824           0.255  
G07  20799472.315      -15649.808       -1819.529           0.255  
> 2023 05 18 00 00 38.7688020  0  6                     
G02  23066604.799       53195.734        1634.572           0.239  
G03  24876591.778      -12869.018        -519.333           0.228  
G04  24826647.601      -30626.492       -1384.266           0.228  
G05  20631070.904      -37800.004       -2055.893           0.255  
G06  20764203.205       23740.724        1171.385           0.255  
G07  20799519.766      -15831.699       -1819.375           0.255  
> 2023 05 18 00 00 38.8688020  0  6                     
G02  23066561.762       53359.251        1635.161           0.239  
G03  24876605.171      -12920.935        -519.465           0.228  
G04  24826684.823      -30764.897       -1383.745           0.228  
G05  20631123.884      -38005.595       -2056.004           0.255  
G06  20764171.937       23858.091        1172.599           0.255  
G07  20799567.814      -16013.619       -1819.338           0.255  
> 2023 05 18 00 00 38.9688020  0  6                     
G02  23066521.866       53522.770        1635.111           0.239  
G03  24876616.852      -12972.739        -500.375           0.228  
G04  24826717.757      -30903.471       -1418.273           0.228  
G05  20631175.511      -38211.195       -2056.142           0.255  
G06  20764141.998       23975.427        1172.369           0.255  
G07  20799613.401      -16196.064       -1828.265           0.255  
> 2023 05 18 00 00 39.0688020  0  6                     
G02  23066479.542       53686.613        1702.773           0.239  
G03  24876630.910      -13024.823        -524.348           0.228  
G04  24826752.054      -31041.734       -1385.013           0.228  
G05  20631227.833      -38416.789       -2055.975           0.255  
G06  20764111.655       24092.457        1171.287           0.255  
G07  20799660.847      -16377.141       -1819.530           0.255  
> 2023 05 18 00 00 39.1688020  0  6                     
G02  23066438.233       53849.807        1634.955           0.239  
G03  24876644.191      -13076.727        -518.714           0.228  
G04  24826788.531      -31180.135       -1384.361           0.228  
G05  20631280.323      -38622.394       -2056.289           0.255  
G06  20764083.486       24210.060        1137.231           0.255  
G07  20799704.789      -16559.391       -1820.470           0.255  
> 2023 05 18 00 00 39.2688020  0  6                     
G02  23066396.802       54013.339        1635.544           0.239  
G03  24876657.314      -13128.664        -519.151           0.228  
G04  24826823.409      -31318.541       -1384.030           0.228  
G05  20631332.570      -38827.997       -2056.112           0.255  
G06  20764053.554       24327.480        1174.459           0.255  
G07  20799751.425      -16741.306       -1819.481           0.255  
> 2023 05 18 00 00 39.3688020  0  6                     
G02  23066354.911       54176.872        1636.298           0.239  
G03  24876671.016      -13180.610        -519.203           0.228  
G04  24826858.481      -31456.949       -1383.542           0.228  
G05  20631384.678      -39033.604       -2056.149           0.255  
G06  20764021.661       24444.825        1172.726           0.255  
G07  20799798.881      -16923.234       -1820.029           0.255  
> 2023 05 18 00 00 39.4688020  0  6                     
G02  23066314.634       54340.392        1635.905           0.239  
G03  24876684.067      -13232.550        -519.598           0.228  
G04  24826892.427      -31595.354       -1384.006           0.228  
G05  20631437.445      -39239.213       -2055.549           0.255  
G06  20763989.962       24562.180        1172.212           0.255  
G07  20799846.670      -17105.174       -1818.468           0.255  
> 2023 05 18 00 00 39.5688020  0  6                     
G02  23066272.514       54503.918        1635.223           0.239  
G03  24876697.495      -13284.495        -519.031           0.228  
G04  24826928.872      -31733.754       -1383.543           0.228  
G05  20631490.023      -39444.827       -2055.819           0.255  
G06  20763963.682       24679.504        1173.349           0.255  
G07  20799890.026      -17287.107       -1820.280           0.255  
> 2023 05 18 00 00 39.6688020  0  6                     
G02  23066229.290       54667.437        1634.982           0.239  
G03  24876710.780      -13336.446        -538.112           0.228  
G04  24826966.608      -31872.152       -1383.268           0.228  
G05  20631542.354      -39650.443       -2055.764           0.255  
G06  20763933.921       24796.170        1118.650           0.255  
G07  20799937.405      -17469.431       -1890.880           0.255  
> 2023 05 18 00 00 39.7688020  0  6                     
G02  23066188.344       54830.961        1634.662           0.239  
G03  24876723.653      -13388.393        -519.339           0.228  
G04  24827001.171      -32010.821       -1358.074           0.228  
G05  20631595.492      -39856.068       -2056.257           0.255  
G06  20763905.083       24914.203        1173.036           0.255  
G07  20799981.413      -17650.998       -1817.426           0.255  
> 2023 05 18 00 00 39.8688020  0  6                     
G02  23066147.127       54994.485        1635.075           0.239  
G03  24876737.247      -13440.348        -519.540           0.228  
G04  24827035.377      -32148.925       -1382.717           0.228  
G05  20631647.791      -40061.687       -2056.196           0.255  
G06  20763874.530       25031.543        1171.951           0.255  
G07  20800027.417      -17832.960       -1818.235           0.255  
> 2023 05 18 00 00 39.9688020  0  6                     
G02  23066105.226       55157.963        1610.907           0.239  
G03  24876750.197      -13492.307        -519.577           0.228  
G04  24827069.858      -32287.312       -1383.652           0.228  
G05  20631699.451      -40267.316       -2055.974           0.255  
G06  20763847.626       25148.863        1170.795           0.255  
G07  20800074.092      -18014.878       -1817.534           0.255  
> 2023 05 18 00 00 40.0688020  0  6                     
G02  23066062.599       55321.637        1658.260           0.239  
G03  24876763.898      -13544.267        -519.639           0.228  
G04  24827105.831      -32425.701       -1383.247           0.228  
G05  20631751.614      -40472.943       -2055.914           0.255  
G06  20763814.739       25266.230        1172.965           0.255  
G07  20800121.277      -18196.861       -1818.582           0.255  
> 2023 05 18 00 00 40.1688020  0  6                     
G02  23066022.018       55485.063        1635.499           0.239  
G03  24876778.188      -13596.232        -519.370           0.228  
G04  24827140.288      -32564.068       -1383.626           0.229  
G05  20631804.141      -40678.576       -2056.137           0.255  
G06  20763783.952       25383.556        1172.404           0.255  
G07  20800168.965      -18378.795       -1817.718           0.255  
> 2023 05 18 00 00 40.2688020  0  6                     
G02  23065980.868       55648.590        1634.748           0.239  
G03  24876790.946      -13648.198        -519.882           0.228  
G04  24827175.172      -32702.457       -1383.203           0.227  
G05  20631856.685      -40884.206       -2056.376           0.255  
G06  20763754.724       25500.876        1170.586           0.255  
G07  20800215.360      -18560.769       -1819.380           0.255  
> 2023 05 18 00 00 40.3688020  0  6                     
G02  23065938.282       55812.254        1665.140           0.239  
G03  24876803.861      -13700.171        -519.780           0.228  
G04  24827211.136      -32840.253       -1347.803           0.228  
G05  20631909.177      -41089.846       -2056.139           0.255  
G06  20763724.313       25618.246        1174.024           0.255  
G07  20800262.202      -18742.747       -1819.493           0.255  
> 2023 05 18 00 00 40.4688020  0  6                     
G02  23065896.375       55975.657        1635.369           0.239  
G03  24876816.535      -13752.225        -539.875           0.228  
G04  24827246.640      -32979.199       -1383.425           0.228  
G05  20631961.241      -41295.485       -2055.815           0.255  
G06  20763694.520       25735.580        1173.325           0.255  
G07  20800306.781      -18924.712       -1818.853           0.255  
> 2023 05 18 00 00 40.5688020  0  6                     
G02  23065853.192       56139.174        1635.017           0.239  
G03  24876830.173      -13804.114        -519.942           0.228  
G04  24827282.284      -33117.566       -1383.841           0.228  
G05  20632014.101      -41501.133       -2056.362           0.255  
G06  20763665.024       25852.898        1171.693           0.255  
G07  20800354.574      -19106.677       -1818.883           0.255  
> 2023 05 18 00 00 40.6688020  0  6                     
G02  23065813.631       56302.709        1634.370           0.239  
G03  24876842.742      -13856.094        -519.676           0.228  
G04  24827317.917      -33255.933       -1382.856           0.228  
G05  20632066.657      -41706.786       -2056.620           0.255  
G06  20763634.502       25970.267        1174.616           0.255  
G07  20800400.396      -19288.773       -1827.687           0.255  
> 2023 05 18 00 00 40.7688020  0  6                     
G02  23065771.251       56466.427        1621.230           0.239  
G03  24876855.799      -13908.070        -519.876           0.228  
G04  24827352.491      -33394.299       -1381.918           0.228  
G05  20632119.201      -41912.435       -2056.900           0.255  
G06  20763605.753       26087.513        1215.256           0.255  
G07  20800445.624      -19470.559       -1814.848           0.255  
> 2023 05 18 00 00 40.8688020  0  6                     
G02  23065731.033       56629.797        1643.731           0.239  
G03  24876869.486      -13960.054        -520.114           0.228  
G04  24827385.683      -33532.663       -1382.908           0.228  
G05  20632171.213      -42118.094       -2056.304           0.255  
G06  20763576.028       26204.938        1173.366           0.255  
G07  20800491.684      -19652.640       -1820.663           0.255  
> 2023 05 18 00 00 40.9688020  0  6                     
G02  23065688.241       56793.303        1634.777           0.239  
G03  24876882.733      -14012.034        -519.975           0.228  
G04  24827421.200      -33671.016       -1383.160           0.228  
G05  20632223.624      -42323.753       -2056.661           0.255  
G06  20763547.232       26322.285        1175.814           0.255  
G07  20800536.970      -19834.625       -1820.149           0.255  
> 2023 05 18 00 00 41.0688020  0  6                     
G02  23065646.643       56956.837        1634.244           0.239  
G03  24876896.119      -14064.027        -519.912           0.228  
G04  24827457.768      -33809.364       -1382.299           0.228  
G05  20632276.072      -42529.409       -2056.850           0.255  
G06  20763518.115       26439.605        1173.080           0.255  
G07  20800581.746      -20016.622       -1819.781           0.255  
> 2023 05 18 00 00 41.1688020  0  6                     
G02  23065604.486       57120.370        1634.964           0.239  
G03  24876909.391      -14116.015        -519.293           0.228  
G04  24827493.925      -33947.729       -1383.590           0.228  
G05  20632328.665      -42735.084       -2056.928           0.255  
G06  20763486.652       26556.959        1173.811           0.255  
G07  20800629.427      -20198.616       -1820.207           0.255  
> 2023 05 18 00 00 41.2688020  0  6                     
G02  23065562.812       57284.291        1678.678           0.239  
G03  24876921.571      -14167.905        -521.541           0.228  
G04  24827528.710      -34086.077       -1383.157           0.228  
G05  20632381.002      -42940.747       -2056.596           0.255  
G06  20763454.771       26674.301        1174.077           0.255  
G07  20800676.154      -20380.618       -1819.971           0.255  
> 2023 05 18 00 00 41.3688020  0  6                     
G02  23065521.302       57447.425        1635.386           0.239  
G03  24876936.053      -14220.053        -519.809           0.228  
G04  24827564.462      -34224.438       -1384.227           0.228  
G05  20632433.036      -43146.419       -2057.136           0.255  
G06  20763423.640       26791.082        1127.708           0.255  
G07  20800726.263      -20562.706       -1834.988           0.255  
> 2023 05 18 00 00 41.4688020  0  6                     
G02  23065480.011       57610.960        1635.442           0.239  
G03  24876949.090      -14272.013        -520.127           0.228  
G04  24827599.380      -34362.773       -1383.684           0.228  
G05  20632486.239      -43352.087       -2056.619           0.255  
G06  20763395.851       26908.976        1174.659           0.255  
G07  20800772.012      -20744.620       -1819.851           0.255  
> 2023 05 18 00 00 41.5688020  0  6                     
G02  23065438.392       57774.495        1635.598           0.239  
G03  24876962.817      -14324.011        -519.961           0.228  
G04  24827633.933      -34501.110       -1383.069           0.228  
G05  20632538.361      -43557.765       -2056.835           0.255  
G06  20763367.714       27026.320        1173.741           0.255  
G07  20800816.076      -20926.634       -1819.695           0.255  
> 2023 05 18 00 00 41.6688020  0  6                     
G02  23065396.573       57938.032        1636.055           0.239  
G03  24876976.352      -14376.022        -519.970           0.228  
G04  24827669.809      -34639.452       -1382.684           0.228  
G05  20632590.799      -43763.442       -2056.863           0.255  
G06  20763335.786       27143.647        1173.133           0.255  
G07  20800863.877      -21108.646       -1819.641           0.255  
> 2023 05 18 00 00 41.7688020  0  6                     
G02  23065354.799       58101.566        1635.773           0.239  
G03  24876988.899      -14428.029        -520.024           0.228  
G04  24827705.414      -34777.785       -1382.886           0.228  
G05  20632643.125      -43969.127       -2056.797           0.255  
G06  20763306.864       27260.982        1172.605           0.255  
G07  20800908.321      -21290.662       -1820.148           0.255  
> 2023 05 18 00 00 41.8688020  0  6                     
G02  23065313.387       58265.108        1636.212           0.239  
G03  24877002.278      -14480.047        -520.223           0.228  
G04  24827740.429      -34916.121       -1383.119           0.228  
G05  20632695.428      -44174.809       -2057.084           0.255  
G06  20763274.060       27378.330        1172.588           0.255  
G07  20800958.502      -21472.685       -1819.878           0.255  
> 2023 05 18 00 00 41.9688020  0  6                     
G02  23065271.249       58428.639        1634.198           0.239  
G03  24877015.787      -14532.060        -519.966           0.228  
G04  24827777.536      -35054.454       -1382.101           0.228  
G05  20632747.845      -44380.495       -2056.965           0.255  
G06  20763245.256       27495.669        1172.511           0.255  
G07  20801004.077      -21654.716       -1821.000           0.255  
> 2023 05 18 00 00 42.0688020  0  6                     
G02  23065229.673       58592.385        1633.121           0.239  
G03  24877028.600      -14584.082        -520.309           0.228  
G04  24827811.318      -35192.783       -1382.237           0.228  
G05  20632800.121      -44586.182       -2056.896           0.255  
G06  20763216.576       27613.028        1174.198           0.255  
G07  20801048.947      -21836.757       -1841.824           0.255  
> 2023 05 18 00 00 42.1688020  0  6                     
G02  23065188.269       58755.592        1553.814           0.239  
G03  24877041.891      -14636.101        -520.455           0.228  
G04  24827845.685      -35331.111       -1382.440           0.228  
G05  20632852.487      -44791.881       -2057.021           0.255  
G06  20763185.414       27730.346        1173.078           0.255  
G07  20801094.946      -22018.771       -1821.028           0.255  
> 2023 05 18 00 00 42.2688020  0  6                     
G02  23065146.591       58919.257        1634.470           0.239  
G03  24877055.192      -14688.127        -520.455           0.228  
G04  24827881.639      -35469.445       -1382.545           0.228  
G05  20632905.062      -44997.574       -2056.847           0.255  
G06  20763152.420       27847.687        1172.189           0.255  
G07  20801143.333      -22200.807       -1819.818           0.255  
> 2023 05 18 00 00 42.3688020  0  6                     
G02  23065105.365       59082.810        1636.292           0.239  
G03  24877068.321      -14740.153        -520.326           0.228  
G04  24827916.182      -35607.787       -1385.166           0.228  
G05  20632957.570      -45203.276       -2057.119           0.255  
G06  20763126.096       27965.043        1173.241           0.255  
G07  20801187.876      -22382.853       -1821.002           0.255  
> 2023 05 18 00 00 42.4688020  0  6                     
G02  23065063.579       59246.000        1662.921           0.239  
G03  24877081.430      -14792.186        -520.274           0.228  
G04  24827950.933      -35746.099       -1387.992           0.227  
G05  20633009.966      -45408.974       -2056.978           0.255  
G06  20763097.397       28082.373        1173.495           0.255  
G07  20801234.371      -22564.886       -1820.633           0.255  
> 2023 05 18 00 00 42.5688020  0  6                     
G02  23065021.774       59409.863        1636.776           0.239  
G03  24877094.403      -14844.220        -520.190           0.228  
G04  24827986.517      -35884.377       -1385.961           0.228  
G05  20633062.394      -45614.681       -2057.265           0.255  
G06  20763068.369       28199.701        1172.294           0.255  
G07  20801279.977      -22746.931       -1820.776           0.255  
> 2023 05 18 00 00 42.6688020  0  6                     
G02  23064980.477       59573.383        1634.668           0.239  
G03  24877107.448      -14896.254        -520.467           0.228  
G04  24828021.754      -36022.669       -1383.689           0.227  
G05  20633114.671      -45820.386       -2057.049           0.255  
G06  20763034.088       28317.041        1173.284           0.255  
G07  20801330.649      -22928.981       -1820.019           0.255  
> 2023 05 18 00 00 42.7688020  0  6                     
G02  23064938.508       59736.934        1633.922           0.239  
G03  24877121.129      -14948.295        -520.642           0.228  
G04  24828057.260      -36160.998       -1381.252           0.228  
G05  20633166.996      -46026.097       -2056.670           0.255  
G06  20763006.943       28434.375        1173.711           0.255  
G07  20801373.383      -23111.030       -1820.587           0.255  
> 2023 05 18 00 00 42.8688020  0  6                     
G02  23064896.828       59900.492        1634.810           0.239  
G03  24877135.230      -15000.329        -520.332           0.228  
G04  24828092.510      -36299.323       -1381.793           0.228  
G05  20633219.337      -46231.815       -2057.204           0.255  
G06  20762974.809       28551.712        1173.326           0.255  
G07  20801422.493      -23293.098       -1820.852           0.255  
> 2023 05 18 00 00 42.9688020  0  6                     
G02  23064855.422       60064.041        1676.085           0.239  
G03  24877148.416      -15052.373        -520.328           0.228  
G04  24828127.424      -36437.642       -1384.962           0.228  
G05  20633271.920      -46437.536       -2057.301           0.255  
G06  20762948.887       28669.037        1173.797           0.255  
G07  20801465.407      -23475.144       -1820.155           0.255  
> 2023 05 18 00 00 43.0688020  0  6                     
G02  23064813.035       60227.579        1636.643           0.239  
G03  24877161.535      -15104.418        -519.678           0.228  
G04  24828163.534      -36575.924       -1384.724           0.228  
G05  20633324.317      -46643.254       -2057.345           0.255  
G06  20762916.322       28786.385        1174.182           0.255  
G07  20801514.357      -23657.221       -1820.341           0.255  
> 2023 05 18 00 00 43.1688020  0  6                     
G02  23064771.361       60391.119        1636.260           0.239  
G03  24877174.615      -15156.475        -520.655           0.228  
G04  24828199.084      -36714.206       -1382.721           0.228  
G05  20633376.899      -46848.980       -2057.944           0.255  
G06  20762888.409       28903.708        1173.281           0.255  
G07  20801558.000      -23839.280       -1820.793           0.255  
> 2023 05 18 00 00 43.2688020  0  6                     
G02  23064729.887       60554.667        1634.679           0.239  
G03  24877187.117      -15208.522        -520.538           0.228  
G04  24828233.812      -36852.513       -1382.265           0.228  
G05  20633429.324      -47054.699       -2057.540           0.255  
G06  20762855.749       29021.051        1173.708           0.255  
G07  20801607.204      -24021.364       -1820.690           0.255  
> 2023 05 18 00 00 43.3688020  0  6                     
G02  23064688.314       60718.216        1634.642           0.239  
G03  24877200.902      -15260.581        -520.477           0.228  
G04  24828269.030      -36990.816       -1381.616           0.228  
G05  20633481.680      -47260.431       -2057.335           0.255  
G06  20762829.222       29138.382        1174.066           0.255  
G07  20801651.216      -24203.435       -1821.151           0.255  
> 2023 05 18 00 00 43.4688020  0  6                     
G02  23064646.147       60881.755        1635.859           0.239  
G03  24877214.216      -15312.639        -520.880           0.228  
G04  24828304.035      -37129.105       -1383.523           0.228  
G05  20633534.065      -47466.166       -2057.799           0.255  
G06  20762796.467       29255.707        1172.425           0.255  
G07  20801700.669      -24385.509       -1820.315           0.255  
> 2023 05 18 00 00 43.5688020  0  6                     
G02  23064606.226       61045.295        1635.211           0.239  
G03  24877227.433      -15364.701        -520.506           0.228  
G04  24828338.634      -37267.383       -1382.780           0.228  
G05  20633586.669      -47671.900       -2057.548           0.255  
G06  20762770.348       29373.049        1173.753           0.255  
G07  20801745.932      -24567.593       -1821.138           0.255  
> 2023 05 18 00 00 43.6688020  0  6                     
G02  23064564.069       61208.830        1634.761           0.239  
G03  24877240.800      -15416.764        -521.102           0.228  
G04  24828373.818      -37405.657       -1381.967           0.228  
G05  20633638.777      -47877.639       -2057.293           0.255  
G06  20762738.361       29490.389        1174.199           0.255  
G07  20801792.055      -24749.676       -1820.784           0.255  
> 2023 05 18 00 00 43.7688020  0  6                     
G02  23064521.883       61372.381        1635.416           0.239  
G03  24877254.107      -15468.839        -520.955           0.228  
G04  24828409.399      -37543.950       -1383.765           0.228  
G05  20633691.313      -48083.383       -2057.523           0.255  
G06  20762708.826       29607.709        1172.152           0.255  
G07  20801836.377      -24931.768       -1821.211           0.255  
> 2023 05 18 00 00 43.8688020  0  6                     
G02  23064480.305       61535.925        1635.752           0.239  
G03  24877267.195      -15520.906        -520.927           0.228  
G04  24828444.317      -37682.224       -1383.057           0.228  
G05  20633743.909      -48289.125       -2057.536           0.255  
G06  20762676.755       29725.053        1173.466           0.255  
G07  20801885.755      -25113.848       -1819.234           0.255  
> 2023 05 18 00 00 43.9688020  0  6                     
G02  23064437.778       61699.462        1635.518           0.239  
G03  24877280.975      -15572.983        -521.008           0.228  
G04  24828480.052      -37820.486       -1383.210           0.228  
G05  20633796.230      -48494.874       -2057.547           0.255  
G06  20762648.097       29842.386        1173.466           0.255  
G07  20801931.344      -25295.961       -1820.047           0.255  
> 2023 05 18 00 00 44.0688020  0  6                     
G02  23064395.826       61863.009        1635.845           0.239  
G03  24877293.818      -15625.058        -521.054           0.228  
G04  24828515.641      -37958.768       -1382.641           0.228  
G05  20633848.843      -48700.624       -2057.651           0.255  
G06  20762619.874       29959.713        1171.730           0.255  
G07  20801976.503      -25478.061       -1821.027           0.255  
> 2023 05 18 00 00 44.1688020  0  6                     
G02  23064354.631       62026.563        1635.387           0.239  
G03  24877307.187      -15677.141        -520.995           0.228  
G04  24828550.117      -38097.057       -1383.373           0.228  
G05  20633901.283      -48906.379       -2057.792           0.255  
G06  20762587.394       30077.045        1172.836           0.255  
G07  20802023.951      -25660.164       -1820.917           0.255  
> 2023 05 18 00 00 44.2688020  0  6                     
G02  23064312.433       62190.111        1635.373           0.239  
G03  24877320.808      -15729.221        -521.165           0.228  
G04  24828585.255      -38235.319       -1381.905           0.228  
G05  20633953.780      -49112.134       -2057.319           0.255  
G06  20762558.391       30194.388        1173.957           0.255  
G07  20802070.415      -25842.283       -1821.458           0.255  
> 2023 05 18 00 00 44.3688020  0  6                     
G02  23064271.008       62353.661        1634.491           0.239  
G03  24877333.853      -15781.312        -521.285           0.228  
G04  24828620.952      -38373.726       -1387.736           0.228  
G05  20634005.891      -49317.898       -2057.560           0.255  
G06  20762528.829       30311.718        1173.669           0.255  
G07  20802116.846      -26024.395       -1821.523           0.255  
> 2023 05 18 00 00 44.4688020  0  6                     
G02  23064229.396       62517.221        1635.636           0.239  
G03  24877346.755      -15833.392        -520.683           0.228  
G04  24828655.881      -38511.857       -1383.012           0.228  
G05  20634057.977      -49523.670       -2057.641           0.255  
G06  20762498.806       30429.058        1173.099           0.255  
G07  20802163.416      -26206.499       -1821.077           0.255  
> 2023 05 18 00 00 44.5688020  0  6                     
G02  23064189.107       62680.766        1635.586           0.239  
G03  24877359.993      -15885.490        -520.826           0.228  
G04  24828690.094      -38650.109       -1382.279           0.228  
G05  20634110.325      -49729.438       -2057.518           0.255  
G06  20762466.447       30546.391        1173.890           0.255  
G07  20802212.202      -26388.623       -1821.175           0.255  
> 2023 05 18 00 00 44.6688020  0  6                     
G02  23064146.455       62844.313        1635.476           0.239  
G03  24877373.643      -15937.583        -520.815           0.228  
G04  24828726.216      -38788.359       -1381.230           0.228  
G05  20634163.152      -49935.213       -2057.670           0.255  
G06  20762440.581       30663.721        1172.680           0.255  
G07  20802252.662      -26570.742       -1821.042           0.255  
> 2023 05 18 00 00 44.7688020  0  6                     
G02  23064105.671       63007.859        1635.519           0.239  
G03  24877387.542      -15989.686        -520.731           0.228  
G04  24828760.730      -38926.619       -1381.906           0.228  
G05  20634215.812      -50140.995       -2057.578           0.255  
G06  20762413.307       30780.778        1110.255           0.255  
G07  20802297.637      -26752.881       -1821.440           0.255  
> 2023 05 18 00 00 44.8688020  0  6                     
G02  23064063.024       63171.414        1636.204           0.239  
G03  24877400.369      -16041.785        -521.188           0.228  
G04  24828796.922      -39064.878       -1383.231           0.228  
G05  20634268.115      -50346.777       -2057.646           0.255  
G06  20762377.582       30898.387        1174.010           0.255  
G07  20802349.390      -26935.007       -1821.714           0.255  
> 2023 05 18 00 00 44.9688020  0  6                     
G02  23064020.507       63334.956        1635.312           0.239  
G03  24877413.410      -16093.880        -520.840           0.228  
G04  24828833.168      -39203.110       -1381.363           0.228  
G05  20634320.412      -50552.554       -2057.443           0.255  
G06  20762346.800       31015.725        1172.752           0.255  
G07  20802397.267      -27117.149       -1820.575           0.255  
> 2023 05 18 00 00 45.0688020  0  6                     
G02  23063978.146       63498.510        1635.944           0.239  
G03  24877426.582      -16145.991        -520.983           0.228  
G04  24828870.317      -39341.368       -1383.339           0.228  
G05  20634373.223      -50758.340       -2057.477           0.255  
G06  20762316.000       31133.064        1174.980           0.255  
G07  20802444.432      -27299.272       -1821.850           0.255  
> 2023 05 18 00 00 45.1688020  0  6                     
G02  23063939.462       63662.057        1635.822           0.239  
G03  24877439.558      -16198.091        -520.637           0.228  
G04  24828900.253      -39479.611       -1382.585           0.228  
G05  20634425.604      -50964.130       -2058.022           0.255  
G06  20762287.780       31250.392        1177.269           0.255  
G07  20802488.641      -27481.423       -1826.262           0.255  
> 2023 05 18 00 00 45.2688020  0  6                     
G02  23063897.355       63825.608        1634.704           0.239  
G03  24877452.643      -16250.208        -521.321           0.228  
G04  24828936.613      -39618.062       -1413.169           0.228  
G05  20634478.027      -51169.920       -2057.741           0.255  
G06  20762263.215       31367.725        1170.856           0.255  
G07  20802530.871      -27663.562       -1818.851           0.255  
> 2023 05 18 00 00 45.3688020  0  6                     
G02  23063856.794       63989.177        1636.384           0.239  
G03  24877465.637      -16302.316        -521.030           0.228  
G04  24828972.159      -39756.095       -1382.275           0.227  
G05  20634530.838      -51375.710       -2057.464           0.255  
G06  20762229.331       31485.050        1171.706           0.255  
G07  20802580.652      -27845.715       -1820.810           0.255  
> 2023 05 18 00 00 45.4688020  0  6                     
G02  23063814.173       64152.719        1635.935           0.239  
G03  24877477.843      -16354.438        -521.221           0.228  
G04  24829007.682      -39894.313       -1382.020           0.228  
G05  20634583.290      -51581.510       -2057.746           0.255  
G06  20762200.262       31602.368        1172.110           0.255  
G07  20802626.983      -28027.871       -1820.945           0.255  
> 2023 05 18 00 00 45.5688020  0  6                     
G02  23063769.005       64316.275        1635.594           0.239  
G03  24877492.126      -16406.553        -520.630           0.228  
G04  24829048.230      -40032.551       -1382.317           0.228  
G05  20634635.253      -51787.312       -2057.853           0.255  
G06  20762170.334       31719.703        1171.583           0.255  
G07  20802671.552      -28210.018       -1820.577           0.255  
> 2023 05 18 00 00 45.6688020  0  6                     
G02  23063727.936       64479.826        1634.763           0.239  
G03  24877505.925      -16458.681        -521.096           0.228  
G04  24829083.145      -40170.781       -1382.145           0.228  
G05  20634687.577      -51993.115       -2058.018           0.255  
G06  20762140.855       31837.038        1173.149           0.255  
G07  20802717.492      -28392.171       -1820.113           0.255  
> 2023 05 18 00 00 45.7688020  0  6                     
G02  23063687.753       64643.384        1635.197           0.239  
G03  24877519.228      -16510.807        -521.316           0.228  
G04  24829115.774      -40308.998       -1382.064           0.228  
G05  20634740.248      -52198.918       -2057.914           0.255  
G06  20762113.077       31954.364        1173.102           0.255  
G07  20802761.764      -28574.339       -1819.831           0.255  
> 2023 05 18 00 00 45.8688020  0  6                     
G02  23063644.939       64806.944        1636.039           0.239  
G03  24877533.724      -16562.937        -521.214           0.228  
G04  24829151.662      -40447.242       -1382.470           0.228  
G05  20634792.542      -52404.729       -2058.100           0.255  
G06  20762081.404       32071.679        1171.900           0.255  
G07  20802811.079      -28756.512       -1820.745           0.255  
> 2023 05 18 00 00 45.9688020  0  6                     
G02  23063603.879       64970.537        1642.526           0.239  
G03  24877547.851      -16615.259        -543.580           0.228  
G04  24829184.646      -40585.455       -1382.414           0.228  
G05  20634844.952      -52610.539       -2057.885           0.255  
G06  20762052.197       32189.018        1173.302           0.255  
G07  20802857.979      -28938.407       -1838.598           0.255  
> 2023 05 18 00 00 46.0688020  0  6                     
G02  23063563.541       65134.053        1635.923           0.239  
G03  24877560.960      -16667.204        -521.537           0.228  
G04  24829217.765      -40723.811       -1426.569           0.229  
G05  20634897.736      -52816.358       -2058.286           0.255  
G06  20762019.521       32306.320        1171.199           0.255  
G07  20802907.420      -29120.862       -1823.754           0.255  
> 2023 05 18 00 00 46.1688020  0  6                     
G02  23063521.349       65297.609        1635.823           0.239  
G03  24877571.906      -16719.342        -522.446           0.228  
G04  24829254.596      -40861.882       -1381.619           0.228  
G05  20634949.983      -53022.177       -2058.216           0.255  
G06  20761989.975       32423.677        1172.530           0.255  
G07  20802952.958      -29303.060       -1822.972           0.255  
> 2023 05 18 00 00 46.2688020  0  6                     
G02  23063478.989       65461.233        1661.634           0.239  
G03  24877584.960      -16771.488        -522.570           0.228  
G04  24829290.572      -41000.034       -1329.613           0.228  
G05  20635002.468      -53227.997       -2058.140           0.255  
G06  20761959.804       32540.955        1150.249           0.255  
G07  20802999.641      -29484.964       -1785.403           0.255  
> 2023 05 18 00 00 46.3688020  0  6                     
G02  23063437.762       65624.719        1635.308           0.239  
G03  24877599.189      -16823.633        -521.495           0.228  
G04  24829326.491      -41138.313       -1382.157           0.228  
G05  20635054.986      -53433.819       -2058.118           0.255  
G06  20761930.772       32658.335        1176.215           0.255  
G07  20803044.296      -29667.420       -1823.592           0.255  
> 2023 05 18 00 00 46.4688020  0  6                     
G02  23063396.611       65788.282        1635.465           0.239  
G03  24877612.624      -16875.776        -521.245           0.228  
G04  24829360.789      -41276.507       -1381.908           0.228  
G05  20635107.000      -53639.646       -2058.091           0.255  
G06  20761901.237       32775.652        1171.088           0.255  
G07  20803090.261      -29849.617       -1821.416           0.255  
> 2023 05 18 00 00 46.5688020  0  6                     
G02  23063354.525       65951.848        1635.803           0.239  
G03  24877626.780      -16927.921        -521.608           0.228  
G04  24829396.688      -41414.725       -1383.858           0.228  
G05  20635159.439      -53845.476       -2058.201           0.255  
G06  20761871.939       32893.012        1175.214           0.255  
G07  20803136.492      -30031.810       -1824.671           0.255  
> 2023 05 18 00 00 46.6688020  0  6                     
G02  23063312.470       66115.411        1636.528           0.239  
G03  24877640.456      -16980.074        -521.443           0.228  
G04  24829430.782      -41552.914       -1382.932           0.228  
G05  20635212.246      -54051.313       -2058.270           0.255  
G06  20761841.513       33010.308        1169.452           0.255  
G07  20803182.991      -30214.002       -1818.848           0.255  
> 2023 05 18 00 00 46.7688020  0  6                     
G02  23063271.453       66278.959        1635.309           0.239  
G03  24877653.933      -17032.231        -521.256           0.228  
G04  24829464.573      -41691.102       -1381.361           0.228  
G05  20635264.746      -54257.149       -2058.320           0.255  
G06  20761810.640       33127.649        1169.595           0.255  
G07  20803229.730      -30396.182       -1818.463           0.255  
> 2023 05 18 00 00 46.8688020  0  6                     
G02  23063228.805       66442.760        1672.465           0.239  
G03  24877665.857      -17084.699        -528.839           0.228  
G04  24829501.404      -41829.317       -1382.337           0.228  
G05  20635317.094      -54462.993       -2058.751           0.255  
G06  20761785.013       33244.966        1171.339           0.255  
G07  20803273.846      -30578.522       -1827.987           0.255  
> 2023 05 18 00 00 46.9688020  0  6                     
G02  23063188.223       66606.168        1605.798           0.239  
G03  24877678.928      -17136.559        -521.165           0.228  
G04  24829535.457      -41967.805       -1394.029           0.228  
G05  20635369.496      -54668.826       -2058.088           0.255  
G06  20761750.749       33362.306        1172.787           0.255  
G07  20803324.466      -30760.669       -1842.990           0.255  
> 2023 05 18 00 00 47.0688020  0  6                     
G02  23063145.685       66769.665        1587.654           0.239  
G03  24877692.176      -17188.717        -521.499           0.228  
G04  24829571.307      -42105.698       -1380.980           0.228  
G05  20635421.952      -54874.675       -2058.156           0.255  
G06  20761720.409       33479.626        1203.109           0.255  
G07  20803372.844      -30942.862       -1840.619           0.255  
> 2023 05 18 00 00 47.1688020  0  6                     
G02  23063105.278       66933.212        1635.442           0.239  
G03  24877705.149      -17240.882        -521.104           0.228  
G04  24829606.453      -42243.900       -1382.635           0.228  
G05  20635474.390      -55080.526       -2058.327           0.255  
G06  20761689.876       33596.969        1173.070           0.255  
G07  20803420.127      -31125.029       -1821.553           0.255  
> 2023 05 18 00 00 47.2688020  0  6                     
G02  23063063.139       67096.587        1610.522           0.239  
G03  24877718.519      -17293.051        -521.201           0.228  
G04  24829641.666      -42382.063       -1381.317           0.228  
G05  20635527.351      -55286.380       -2058.514           0.255  
G06  20761661.273       33714.292        1174.438           0.255  
G07  20803462.598      -31307.244       -1822.322           0.255  
> 2023 05 18 00 00 47.3688020  0  6                     
G02  23063021.249       67260.330        1635.523           0.239  
G03  24877732.680      -17345.230        -521.671           0.228  
G04  24829676.679      -42520.256       -1382.174           0.228  
G05  20635578.745      -55492.231       -2058.463           0.255  
G06  20761631.866       33831.601        1172.807           0.255  
G07  20803509.800      -31489.475       -1822.659           0.255  
> 2023 05 18 00 00 47.4688020  0  6                     
G02  23062979.043       67423.892        1635.319           0.239  
G03  24877745.224      -17397.405        -522.664           0.228  
G04  24829712.673      -42658.423       -1381.139           0.228  
G05  20635631.670      -55698.092       -2058.676           0.255  
G06  20761601.376       33948.939        1172.894           0.255  
G07  20803554.456      -31671.715       -1823.377           0.255  
> 2023 05 18 00 00 47.5688020  0  6                     
G02  23062937.323       67587.682        1663.736           0.239  
G03  24877758.110      -17449.715        -555.883           0.228  
G04  24829748.996      -42796.624       -1382.163           0.228  
G05  20635684.133      -55903.952       -2058.757           0.255  
G06  20761571.018       34066.271        1174.867           0.255  
G07  20803602.053      -31853.930       -1823.021           0.255  
> 2023 05 18 00 00 47.6688020  0  6                     
G02  23062896.663       67751.020        1635.713           0.239  
G03  24877771.274      -17501.760        -522.124           0.228  
G04  24829783.394      -42934.785       -1381.984           0.228  
G05  20635736.767      -56109.817       -2058.640           0.255  
G06  20761539.128       34183.589        1173.475           0.255  
G07  20803651.940      -32036.152       -1821.451           0.255  
> 2023 05 18 00 00 47.7688020  0  6                     
G02  23062853.963       67914.446        1645.630           0.239  
G03  24877785.609      -17553.940        -521.686           0.228  
G04  24829818.661      -43073.172       -1434.867           0.228  
G05  20635789.516      -56315.683       -2058.966           0.255  
G06  20761510.518       34300.911        1171.483           0.255  
G07  20803696.314      -32218.391       -1823.142           0.255  
> 2023 05 18 00 00 47.8688020  0  6                     
G02  23062813.378       68078.001        1639.295           0.239  
G03  24877798.332      -17606.124        -522.578           0.228  
G04  24829852.619      -43211.125       -1381.594           0.228  
G05  20635841.729      -56521.562       -2058.745           0.255  
G06  20761480.486       34418.247        1173.686           0.255  
G07  20803742.351      -32400.628       -1822.196           0.255  
> 2023 05 18 00 00 47.9688020  0  6                     
G02  23062770.783       68241.716        1635.652           0.239  
G03  24877811.786      -17658.317        -521.551           0.228  
G04  24829887.759      -43349.287       -1380.953           0.228  
G05  20635894.191      -56727.434       -2058.898           0.255  
G06  20761453.144       34535.565        1174.006           0.255  
G07  20803787.246      -32582.879       -1824.429           0.255  
> 2023 05 18 00 00 48.0688020  0  6                     
G02  23062729.577       68405.284        1634.847           0.239  
G03  24877825.456      -17710.513        -522.474           0.228  
G04  24829922.578      -43487.448       -1380.615           0.227  
G05  20635946.972      -56933.310       -2058.532           0.255  
G06  20761422.722       34652.727        1116.299           0.255  
G07  20803833.833      -32765.127       -1822.282           0.255  
> 2023 05 18 00 00 48.1688020  0  6                     
G02  23062687.169       68568.862        1635.883           0.239  
G03  24877839.342      -17762.711        -521.939           0.228  
G04  24829959.053      -43625.610       -1381.702           0.228  
