     3.03           OBSERVATION DATA    M: Mixed            RINEX VERSION / TYPE
GNSS-SDRLIB v1.1                        20230710 131131 UTC PGM / RUN BY / DATE 
                                                            MARKER NAME         
                                                            MARKER NUMBER       
                                                            MARKER TYPE         
                                                            OBSERVER / AGENCY   
GNSS-SDRLIB         GNSS-SDRLIB         1.1                 REC # / TYPE / VERS 
                                                            ANT # / TYPE        
        0.0000        0.0000        0.0000                  APPROX POSITION XYZ 
        0.0000        0.0000        0.0000                  ANTENNA: DELTA H/E/N
G    4 C1C L1C D1C S1C                                      SYS / # / OBS TYPES 
R    4 C1C L1C D1C S1C                                      SYS / # / OBS TYPES 
E    4 C1C L1C D1C S1C                                      SYS / # / OBS TYPES 
J    4 C1C L1C D1C S1C                                      SYS / # / OBS TYPES 
S    4 C1C L1C D1C S1C                                      SYS / # / OBS TYPES 
C    4 C1C L1C D1C S1C                                      SYS / # / OBS TYPES 
I    4 C1C L1C D1C S1C                                      SYS / # / OBS TYPES 
  1970    01    01    00    00   00.0000000     GPS         TIME OF FIRST OBS   
  1970    01    01    00    00   00.0000000     GPS         TIME OF LAST OBS    
G L1C                                                       SYS / PHASE SHIFT   
R L1C                                                       SYS / PHASE SHIFT   
E L1C  0.00000                                              SYS / PHASE SHIFT   
J L1C                                                       SYS / PHASE SHIFT   
S L1C                                                       SYS / PHASE SHIFT   
C L1C  0.00000                                              SYS / PHASE SHIFT   
I L1C  0.00000                                              SYS / PHASE SHIFT   
  0                                                         GLONASS SLOT / FRQ #
 C1C    0.000 C1P    0.000 C2C    0.000 C2P    0.000        GLONASS COD/PHS/BIS 
                                                            END OF HEADER       
> 2023 05 18 00 00 36.0688020  0  1                     
G03  20627817.207      -12676.764        -573.908           0.255  
> 2023 05 18 00 00 36.0688020  0  2                     
G03  20627817.207      -12676.764        -573.908           0.255  
G04  22113623.937      -56194.254       -2874.449           0.244  
> 2023 05 18 00 00 36.0688020  0  3                     
G03  20627817.207      -12676.764        -573.908           0.255  
G04  22113623.937      -56194.254       -2874.449           0.244  
G05  20885758.718       56161.482        2700.256           0.255  
> 2023 05 18 00 00 36.0688020  0  4                     
G03  22274919.130      -12673.610        -573.889           0.255  
G04  23760725.860      -56178.463       -2875.262           0.244  
G05  22532860.641       56146.644        2698.346           0.255  
G06  20627069.920       -6424.654        -512.159           0.255  
> 2023 05 18 00 00 36.0688020  0  5                     
G02  24428686.099      117863.123        3933.283           0.239  
G03  22274919.130      -12673.610        -573.889           0.255  
G04  23760725.860      -56178.463       -2875.262           0.244  
G05  22532860.641       56146.644        2698.346           0.255  
G06  20627069.920       -6424.654        -512.159           0.255  
> 2023 05 18 00 00 36.1688020  0  6                     
G02  24428610.632      118256.364        3932.189           0.239  
G03  22274930.144      -12731.010        -573.994           0.255  
G04  23760780.193      -56465.785       -2874.444           0.244  
G05  22532809.171       56416.523        2701.522           0.255  
G06  20627079.647       -6475.894        -512.283           0.255  
G07  23530389.087      -11202.876       -1818.616           0.247  
> 2023 05 18 00 00 36.2688020  0  6                     
G02  24428536.083      118649.604        3932.983           0.239  
G03  22274940.908      -12788.372        -554.601           0.255  
G04  23760834.887      -56753.119       -2871.906           0.244  
G05  22532757.666       56686.315        2697.828           0.255  
G06  20627089.583       -6527.140        -512.553           0.255  
G07  23530423.614      -11384.819       -1819.463           0.247  
> 2023 05 18 00 00 36.3688020  0  6                     
G02  24428461.109      119042.843        3932.895           0.239  
G03  22274951.797      -12845.822        -573.802           0.255  
G04  23760889.562      -57040.456       -2872.923           0.244  
G05  22532706.475       56956.148        2698.577           0.255  
G06  20627099.186       -6578.391        -512.517           0.255  
G07  23530458.234      -11566.763       -1819.405           0.247  
> 2023 05 18 00 00 36.4688020  0  6                     
G02  24428386.380      119436.079        3932.589           0.239  
G03  22274962.926      -12903.240        -574.096           0.255  
G04  23760944.679      -57327.793       -2873.573           0.244  
G05  22532655.293       57225.976        2698.083           0.255  
G06  20627108.995       -6629.649        -512.640           0.255  
G07  23530492.414      -11748.708       -1819.128           0.247  
> 2023 05 18 00 00 36.5688020  0  6                     
G02  24428311.547      119829.297        3932.058           0.239  
G03  22274973.967      -12960.661        -574.190           0.255  
G04  23760999.531      -57615.126       -2873.254           0.244  
G05  22532603.872       57495.829        2697.575           0.255  
G06  20627118.778       -6680.907        -512.643           0.255  
G07  23530527.364      -11930.610       -1807.766           0.247  
> 2023 05 18 00 00 36.6688020  0  6                     
G02  24428235.715      120222.536        3933.075           0.239  
G03  22274985.566      -13018.088        -574.078           0.255  
G04  23761055.370      -57902.464       -2874.153           0.244  
G05  22532552.313       57765.633        2698.515           0.255  
G06  20627128.114       -6732.174        -512.852           0.255  
G07  23530561.984      -12112.621       -1819.447           0.247  
> 2023 05 18 00 00 36.7688020  0  6                     
G02  24428161.929      120615.775        3932.904           0.239  
G03  22274996.255      -13075.560        -580.466           0.255  
G04  23761109.485      -58189.808       -2873.652           0.244  
G05  22532500.673       58035.454        2699.082           0.255  
G06  20627137.942       -6783.443        -512.887           0.255  
G07  23530596.477      -12294.580       -1819.591           0.247  
> 2023 05 18 00 00 36.8688020  0  6                     
G02  24428086.445      121009.016        3932.709           0.239  
G03  22275006.970      -13132.967        -574.645           0.255  
G04  23761163.408      -58477.147       -2873.295           0.244  
G05  22532449.784       58305.264        2698.395           0.255  
G06  20627147.722       -6834.716        -512.692           0.255  
G07  23530631.533      -12476.541       -1819.465           0.247  
> 2023 05 18 00 00 36.9688020  0  6                     
G02  24428012.327      121402.250        3932.010           0.239  
G03  22275016.792      -13190.381        -566.953           0.255  
G04  23761218.131      -58764.486       -2873.531           0.244  
G05  22532398.188       58575.074        2697.938           0.255  
G06  20627158.140       -6885.993        -512.934           0.255  
G07  23530665.293      -12658.509       -1819.113           0.247  
> 2023 05 18 00 00 37.0688020  0  6                     
G02  24427937.569      121795.489        3931.997           0.239  
G03  22275028.263      -13247.864        -574.486           0.255  
G04  23761272.684      -59051.826       -2872.857           0.244  
G05  22532346.885       58844.887        2697.849           0.255  
G06  20627167.506       -6937.276        -513.138           0.255  
G07  23530700.807      -12840.484       -1819.772           0.247  
> 2023 05 18 00 00 37.1688020  0  6                     
G02  24427862.549      122188.727        3932.329           0.239  
G03  22275039.658      -13305.325        -574.651           0.255  
G04  23761327.228      -59339.169       -2873.002           0.244  
G05  22532295.697       59114.689        2697.422           0.255  
G06  20627177.217       -6988.563        -512.881           0.255  
G07  23530735.340      -13022.457       -1819.540           0.247  
> 2023 05 18 00 00 37.2688020  0  6                     
G02  24427786.962      122581.962        3932.037           0.239  
G03  22275050.519      -13362.788        -574.389           0.255  
G04  23761381.712      -59626.526       -2872.898           0.244  
G05  22532244.554       59384.499        2697.479           0.255  
G06  20627187.033       -7039.857        -512.999           0.255  
G07  23530769.732      -13204.436       -1819.959           0.247  
> 2023 05 18 00 00 37.3688020  0  6                     
G02  24427712.841      122975.381        3982.104           0.239  
G03  22275060.443      -13420.272        -563.790           0.255  
G04  23761436.217      -59913.843       -2905.427           0.244  
G05  22532193.254       59654.390        2694.352           0.255  
G06  20627196.812       -7091.152        -512.993           0.255  
G07  23530804.291      -13386.418       -1819.786           0.247  
> 2023 05 18 00 00 37.4688020  0  6                     
G02  24427637.786      123368.442        3932.332           0.239  
G03  22275071.906      -13477.840        -594.746           0.255  
G04  23761491.586      -60200.822       -2827.113           0.244  
G05  22532141.819       59924.144        2682.520           0.255  
G06  20627206.362       -7142.453        -512.818           0.255  
G07  23530838.755      -13568.297       -1783.848           0.247  
> 2023 05 18 00 00 37.5688020  0  6                     
G02  24427562.678      123761.680        3932.657           0.239  
G03  22275083.222      -13535.220        -574.729           0.255  
G04  23761546.725      -60488.565       -2873.266           0.244  
G05  22532090.478       60193.895        2697.647           0.255  
G06  20627216.224       -7193.759        -513.097           0.255  
G07  23530873.658      -13750.400       -1820.024           0.247  
> 2023 05 18 00 00 37.6688020  0  6                     
G02  24427489.039      124154.924        3932.621           0.239  
G03  22275094.104      -13592.708        -574.660           0.255  
G04  23761602.349      -60775.924       -2873.834           0.244  
G05  22532039.043       60463.690        2698.075           0.255  
G06  20627226.133       -7245.073        -513.168           0.255  
G07  23530907.081      -13932.319       -1795.490           0.247  
> 2023 05 18 00 00 37.7688020  0  6                     
G02  24427413.880      124548.158        3932.061           0.239  
G03  22275105.375      -13650.206        -574.958           0.255  
G04  23761656.955      -61063.277       -2873.664           0.244  
G05  22531987.502       60733.475        2697.463           0.255  
G06  20627235.887       -7296.384        -513.189           0.255  
G07  23530941.733      -14114.392       -1819.862           0.247  
> 2023 05 18 00 00 37.8688020  0  6                     
G02  24427338.693      124941.391        3932.111           0.239  
G03  22275115.139      -13707.706        -574.413           0.255  
G04  23761710.284      -61350.622       -2874.393           0.244  
G05  22531936.626       61003.261        2697.632           0.255  
G06  20627245.838       -7347.701        -513.029           0.255  
G07  23530977.128      -14296.390       -1819.263           0.247  
> 2023 05 18 00 00 37.9688020  0  6                     
G02  24427263.465      125334.634        3932.141           0.239  
G03  22275127.151      -13765.216        -574.934           0.255  
G04  23761765.249      -61637.979       -2873.076           0.244  
G05  22531884.863       61273.042        2697.747           0.255  
G06  20627255.111       -7399.027        -513.258           0.255  
G07  23531012.060      -14478.397       -1819.681           0.247  
> 2023 05 18 00 00 38.0688020  0  6                     
G02  24427188.104      125727.873        3933.015           0.239  
G03  22275137.669      -13822.730        -575.306           0.255  
G04  23761820.413      -61925.331       -2872.859           0.244  
G05  22531833.647       61542.830        2697.823           0.255  
G06  20627265.207       -7450.359        -513.242           0.255  
G07  23531046.594      -14660.407       -1820.161           0.247  
> 2023 05 18 00 00 38.1688020  0  6                     
G02  24427113.752      126121.357        3963.936           0.239  
G03  22275148.741      -13880.323        -601.347           0.255  
G04  23761873.512      -62212.696       -2873.263           0.244  
G05  22531782.030       61812.650        2717.082           0.255  
G06  20627275.158       -7501.691        -513.500           0.255  
G07  23531081.617      -14842.454       -1818.283           0.247  
> 2023 05 18 00 00 38.2688020  0  6                     
G02  24427038.946      126514.345        3931.730           0.239  
G03  22275160.104      -13937.774        -575.247           0.255  
G04  23761928.927      -62500.056       -2872.842           0.244  
G05  22531730.704       62082.375        2697.676           0.255  
G06  20627284.910       -7553.025        -513.193           0.255  
G07  23531116.088      -15024.437       -1819.838           0.247  
> 2023 05 18 00 00 38.3688020  0  6                     
G02  24426963.691      126907.605        3923.620           0.239  
G03  22275171.131      -13995.229        -567.222           0.255  
G04  23761982.811      -62787.412       -2873.464           0.244  
G05  22531680.122       62352.149        2698.084           0.255  
G06  20627294.470       -7604.368        -513.373           0.255  
G07  23531150.747      -15206.490       -1821.812           0.247  
> 2023 05 18 00 00 38.4688020  0  6                     
G02  24426889.458      127300.808        3932.670           0.239  
G03  22275181.336      -14052.844        -575.270           0.255  
G04  23762037.276      -63074.773       -2872.763           0.244  
G05  22531628.328       62621.918        2697.706           0.255  
G06  20627304.301       -7655.717        -513.253           0.255  
G07  23531185.759      -15388.487       -1820.663           0.247  
> 2023 05 18 00 00 38.5688020  0  6                     
G02  24426814.462      127694.052        3932.954           0.239  
G03  22275192.755      -14110.392        -575.581           0.255  
G04  23762092.900      -63362.136       -2874.559           0.244  
G05  22531576.952       62891.678        2697.427           0.255  
G06  20627313.681       -7707.074        -513.512           0.255  
G07  23531220.415      -15570.514       -1819.797           0.247  
> 2023 05 18 00 00 38.6688020  0  6                     
G02  24426739.987      128087.279        3932.196           0.239  
G03  22275203.424      -14167.941        -575.619           0.255  
G04  23762148.333      -63649.498       -2873.166           0.244  
G05  22531526.076       63161.447        2697.978           0.255  
G06  20627323.505       -7758.431        -513.676           0.255  
G07  23531254.835      -15752.547       -1820.069           0.247  
> 2023 05 18 00 00 38.7688020  0  6                     
G02  24426664.794      128480.523        3932.334           0.239  
G03  22275214.510      -14225.497        -575.560           0.255  
G04  23762202.462      -63936.862       -2874.845           0.244  
G05  22531474.715       63431.208        2698.196           0.255  
G06  20627333.521       -7809.792        -513.620           0.255  
G07  23531289.358      -15934.583       -1819.833           0.247  
> 2023 05 18 00 00 38.8688020  0  6                     
G02  24426590.117      128873.757        3931.876           0.239  
G03  22275225.738      -14283.062        -575.865           0.255  
G04  23762257.098      -64224.231       -2874.524           0.244  
G05  22531423.438       63700.955        2697.401           0.255  
G06  20627342.716       -7861.158        -513.568           0.255  
G07  23531324.454      -16116.622       -1820.710           0.247  
> 2023 05 18 00 00 38.9688020  0  6                     
G02  24426515.840      129267.004        3933.659           0.239  
G03  22275236.687      -14340.629        -575.579           0.255  
G04  23762311.876      -64511.593       -2873.451           0.244  
G05  22531371.775       63970.697        2697.107           0.255  
G06  20627352.620       -7912.533        -513.678           0.255  
G07  23531358.665      -16298.667       -1820.726           0.247  
> 2023 05 18 00 00 39.0688020  0  6                     
G02  24426441.103      129660.734        3978.832           0.239  
G03  22275247.887      -14398.204        -575.650           0.255  
G04  23762365.880      -64798.967       -2873.067           0.244  
G05  22531320.211       64240.446        2697.250           0.255  
G06  20627362.716       -7963.908        -513.837           0.255  
G07  23531392.749      -16480.641       -1808.477           0.247  
> 2023 05 18 00 00 39.1688020  0  6                     
G02  24426365.111      130053.476        3932.051           0.239  
G03  22275258.465      -14455.784        -575.293           0.255  
G04  23762420.851      -65086.336       -2874.923           0.244  
G05  22531269.155       64510.056        2672.573           0.255  
G06  20627372.718       -8015.287        -514.083           0.255  
G07  23531427.342      -16662.764       -1820.519           0.247  
> 2023 05 18 00 00 39.2688020  0  6                     
G02  24426291.106      130446.716        3933.181           0.239  
G03  22275268.907      -14513.372        -575.744           0.255  
G04  23762475.922      -65373.705       -2873.882           0.244  
G05  22531217.916       64779.937        2697.290           0.255  
G06  20627382.402       -8066.673        -514.111           0.255  
G07  23531462.192      -16844.968       -1826.493           0.247  
> 2023 05 18 00 00 39.3688020  0  6                     
G02  24426216.337      130839.952        3932.220           0.239  
G03  22275279.598      -14570.964        -575.979           0.255  
G04  23762530.782      -65661.078       -2873.992           0.244  
G05  22531166.801       65049.679        2697.401           0.255  
G06  20627392.429       -8118.065        -514.017           0.255  
G07  23531496.887      -17026.760       -1804.239           0.247  
> 2023 05 18 00 00 39.4688020  0  6                     
G02  24426141.371      131233.185        3931.529           0.239  
G03  22275290.967      -14628.563        -575.746           0.255  
G04  23762585.958      -65948.447       -2873.778           0.244  
G05  22531115.093       65319.491        2699.308           0.255  
G06  20627402.138       -8169.455        -514.079           0.255  
G07  23531531.227      -17208.945       -1820.730           0.247  
> 2023 05 18 00 00 39.5688020  0  6                     
G02  24426066.134      131626.420        3931.411           0.239  
G03  22275302.351      -14686.174        -576.408           0.255  
G04  23762639.840      -66235.830       -2874.355           0.244  
G05  22531063.855       65589.137        2697.447           0.255  
G06  20627411.840       -8220.852        -513.832           0.255  
G07  23531566.552      -17391.011       -1820.420           0.247  
> 2023 05 18 00 00 39.6688020  0  6                     
G02  24425991.739      132019.668        3932.322           0.239  
G03  22275312.787      -14743.782        -576.134           0.255  
G04  23762694.700      -66523.221       -2874.680           0.244  
G05  22531012.261       65858.870        2697.473           0.255  
G06  20627421.809       -8272.258        -514.011           0.255  
G07  23531600.683      -17573.080       -1820.735           0.247  
> 2023 05 18 00 00 39.7688020  0  6                     
G02  24425916.647      132412.903        3932.439           0.240  
G03  22275323.771      -14801.400        -576.037           0.255  
G04  23762749.334      -66810.593       -2872.982           0.244  
G05  22530961.741       66128.596        2697.510           0.255  
G06  20627431.347       -8323.669        -514.041           0.255  
G07  23531635.179      -17755.157       -1821.487           0.247  
> 2023 05 18 00 00 39.8688020  0  6                     
G02  24425841.998      132806.154        3935.468           0.239  
G03  22275335.213      -14859.025        -576.051           0.255  
G04  23762804.265      -67097.970       -2873.200           0.244  
G05  22530909.977       66398.318        2697.190           0.255  
G06  20627441.060       -8375.077        -514.031           0.255  
G07  23531670.647      -17937.233       -1821.046           0.247  
> 2023 05 18 00 00 39.9688020  0  6                     
G02  24425767.384      133199.377        3932.256           0.239  
G03  22275346.619      -14916.653        -576.340           0.255  
G04  23762858.592      -67385.350       -2872.250           0.244  
G05  22530858.603       66668.039        2697.292           0.255  
G06  20627450.572       -8426.494        -514.121           0.255  
G07  23531705.285      -18119.314       -1821.000           0.247  
> 2023 05 18 00 00 40.0688020  0  6                     
G02  24425692.235      133592.626        3932.251           0.239  
G03  22275356.628      -14974.335        -585.875           0.255  
G04  23762913.199      -67672.736       -2873.582           0.244  
G05  22530807.013       66937.764        2697.736           0.255  
G06  20627460.796       -8477.915        -514.012           0.255  
G07  23531739.586      -18301.401       -1820.726           0.247  
> 2023 05 18 00 00 40.1688020  0  6                     
G02  24425616.498      133985.855        3932.804           0.239  
G03  22275367.936      -15031.931        -576.380           0.255  
G04  23762968.032      -67960.115       -2874.022           0.244  
G05  22530755.240       67207.478        2697.299           0.255  
G06  20627470.875       -8529.346        -514.398           0.255  
G07  23531774.243      -18483.493       -1820.839           0.247  
> 2023 05 18 00 00 40.2688020  0  6                     
G02  24425542.617      134379.094        3932.993           0.239  
G03  22275378.824      -15089.581        -576.510           0.255  
G04  23763022.857      -68247.491       -2872.262           0.244  
G05  22530703.878       67477.195        2697.671           0.255  
G06  20627480.495       -8580.774        -514.261           0.255  
G07  23531809.137      -18665.588       -1821.692           0.247  
> 2023 05 18 00 00 40.3688020  0  6                     
G02  24425467.771      134772.331        3931.229           0.239  
G03  22275389.860      -15147.235        -576.473           0.255  
G04  23763077.259      -68534.883       -2873.393           0.244  
G05  22530652.854       67746.899        2697.098           0.255  
G06  20627490.006       -8632.209        -514.289           0.255  
G07  23531843.708      -18847.685       -1821.046           0.247  
> 2023 05 18 00 00 40.4688020  0  6                     
G02  24425392.721      135165.568        3932.020           0.239  
G03  22275400.759      -15204.896        -576.532           0.255  
G04  23763132.974      -68822.271       -2874.473           0.244  
G05  22530601.708       68016.609        2697.437           0.255  
G06  20627499.688       -8683.650        -514.272           0.255  
G07  23531878.742      -19029.781       -1820.995           0.247  
> 2023 05 18 00 00 40.5688020  0  6                     
G02  24425317.838      135558.809        3932.381           0.239  
G03  22275411.342      -15262.561        -576.567           0.255  
G04  23763187.050      -69109.667       -2874.673           0.244  
G05  22530550.430       68286.310        2697.067           0.255  
G06  20627509.814       -8735.096        -514.279           0.255  
G07  23531913.344      -19211.882       -1820.535           0.247  
> 2023 05 18 00 00 40.6688020  0  6                     
G02  24425244.472      135952.045        3931.963           0.239  
G03  22275422.663      -15320.234        -576.473           0.255  
G04  23763242.244      -69397.055       -2874.773           0.244  
G05  22530499.121       68555.999        2697.053           0.255  
G06  20627519.483       -8786.543        -514.434           0.255  
G07  23531947.187      -19393.998       -1821.090           0.248  
> 2023 05 18 00 00 40.7688020  0  6                     
G02  24425168.999      136345.286        3931.614           0.239  
G03  22275433.715      -15377.911        -576.939           0.255  
G04  23763296.309      -69684.443       -2874.283           0.244  
G05  22530447.661       68825.696        2697.377           0.255  
G06  20627529.034       -8837.998        -514.708           0.255  
G07  23531982.628      -19576.106       -1820.828           0.247  
> 2023 05 18 00 00 40.8688020  0  6                     
G02  24425093.984      136738.527        3932.475           0.239  
G03  22275444.655      -15435.596        -576.994           0.255  
G04  23763350.966      -69971.836       -2874.039           0.244  
G05  22530396.264       69095.393        2696.900           0.255  
G06  20627538.966       -8889.457        -514.568           0.255  
G07  23532016.986      -19758.224       -1820.954           0.247  
> 2023 05 18 00 00 40.9688020  0  6                     
G02  24425017.877      137131.762        3932.504           0.239  
G03  22275455.577      -15493.252        -573.928           0.255  
G04  23763406.257      -70259.233       -2874.254           0.244  
G05  22530345.221       69365.084        2696.836           0.255  
G06  20627548.603       -8940.921        -514.623           0.255  
G07  23532051.716      -19940.286       -1805.126           0.247  
> 2023 05 18 00 00 41.0688020  0  6                     
G02  24424944.428      137525.007        3932.780           0.239  
G03  22275466.981      -15550.925        -565.545           0.255  
G04  23763460.802      -70546.621       -2873.508           0.244  
G05  22530294.009       69634.776        2696.907           0.255  
G06  20627558.197       -8992.393        -514.649           0.255  
G07  23532086.771      -20122.469       -1820.998           0.247  
> 2023 05 18 00 00 41.1688020  0  6                     
G02  24424869.611      137918.240        3931.682           0.239  
G03  22275477.968      -15608.688        -577.132           0.255  
G04  23763515.418      -70834.022       -2874.154           0.244  
G05  22530242.227       69904.458        2696.894           0.255  
G06  20627568.098       -9043.864        -514.805           0.255  
G07  23532120.668      -20304.601       -1821.465           0.247  
> 2023 05 18 00 00 41.2688020  0  6                     
G02  24424793.922      138311.473        3931.572           0.239  
G03  22275488.651      -15666.398        -577.168           0.255  
G04  23763570.272      -71121.417       -2873.895           0.244  
G05  22530190.755       70174.129        2696.843           0.255  
G06  20627578.378       -9095.340        -514.667           0.255  
G07  23532155.702      -20486.729       -1821.719           0.247  
> 2023 05 18 00 00 41.3688020  0  6                     
G02  24424719.546      138704.720        3933.381           0.239  
G03  22275500.215      -15724.114        -577.337           0.255  
G04  23763624.471      -71408.823       -2874.851           0.244  
G05  22530139.775       70443.807        2696.786           0.255  
G06  20627587.978       -9146.825        -514.895           0.255  
G07  23532189.789      -20668.863       -1820.999           0.247  
> 2023 05 18 00 00 41.4688020  0  6                     
G02  24424645.097      139097.934        3932.085           0.239  
G03  22275510.482      -15781.832        -577.095           0.255  
G04  23763679.850      -71696.223       -2873.972           0.244  
G05  22530088.206       70713.482        2696.661           0.255  
G06  20627598.119       -9198.316        -515.078           0.255  
G07  23532225.062      -20851.005       -1821.322           0.247  
> 2023 05 18 00 00 41.5688020  0  6                     
G02  24424569.641      139491.175        3932.785           0.239  
G03  22275521.702      -15839.559        -577.223           0.255  
G04  23763734.583      -71983.625       -2873.991           0.244  
G05  22530037.317       70983.152        2696.391           0.255  
G06  20627607.521       -9249.803        -514.733           0.255  
G07  23532259.839      -21033.148       -1821.286           0.247  
> 2023 05 18 00 00 41.6688020  0  6                     
G02  24424495.386      139884.407        3931.645           0.239  
G03  22275532.796      -15897.294        -577.142           0.255  
G04  23763788.087      -72271.024       -2874.161           0.244  
G05  22529985.772       71252.822        2696.816           0.255  
G06  20627617.519       -9301.299        -514.933           0.255  
G07  23532294.233      -21215.296       -1821.371           0.247  
> 2023 05 18 00 00 41.7688020  0  6                     
G02  24424420.455      140277.643        3931.980           0.239  
G03  22275543.520      -15955.034        -577.475           0.255  
G04  23763842.579      -72558.425       -2874.449           0.244  
G05  22529934.630       71522.488        2696.598           0.255  
G06  20627627.125       -9352.803        -514.959           0.255  
G07  23532328.881      -21397.451       -1821.645           0.247  
> 2023 05 18 00 00 41.8688020  0  6                     
G02  24424345.197      140670.889        3932.442           0.239  
G03  22275554.812      -16012.779        -577.256           0.255  
G04  23763897.478      -72845.832       -2873.973           0.244  
G05  22529883.452       71792.150        2696.884           0.255  
G06  20627636.943       -9404.309        -514.916           0.255  
G07  23532363.590      -21579.603       -1821.913           0.247  
> 2023 05 18 00 00 41.9688020  0  6                     
G02  24424271.223      141064.125        3932.261           0.239  
G03  22275565.563      -16070.534        -577.713           0.255  
G04  23763952.208      -73133.240       -2874.060           0.244  
G05  22529832.075       72061.809        2696.834           0.255  
G06  20627646.704       -9455.817        -515.052           0.255  
G07  23532398.043      -21761.761       -1821.578           0.247  
> 2023 05 18 00 00 42.0688020  0  6                     
G02  24424196.034      141457.365        3932.345           0.239  
G03  22275576.784      -16128.293        -577.756           0.255  
G04  23764006.871      -73420.653       -2874.807           0.244  
G05  22529780.778       72331.459        2695.888           0.255  
G06  20627656.357       -9507.331        -515.196           0.255  
G07  23532432.903      -21943.921       -1821.527           0.247  
> 2023 05 18 00 00 42.1688020  0  6                     
G02  24424120.737      141850.602        3932.906           0.239  
G03  22275587.339      -16186.053        -577.618           0.255  
G04  23764061.676      -73708.062       -2874.563           0.244  
G05  22529729.704       72601.109        2695.902           0.255  
G06  20627666.255       -9558.851        -515.003           0.255  
G07  23532467.867      -22126.083       -1821.333           0.247  
> 2023 05 18 00 00 42.2688020  0  6                     
G02  24424045.937      142243.842        3933.108           0.239  
G03  22275598.388      -16243.836        -572.165           0.255  
G04  23764115.966      -73995.472       -2874.313           0.244  
G05  22529678.491       72870.852        2702.594           0.255  
G06  20627676.169       -9610.379        -515.412           0.255  
G07  23532501.978      -22308.257       -1821.569           0.247  
> 2023 05 18 00 00 42.3688020  0  6                     
G02  24423970.979      142637.145        3936.812           0.239  
G03  22275609.599      -16301.598        -572.195           0.255  
G04  23764171.089      -74282.878       -2873.987           0.244  
G05  22529627.157       73140.410        2696.689           0.255  
G06  20627686.069       -9661.905        -515.445           0.255  
G07  23532536.446      -22490.416       -1823.697           0.247  
> 2023 05 18 00 00 42.4688020  0  6                     
G02  24423896.390      143030.318        3932.146           0.239  
G03  22275620.700      -16359.359        -576.756           0.255  
G04  23764225.889      -74570.292       -2873.895           0.244  
G05  22529575.594       73410.052        2696.731           0.255  
G06  20627695.766       -9713.437        -515.307           0.255  
G07  23532571.459      -22672.607       -1821.860           0.247  
> 2023 05 18 00 00 42.5688020  0  6                     
G02  24423821.915      143423.553        3931.875           0.239  
G03  22275631.541      -16417.174        -577.870           0.255  
G04  23764280.139      -74857.706       -2873.665           0.244  
G05  22529524.285       73679.692        2696.664           0.255  
G06  20627705.438       -9764.976        -515.412           0.255  
G07  23532606.526      -22854.705       -1811.183           0.247  
> 2023 05 18 00 00 42.6688020  0  6                     
G02  24423746.766      143816.800        3933.297           0.239  
G03  22275641.888      -16474.883        -566.050           0.255  
G04  23764335.767      -75145.116       -2873.486           0.244  
G05  22529472.810       73949.324        2696.127           0.255  
G06  20627715.552       -9816.520        -515.394           0.255  
G07  23532640.775      -23036.973       -1821.937           0.247  
> 2023 05 18 00 00 42.7688020  0  6                     
G02  24423670.768      144210.027        3932.268           0.239  
G03  22275653.557      -16532.767        -578.026           0.255  
G04  23764390.388      -75432.541       -2874.250           0.244  
G05  22529421.848       74218.961        2696.804           0.255  
G06  20627724.976       -9868.064        -515.324           0.255  
G07  23532675.421      -23219.163       -1821.877           0.247  
> 2023 05 18 00 00 42.8688020  0  6                     
G02  24423597.133      144603.268        3931.931           0.239  
G03  22275664.953      -16590.576        -578.168           0.255  
G04  23764445.224      -75719.964       -2874.830           0.244  
G05  22529370.299       74488.589        2696.602           0.255  
G06  20627734.632       -9919.615        -515.315           0.255  
G07  23532710.086      -23401.352       -1821.512           0.247  
> 2023 05 18 00 00 42.9688020  0  6                     
G02  24423522.633      144996.505        3931.969           0.239  
G03  22275675.599      -16648.389        -578.043           0.255  
G04  23764499.810      -76007.385       -2874.835           0.244  
G05  22529318.787       74758.220        2696.571           0.255  
G06  20627744.584       -9971.172        -515.713           0.255  
G07  23532744.833      -23583.548       -1821.505           0.247  
> 2023 05 18 00 00 43.0688020  0  6                     
G02  24423447.569      145389.747        3932.645           0.239  
G03  22275686.574      -16706.208        -578.088           0.255  
G04  23764554.550      -76294.804       -2874.108           0.244  
G05  22529267.779       75027.844        2696.426           0.255  
G06  20627754.484      -10022.735        -515.798           0.255  
G07  23532779.484      -23765.753       -1821.859           0.247  
> 2023 05 18 00 00 43.1688020  0  6                     
G02  24423372.280      145783.071        3967.910           0.239  
G03  22275697.598      -16764.044        -569.385           0.255  
G04  23764609.177      -76582.225       -2874.423           0.244  
G05  22529216.257       75297.465        2696.117           0.255  
G06  20627764.508      -10074.303        -515.591           0.255  
G07  23532814.134      -23947.960       -1822.698           0.247  
> 2023 05 18 00 00 43.2688020  0  6                     
G02  24423297.009      146176.228        3933.537           0.239  
G03  22275708.632      -16821.866        -578.235           0.255  
G04  23764664.113      -76869.647       -2874.419           0.244  
G05  22529164.616       75567.083        2696.238           0.255  
G06  20627774.377      -10125.873        -515.694           0.255  
G07  23532849.132      -24130.165       -1822.158           0.247  
> 2023 05 18 00 00 43.3688020  0  6                     
G02  24423222.692      146569.457        3931.813           0.239  
G03  22275719.719      -16879.736        -578.511           0.255  
G04  23764718.457      -77157.075       -2873.252           0.244  
G05  22529113.772       75836.785        2713.459           0.255  
G06  20627784.196      -10177.447        -515.676           0.255  
G07  23532883.329      -24312.382       -1822.979           0.247  
> 2023 05 18 00 00 43.4688020  0  6                     
G02  24423148.764      146962.698        3932.408           0.239  
G03  22275730.233      -16937.548        -578.326           0.255  
G04  23764772.554      -77444.503       -2874.112           0.244  
G05  22529062.388       76106.309        2695.836           0.255  
G06  20627794.007      -10229.029        -515.785           0.255  
G07  23532918.207      -24494.589       -1818.994           0.247  
> 2023 05 18 00 00 43.5688020  0  6                     
G02  24423072.997      147355.940        3932.290           0.239  
G03  22275741.768      -16995.398        -578.720           0.255  
G04  23764827.926      -77731.932       -2874.604           0.244  
G05  22529010.721       76375.922        2696.498           0.255  
G06  20627803.746      -10280.617        -515.828           0.255  
G07  23532952.797      -24676.812       -1821.785           0.247  
> 2023 05 18 00 00 43.6688020  0  6                     
G02  24422997.849      147749.330        3980.363           0.239  
G03  22275752.335      -17053.172        -571.771           0.255  
G04  23764883.412      -78019.473       -2882.369           0.244  
G05  22528959.764       76645.383        2681.448           0.255  
G06  20627813.642      -10332.203        -515.753           0.255  
G07  23532987.417      -24859.192       -1827.006           0.247  
> 2023 05 18 00 00 43.7688020  0  6                     
G02  24422923.023      148142.415        3932.632           0.239  
G03  22275763.448      -17111.115        -578.813           0.255  
G04  23764937.354      -78307.205       -2962.410           0.244  
G05  22528908.375       76915.130        2696.265           0.255  
G06  20627823.473      -10383.798        -515.960           0.255  
G07  23533022.383      -25041.259       -1821.572           0.247  
> 2023 05 18 00 00 43.8688020  0  6                     
G02  24422848.453      148535.650        3931.187           0.239  
G03  22275774.781      -17168.986        -578.907           0.255  
G04  23764992.434      -78594.222       -2874.980           0.244  
G05  22528857.031       77184.735        2696.777           0.255  
G06  20627833.234      -10435.395        -515.657           0.255  
G07  23533056.931      -25223.974       -1864.569           0.247  
> 2023 05 18 00 00 43.9688020  0  6                     
G02  24422773.786      148928.890        3931.975           0.239  
G03  22275785.703      -17226.863        -586.883           0.255  
G04  23765046.822      -78881.646       -2875.280           0.244  
G05  22528805.886       77454.260        2691.260           0.255  
G06  20627843.027      -10487.003        -515.943           0.255  
G07  23533091.366      -25405.732       -1822.229           0.247  
> 2023 05 18 00 00 44.0688020  0  6                     
G02  24422698.612      149322.129        3932.481           0.239  
G03  22275796.175      -17284.737        -578.677           0.255  
G04  23765101.536      -79169.087       -2874.966           0.244  
G05  22528755.336       77723.921        2696.080           0.255  
G06  20627853.036      -10538.608        -516.107           0.255  
G07  23533125.899      -25587.959       -1821.835           0.247  
> 2023 05 18 00 00 44.1688020  0  6                     
G02  24422623.877      149715.369        3932.131           0.239  
G03  22275807.637      -17342.626        -578.879           0.255  
G04  23765156.311      -79456.514       -2873.995           0.244  
G05  22528704.283       77993.515        2695.951           0.255  
G06  20627862.222      -10590.219        -516.170           0.255  
G07  23533160.733      -25770.219       -1822.850           0.247  
> 2023 05 18 00 00 44.2688020  0  6                     
G02  24422549.440      150108.605        3932.166           0.239  
G03  22275818.650      -17400.514        -578.499           0.255  
G04  23765210.799      -79743.961       -2874.292           0.244  
G05  22528652.564       78263.016        2675.116           0.255  
G06  20627872.201      -10641.836        -516.093           0.255  
G07  23533195.808      -25952.185       -1784.771           0.247  
> 2023 05 18 00 00 44.3688020  0  6                     
G02  24422474.770      150501.843        3932.426           0.239  
G03  22275829.810      -17458.413        -578.668           0.255  
G04  23765265.988      -80031.401       -2873.476           0.244  
G05  22528601.244       78532.669        2695.445           0.255  
G06  20627882.030      -10693.461        -516.170           0.255  
G07  23533230.278      -26134.708       -1823.813           0.247  
> 2023 05 18 00 00 44.4688020  0  6                     
G02  24422398.869      150895.081        3932.062           0.239  
G03  22275840.917      -17516.318        -578.945           0.255  
G04  23765319.742      -80318.845       -2875.121           0.244  
G05  22528549.515       78802.250        2695.765           0.255  
G06  20627891.842      -10745.083        -516.127           0.255  
G07  23533265.228      -26316.958       -1822.722           0.247  
> 2023 05 18 00 00 44.5688020  0  6                     
G02  24422324.568      151288.316        3931.359           0.239  
G03  22275852.049      -17574.230        -579.281           0.255  
G04  23765374.884      -80606.276       -2874.148           0.244  
G05  22528498.130       79071.832        2695.769           0.255  
G06  20627901.778      -10796.715        -516.347           0.255  
G07  23533299.634      -26499.231       -1822.773           0.247  
> 2023 05 18 00 00 44.6688020  0  6                     
G02  24422249.924      151681.556        3931.911           0.239  
G03  22275863.013      -17632.115        -577.698           0.255  
G04  23765429.361      -80893.733       -2873.602           0.244  
G05  22528446.582       79341.408        2695.775           0.255  
G06  20627911.942      -10848.351        -516.232           0.255  
G07  23533334.272      -26681.362       -1780.408           0.247  
> 2023 05 18 00 00 44.7688020  0  6                     
G02  24422175.548      152074.797        3932.562           0.239  
G03  22275873.685      -17690.125        -590.556           0.255  
G04  23765483.350      -81181.169       -2875.153           0.244  
G05  22528395.069       79610.979        2695.690           0.255  
G06  20627921.660      -10899.996        -516.703           0.255  
G07  23533369.412      -26863.543       -1784.291           0.247  
> 2023 05 18 00 00 44.8688020  0  6                     
G02  24422100.324      152468.044        3933.683           0.239  
G03  22275884.955      -17747.999        -579.236           0.255  
G04  23765538.905      -81468.607       -2872.923           0.244  
G05  22528344.401       79880.548        2695.838           0.255  
G06  20627931.478      -10951.635        -516.473           0.255  
G07  23533403.742      -27046.028       -1823.519           0.247  
> 2023 05 18 00 00 44.9688020  0  6                     
G02  24422025.422      152861.279        3933.286           0.239  
G03  22275896.074      -17805.934        -579.353           0.255  
G04  23765592.354      -81756.056       -2874.029           0.244  
G05  22528292.845       80150.241        2710.287           0.255  
G06  20627941.224      -11003.284        -516.498           0.255  
G07  23533438.632      -27228.403       -1828.581           0.247  
> 2023 05 18 00 00 45.0688020  0  6                     
G02  24421951.053      153254.509        3931.621           0.239  
G03  22275906.762      -17863.875        -579.539           0.255  
G04  23765648.505      -82043.504       -2874.975           0.244  
G05  22528241.570       80419.669        2695.651           0.255  
G06  20627950.949      -11054.938        -516.386           0.255  
G07  23533472.288      -27410.579       -1823.064           0.247  
> 2023 05 18 00 00 45.1688020  0  6                     
G02  24421876.196      153647.748        3932.355           0.239  
G03  22275917.585      -17921.823        -579.422           0.255  
G04  23765703.261      -82330.957       -2875.746           0.244  
G05  22528189.934       80689.229        2695.645           0.255  
G06  20627960.798      -11106.598        -516.414           0.255  
G07  23533507.878      -27592.855       -1821.933           0.247  
> 2023 05 18 00 00 45.2688020  0  6                     
G02  24421801.334      154040.991        3932.526           0.239  
G03  22275929.159      -17979.843        -582.197           0.255  
G04  23765756.683      -82618.396       -2873.935           0.244  
G05  22528139.123       80958.792        2688.792           0.255  
G06  20627970.635      -11158.257        -516.272           0.255  
G07  23533542.578      -27775.206       -1836.047           0.247  
> 2023 05 18 00 00 45.3688020  0  6                     
G02  24421725.991      154434.228        3932.684           0.239  
G03  22275940.090      -18037.733        -579.365           0.255  
G04  23765811.407      -82905.853       -2873.766           0.244  
G05  22528087.816       81228.339        2694.925           0.255  
G06  20627980.536      -11209.926        -516.719           0.255  
G07  23533576.795      -27957.437       -1823.839           0.247  
> 2023 05 18 00 00 45.4688020  0  6                     
G02  24421651.032      154827.550        3929.075           0.239  
G03  22275951.118      -18095.768        -584.937           0.255  
G04  23765866.358      -83193.303       -2875.223           0.244  
G05  22528036.377       81497.821        2689.031           0.255  
G06  20627990.406      -11261.601        -516.876           0.255  
G07  23533611.936      -28139.747       -1812.842           0.247  
> 2023 05 18 00 00 45.5688020  0  6                     
G02  24421576.814      155220.704        3932.281           0.239  
G03  22275961.973      -18153.666        -579.261           0.255  
G04  23765921.288      -83480.755       -2874.209           0.244  
G05  22527984.878       81767.429        2695.780           0.255  
G06  20628000.275      -11313.281        -516.969           0.255  
G07  23533646.942      -28322.019       -1822.621           0.247  
> 2023 05 18 00 00 45.6688020  0  6                     
G02  24421501.359      155613.947        3932.649           0.239  
G03  22275973.339      -18211.684        -574.048           0.255  
G04  23765975.006      -83768.219       -2874.736           0.244  
G05  22527934.183       82036.967        2695.361           0.255  
G06  20628010.038      -11364.964        -516.949           0.255  
G07  23533681.617      -28504.348       -1825.142           0.247  
> 2023 05 18 00 00 45.7688020  0  6                     
G02  24421427.325      156007.184        3932.939           0.239  
G03  22275984.334      -18269.605        -577.622           0.255  
G04  23766030.774      -84055.679       -2874.908           0.244  
G05  22527882.459       82306.514        2695.539           0.255  
G06  20628020.089      -11416.647        -516.830           0.255  
G07  23533715.841      -28686.675       -1837.079           0.247  
> 2023 05 18 00 00 45.8688020  0  6                     
G02  24421351.541      156400.414        3931.845           0.239  
G03  22275995.348      -18327.620        -579.725           0.255  
G04  23766085.627      -84343.133       -2874.010           0.244  
G05  22527831.357       82576.254        2715.614           0.255  
G06  20628029.700      -11468.340        -516.883           0.255  
G07  23533750.526      -28868.934       -1823.418           0.247  
> 2023 05 18 00 00 45.9688020  0  6                     
G02  24421277.254      156793.660        3933.228           0.239  
G03  22276006.192      -18385.618        -579.776           0.255  
G04  23766140.120      -84630.595       -2875.501           0.244  
G05  22527779.968       82845.589        2695.173           0.255  
G06  20628039.511      -11520.036        -516.927           0.255  
G07  23533785.826      -29051.242       -1822.710           0.247  
> 2023 05 18 00 00 46.0688020  0  6                     
G02  24421203.530      157186.904        3933.637           0.239  
G03  22276017.436      -18443.622        -580.002           0.255  
G04  23766195.127      -84918.054       -2874.376           0.244  
G05  22527728.454       83115.121        2695.131           0.255  
G06  20628049.361      -11571.739        -516.914           0.255  
G07  23533820.129      -29233.565       -1823.373           0.247  
> 2023 05 18 00 00 46.1688020  0  6                     
G02  24421127.603      157580.140        3932.726           0.239  
G03  22276028.209      -18501.632        -580.181           0.255  
G04  23766249.837      -85205.510       -2874.149           0.244  
G05  22527677.173       83384.651        2694.923           0.255  
G06  20628059.438      -11623.441        -516.879           0.255  
G07  23533854.481      -29415.884       -1823.484           0.247  
> 2023 05 18 00 00 46.2688020  0  6                     
G02  24421052.594      157973.372        3932.182           0.239  
G03  22276039.328      -18559.644        -579.833           0.255  
G04  23766304.228      -85492.976       -2874.125           0.244  
G05  22527626.163       83654.180        2695.710           0.255  
G06  20628068.994      -11675.152        -517.230           0.255  
G07  23533889.305      -29598.199       -1822.802           0.247  
> 2023 05 18 00 00 46.3688020  0  6                     
G02  24420977.060      158366.583        3931.504           0.239  
G03  22276050.226      -18617.603        -570.752           0.255  
G04  23766358.859      -85780.442       -2874.734           0.244  
G05  22527575.180       83923.706        2695.545           0.255  
G06  20628078.723      -11726.868        -517.272           0.255  
G07  23533924.003      -29780.445       -1794.519           0.247  
> 2023 05 18 00 00 46.4688020  0  6                     
G02  24420902.764      158759.830        3932.579           0.239  
G03  22276061.133      -18675.691        -580.182           0.255  
G04  23766414.075      -86067.902       -2874.690           0.244  
G05  22527523.199       84193.219        2695.202           0.255  
G06  20628088.912      -11778.590        -517.304           0.255  
G07  23533958.484      -29962.861       -1823.226           0.247  
> 2023 05 18 00 00 46.5688020  0  6                     
G02  24420827.980      159153.071        3933.541           0.239  
G03  22276072.459      -18733.723        -580.041           0.255  
G04  23766468.824      -86355.371       -2875.537           0.244  
G05  22527471.991       84462.742        2695.375           0.255  
G06  20628098.624      -11830.311        -517.185           0.255  
G07  23533993.176      -30145.197       -1822.844           0.247  
> 2023 05 18 00 00 46.6688020  0  6                     
G02  24420753.595      159546.313        3932.751           0.240  
G03  22276083.484      -18791.763        -580.412           0.255  
G04  23766523.492      -86642.839       -2875.278           0.244  
G05  22527421.016       84732.256        2695.419           0.255  
G06  20628108.381      -11882.038        -517.428           0.255  
G07  23534028.463      -30327.532       -1823.138           0.247  
> 2023 05 18 00 00 46.7688020  0  6                     
G02  24420678.643      159939.542        3932.326           0.239  
G03  22276094.453      -18849.808        -580.547           0.255  
G04  23766578.242      -86930.317       -2875.460           0.244  
G05  22527369.440       85001.765        2694.877           0.255  
G06  20628118.270      -11933.771        -517.273           0.255  
G07  23534063.503      -30509.872       -1823.140           0.247  
> 2023 05 18 00 00 46.8688020  0  6                     
G02  24420603.901      160332.783        3933.051           0.239  
G03  22276105.493      -18907.859        -580.672           0.255  
G04  23766633.109      -87217.772       -2873.443           0.244  
G05  22527318.228       85271.272        2694.678           0.255  
G06  20628128.106      -11985.514        -517.512           0.255  
G07  23534097.847      -30692.222       -1823.337           0.247  
> 2023 05 18 00 00 46.9688020  0  6                     
G02  24420528.968      160726.025        3933.581           0.239  
G03  22276116.778      -18965.915        -580.425           0.255  
G04  23766687.933      -87505.257       -2874.354           0.244  
G05  22527266.988       85540.783        2694.618           0.255  
G06  20628137.942      -12037.251        -517.386           0.255  
G07  23534131.905      -30874.573       -1823.460           0.247  
> 2023 05 18 00 00 47.0688020  0  6                     
G02  24420454.107      161119.476        3959.391           0.239  
G03  22276127.501      -19023.979        -580.610           0.255  
G04  23766742.570      -87792.727       -2874.312           0.244  
G05  22527216.010       85810.280        2694.850           0.255  
G06  20628147.754      -12088.997        -517.369           0.255  
G07  23534166.948      -31056.931       -1823.718           0.247  
> 2023 05 18 00 00 47.1688020  0  6                     
G02  24420379.973      161512.496        3931.066           0.239  
G03  22276138.685      -19082.049        -580.684           0.255  
G04  23766796.161      -88080.201       -2873.951           0.244  
G05  22527164.410       86079.786        2695.543           0.255  
G06  20628157.839      -12140.751        -517.538           0.255  
G07  23534201.905      -31239.284       -1823.551           0.247  
> 2023 05 18 00 00 47.2688020  0  6                     
G02  24420305.128      161905.741        3932.798           0.239  
G03  22276149.755      -19140.124        -580.899           0.255  
G04  23766852.243      -88367.679       -2874.925           0.244  
G05  22527113.165       86349.431        2706.255           0.255  
G06  20628167.530      -12192.507        -517.364           0.255  
G07  23534236.899      -31421.647       -1824.192           0.247  
> 2023 05 18 00 00 47.3688020  0  6                     
G02  24420230.080      162298.953        3932.622           0.239  
G03  22276160.830      -19198.152        -575.392           0.255  
G04  23766906.578      -88655.155       -2875.001           0.244  
G05  22527062.093       86618.774        2694.829           0.255  
G06  20628177.353      -12244.266        -517.448           0.255  
G07  23534270.968      -31604.014       -1824.209           0.247  
> 2023 05 18 00 00 47.4688020  0  6                     
G02  24420155.946      162692.192        3932.919           0.239  
G03  22276171.726      -19256.298        -580.087           0.255  
G04  23766962.044      -88942.637       -2874.311           0.244  
G05  22527010.744       86888.258        2694.692           0.255  
G06  20628187.264      -12296.029        -517.510           0.255  
G07  23534305.755      -31786.380       -1823.503           0.247  
> 2023 05 18 00 00 47.5688020  0  6                     
G02  24420080.178      163085.429        3931.634           0.239  
G03  22276182.763      -19314.387        -580.873           0.255  
G04  23767017.244      -89230.116       -2874.081           0.244  
G05  22526959.316       87157.752        2695.013           0.255  
G06  20628197.018      -12347.801        -517.694           0.255  
G07  23534340.593      -31968.750       -1823.236           0.247  
> 2023 05 18 00 00 47.6688020  0  6                     
G02  24420005.159      163478.665        3932.599           0.239  
G03  22276193.951      -19372.488        -581.023           0.255  
G04  23767070.417      -89517.600       -2874.872           0.244  
G05  22526908.067       87427.234        2695.243           0.255  
G06  20628206.966      -12399.576        -517.615           0.255  
G07  23534375.496      -32151.131       -1823.452           0.247  
> 2023 05 18 00 00 47.7688020  0  6                     
G02  24419930.025      163871.891        3932.936           0.239  
G03  22276204.954      -19430.595        -581.104           0.255  
G04  23767124.336      -89805.080       -2874.851           0.244  
G05  22526856.865       87696.712        2694.659           0.255  
G06  20628216.654      -12451.360        -517.793           0.255  
G07  23534410.117      -32333.509       -1823.544           0.247  
> 2023 05 18 00 00 47.8688020  0  6                     
G02  24419855.645      164265.122        3931.918           0.239  
G03  22276216.208      -19488.704        -581.131           0.255  
G04  23767179.133      -90092.561       -2874.600           0.244  
G05  22526805.514       87966.190        2694.712           0.255  
G06  20628226.652      -12503.141        -517.691           0.255  
G07  23534444.839      -32515.899       -1824.254           0.247  
> 2023 05 18 00 00 47.9688020  0  6                     
G02  24419780.773      164658.363        3932.772           0.239  
G03  22276227.265      -19546.825        -581.243           0.255  
G04  23767234.333      -90380.049       -2875.444           0.244  
G05  22526754.321       88235.670        2694.958           0.255  
G06  20628236.419      -12554.930        -517.852           0.255  
G07  23534479.517      -32698.280       -1823.986           0.247  
> 2023 05 18 00 00 48.0688020  0  6                     
G02  24419705.333      165051.599        3932.134           0.239  
G03  22276238.025      -19604.947        -581.066           0.255  
G04  23767288.793      -90667.536       -2874.754           0.244  
G05  22526703.003       88505.138        2694.762           0.255  
G06  20628246.604      -12606.726        -518.007           0.255  
G07  23534513.876      -32880.674       -1824.199           0.247  
> 2023 05 18 00 00 48.1688020  0  6                     
G02  24419631.758      165444.839        3932.186           0.239  
G03  22276249.297      -19663.079        -581.280           0.255  
G04  23767344.857      -90955.026       -2874.761           0.244  
G05  22526651.922       88774.612        2695.103           0.255  
G06  20628256.261      -12658.527        -518.020           0.255  
G07  23534548.580      -33063.067       -1823.741           0.247  
> 2023 05 18 00 00 48.2688020  0  6                     
