     3.03           OBSERVATION DATA    M: Mixed            RINEX VERSION / TYPE
GNSS-SDRLIB v1.1                        20230710 132649 UTC PGM / RUN BY / DATE 
                                                            MARKER NAME         
                                                            MARKER NUMBER       
                                                            MARKER TYPE         
                                                            OBSERVER / AGENCY   
GNSS-SDRLIB         GNSS-SDRLIB         1.1                 REC # / TYPE / VERS 
                                                            ANT # / TYPE        
        0.0000        0.0000        0.0000                  APPROX POSITION XYZ 
        0.0000        0.0000        0.0000                  ANTENNA: DELTA H/E/N
G    4 C1C L1C D1C S1C                                      SYS / # / OBS TYPES 
R    4 C1C L1C D1C S1C                                      SYS / # / OBS TYPES 
E    4 C1C L1C D1C S1C                                      SYS / # / OBS TYPES 
J    4 C1C L1C D1C S1C                                      SYS / # / OBS TYPES 
S    4 C1C L1C D1C S1C                                      SYS / # / OBS TYPES 
C    4 C1C L1C D1C S1C                                      SYS / # / OBS TYPES 
I    4 C1C L1C D1C S1C                                      SYS / # / OBS TYPES 
  1970    01    01    00    00   00.0000000     GPS         TIME OF FIRST OBS   
  1970    01    01    00    00   00.0000000     GPS         TIME OF LAST OBS    
G L1C                                                       SYS / PHASE SHIFT   
R L1C                                                       SYS / PHASE SHIFT   
E L1C  0.00000                                              SYS / PHASE SHIFT   
J L1C                                                       SYS / PHASE SHIFT   
S L1C                                                       SYS / PHASE SHIFT   
C L1C  0.00000                                              SYS / PHASE SHIFT   
I L1C  0.00000                                              SYS / PHASE SHIFT   
  0                                                         GLONASS SLOT / FRQ #
 C1C    0.000 C1P    0.000 C2C    0.000 C2P    0.000        GLONASS COD/PHS/BIS 
                                                            END OF HEADER       
> 2023 05 18 00 00 36.0688020  0  2                     
G04  21387277.828      -97747.407       -4880.151           0.144  
G09  20632825.628      -69005.353       -4178.599           0.152  
> 2023 05 18 00 00 36.0688020  0  4                     
G04  23769661.742      -97708.623       -4878.530           0.144  
G06  20636001.722      -60213.416       -3114.437           0.174  
G07  23539294.269      -76023.652       -4089.021           0.147  
G09  23015209.541      -68972.147       -4178.597           0.152  
> 2023 05 18 00 00 36.0688020  0  5                     
G03  22283853.892      -65426.327       -3158.353           0.162  
G04  23769661.742      -97708.623       -4878.530           0.144  
G06  20636001.722      -60213.416       -3114.437           0.174  
G07  23539294.269      -76023.652       -4089.021           0.147  
G09  23015209.541      -68972.147       -4178.597           0.152  
> 2023 05 18 00 00 36.0688020  0  6                     
G03  22283853.892      -65426.327       -3158.353           0.162  
G04  23769661.742      -97708.623       -4878.530           0.144  
G05  22541797.499      -13895.578        -716.526           0.157  
G06  20636001.722      -60213.416       -3114.437           0.174  
G07  23539294.269      -76023.652       -4089.021           0.147  
G09  23015209.541      -68972.147       -4178.597           0.152  
> 2023 05 18 00 00 36.0688020  0  7                     
G02  24437627.362        5049.810         205.820           0.139  
G03  22283853.892      -65426.327       -3158.353           0.162  
G04  23769661.742      -97708.623       -4878.530           0.144  
G05  22541797.499      -13895.578        -716.526           0.157  
G06  20636001.722      -60213.416       -3114.437           0.174  
G07  23539294.269      -76023.652       -4089.021           0.147  
G09  23015209.541      -68972.147       -4178.597           0.152  
> 2023 05 18 00 00 36.1688020  0  7                     
G02  24437620.147        5069.887         202.374           0.138  
G03  22283932.781      -65742.772       -3163.606           0.160  
G04  23769787.560      -98196.751       -4879.436           0.143  
G05  22541814.021      -13967.299        -744.551           0.158  
G06  20636079.692      -60525.248       -3117.741           0.174  
G07  23539398.241      -76433.800       -4139.279           0.147  
G09  23015315.272      -69390.473       -4283.476           0.150  
> 2023 05 18 00 00 36.2688020  0  7                     
G02  24437613.540        5089.837         197.369           0.139  
G03  22284012.502      -66059.297       -3167.264           0.161  
G04  23769912.996      -98684.999       -4883.962           0.144  
G05  22541834.149      -14039.817        -725.492           0.157  
G06  20636159.943      -60837.180       -3121.807           0.174  
G07  23539497.873      -76842.631       -4097.758           0.147  
G09  23015424.909      -69808.302       -4185.791           0.151  
> 2023 05 18 00 00 36.3688020  0  7                     
G02  24437608.094        5109.758         199.469           0.139  
G03  22284094.724      -66375.913       -3165.603           0.161  
G04  23770036.381      -99173.284       -4882.242           0.143  
G05  22541851.186      -14112.087        -724.370           0.158  
G06  20636238.496      -61149.192       -3118.362           0.174  
G07  23539602.987      -77252.243       -4097.098           0.147  
G09  23015526.896      -70226.468       -4181.354           0.151  
> 2023 05 18 00 00 36.4688020  0  7                     
G02  24437601.543        5130.164         204.551           0.138  
G03  22284176.962      -66692.000       -3158.910           0.160  
G04  23770161.596      -99661.077       -4874.695           0.142  
G05  22541870.004      -14183.767        -716.028           0.156  
G06  20636317.583      -61460.678       -3111.762           0.173  
G07  23539708.889      -77661.316       -4088.964           0.146  
G09  23015633.395      -70644.171       -4175.687           0.151  
> 2023 05 18 00 00 36.5688020  0  7                     
G02  24437598.934        5150.843         206.417           0.137  
G03  22284257.160      -67007.877       -3156.485           0.160  
G04  23770287.680     -100148.640       -4874.414           0.142  
G05  22541887.193      -14255.389        -760.920           0.156  
G06  20636398.439      -61771.968       -3112.542           0.173  
G07  23539812.266      -78070.191       -4086.719           0.145  
G09  23015739.377      -71061.617       -4175.786           0.151  
> 2023 05 18 00 00 36.6688020  0  7                     
G02  24437594.096        5171.496         208.108           0.138  
G03  22284338.655      -67323.779       -3156.928           0.160  
G04  23770408.748     -100636.207       -4871.569           0.142  
G05  22541902.582      -14326.822        -714.733           0.157  
G06  20636477.675      -62083.249       -3110.561           0.173  
G07  23539917.755      -78479.085       -4088.110           0.146  
G09  23015846.469      -71479.129       -4175.176           0.150  
> 2023 05 18 00 00 36.7688020  0  7                     
G02  24437584.678        5192.073         206.898           0.137  
G03  22284416.713      -67639.744       -3159.355           0.159  
G04  23770533.983     -101123.878       -4875.968           0.142  
G05  22541924.153      -14398.422        -716.345           0.156  
G06  20636557.527      -62394.624       -3114.457           0.172  
G07  23540021.499      -78888.068       -4090.028           0.145  
G09  23015950.640      -71896.691       -4179.052           0.149  
> 2023 05 18 00 00 36.8688020  0  7                     
G02  24437578.501        5212.126         197.498           0.136  
G03  22284496.536      -67956.241       -3168.387           0.159  
G04  23770657.174     -101612.047       -4882.212           0.142  
G05  22541940.150      -14470.499        -725.012           0.156  
G06  20636633.943      -62706.490       -3120.980           0.173  
G07  23540127.423      -79297.539       -4099.213           0.145  
G09  23016060.990      -72314.721       -4184.491           0.149  
> 2023 05 18 00 00 36.9688020  0  7                     
G02  24437574.209        5232.200         203.330           0.136  
G03  22284577.858      -68272.708       -3162.323           0.159  
G04  23770781.719     -102100.206       -4878.267           0.143  
G05  22541959.287      -14542.590        -716.872           0.156  
G06  20636714.647      -63018.369       -3114.856           0.173  
G07  23540228.374      -79707.012       -4094.087           0.146  
G09  23016166.203      -72732.772       -4179.944           0.150  
> 2023 05 18 00 00 37.0688020  0  7                     
G02  24437573.324        5252.564         203.136           0.138  
G03  22284658.479      -68588.605       -3170.074           0.160  
G04  23770904.890     -102588.061       -4880.336           0.142  
G05  22541976.531      -14614.401        -716.840           0.156  
G06  20636791.046      -63329.968       -3116.877           0.173  
G07  23540333.548      -80116.149       -4091.909           0.145  
G09  23016270.122      -73150.509       -4179.107           0.149  
> 2023 05 18 00 00 37.1688020  0  7                     
G02  24437566.246        5272.854         199.515           0.138  
G03  22284738.550      -68905.140       -3163.124           0.160  
G04  23771030.058     -103075.986       -4881.255           0.142  
G05  22541993.760      -14686.242        -717.452           0.157  
G06  20636873.014      -63641.595       -3116.297           0.173  
G07  23540435.618      -80525.407       -4093.391           0.145  
G09  23016378.309      -73568.303       -4176.215           0.150  
> 2023 05 18 00 00 37.2688020  0  7                     
G02  24437559.536        5293.165         201.344           0.138  
G03  22284815.959      -69221.381       -3162.094           0.159  
G04  23771156.351     -103563.871       -4877.814           0.142  
G05  22542014.325      -14758.123        -716.601           0.157  
G06  20636951.295      -63953.239       -3116.712           0.172  
G07  23540540.830      -80934.612       -4093.977           0.145  
G09  23016484.131      -73986.138       -4177.859           0.149  
> 2023 05 18 00 00 37.3688020  0  7                     
G02  24437558.640        5313.590         206.246           0.137  
G03  22284897.338      -69537.560       -3163.124           0.160  
G04  23771278.722     -104051.721       -4877.629           0.142  
G05  22542031.195      -14829.865        -713.729           0.156  
G06  20637031.049      -64264.770       -3113.260           0.173  
G07  23540644.587      -81343.807       -4095.949           0.145  
G09  23016590.504      -74403.832       -4175.602           0.149  
> 2023 05 18 00 00 37.4688020  0  7                     
G02  24437552.988        5334.127         205.216           0.137  
G03  22284980.331      -69853.588       -3163.277           0.159  
G04  23771402.487     -104539.382       -4879.632           0.142  
G05  22542049.946      -14901.551        -719.311           0.156  
G06  20637110.233      -64576.195       -3116.304           0.172  
G07  23540746.360      -81752.790       -4093.817           0.146  
G09  23016696.343      -74821.452       -4180.216           0.149  
> 2023 05 18 00 00 37.5688020  0  7                     
G02  24437544.833        5353.892         199.736           0.136  
G03  22285062.096      -70170.351       -3164.969           0.159  
G04  23771527.141     -105027.826       -4882.772           0.142  
G05  22542066.393      -14973.954        -724.097           0.157  
G06  20637189.701      -64888.365       -3118.985           0.172  
G07  23540853.101      -82162.547       -4100.064           0.144  
G09  23016803.916      -75239.772       -4181.064           0.148  
> 2023 05 18 00 00 37.6688020  0  7                     
G02  24437540.297        5374.099         202.511           0.137  
G03  22285142.028      -70486.743       -3160.719           0.160  
G04  23771651.642     -105515.836       -4878.158           0.143  
G05  22542088.043      -15045.906        -721.847           0.156  
G06  20637270.725      -65200.131       -3115.655           0.173  
G07  23540956.615      -82571.920       -4093.449           0.145  
G09  23016908.054      -75657.670       -4179.905           0.149  
> 2023 05 18 00 00 37.7688020  0  7                     
G02  24437534.669        5394.495         203.343           0.137  
G03  22285222.471      -70802.950       -3160.196           0.159  
G04  23771774.954     -106003.708       -4876.788           0.142  
G05  22542104.487      -15117.716        -717.588           0.155  
G06  20637348.043      -65511.725       -3113.645           0.173  
G07  23541060.246      -82981.055       -4089.478           0.146  
G09  23017011.848      -76075.419       -4173.370           0.150  
> 2023 05 18 00 00 37.8688020  0  7                     
G02  24437528.195        5415.141         208.167           0.137  
G03  22285303.975      -71118.908       -3158.591           0.159  
G04  23771902.634     -106491.304       -4876.235           0.142  
G05  22542121.403      -15188.760        -735.409           0.157  
G06  20637426.986      -65823.058       -3111.933           0.173  
G07  23541169.968      -83390.060       -4163.015           0.146  
G09  23017122.566      -76492.452       -4149.502           0.150  
> 2023 05 18 00 00 37.9688020  0  7                     
G02  24437525.316        5435.726         205.534           0.136  
G03  22285383.377      -71434.879       -3159.430           0.160  
G04  23772023.919     -106978.920       -4875.524           0.142  
G05  22542139.852      -15260.804        -716.914           0.156  
G06  20637505.330      -66134.419       -3114.045           0.173  
G07  23541272.503      -83798.925       -4091.261           0.145  
G09  23017228.808      -76910.393       -4176.613           0.150  
> 2023 05 18 00 00 38.0688020  0  7                     
G02  24437518.673        5456.238         205.293           0.138  
G03  22285462.138      -71751.000       -3163.593           0.160  
G04  23772148.416     -107466.670       -4878.472           0.143  
G05  22542156.627      -15332.505        -716.728           0.155  
G06  20637587.566      -66445.928       -3115.818           0.173  
G07  23541373.081      -84208.008       -4092.174           0.146  
G09  23017332.153      -77328.053       -4177.902           0.149  
> 2023 05 18 00 00 38.1688020  0  7                     
G02  24437513.641        5476.754         205.300           0.138  
G03  22285541.080      -72067.061       -3161.001           0.160  
G04  23772269.911     -107954.369       -4876.360           0.142  
G05  22542177.844      -15404.172        -713.323           0.155  
G06  20637664.289      -66757.361       -3113.586           0.173  
G07  23541477.413      -84617.036       -4090.008           0.145  
G09  23017439.915      -77745.652       -4176.532           0.150  
> 2023 05 18 00 00 38.2688020  0  7                     
G02  24437510.035        5496.841         196.875           0.137  
G03  22285621.039      -72383.590       -3170.626           0.160  
G04  23772391.691     -108442.525       -4885.926           0.142  
G05  22542194.258      -15476.291        -726.046           0.155  
G06  20637743.905      -67069.266       -3124.038           0.172  
G07  23541580.925      -85026.518       -4097.894           0.145  
G09  23017545.827      -78163.682       -4185.337           0.150  
> 2023 05 18 00 00 38.3688020  0  7                     
G02  24437502.241        5516.122         190.299           0.137  
G03  22285700.203      -72700.911       -3173.448           0.159  
G04  23772520.174     -108931.464       -4889.688           0.142  
G05  22542214.172      -15549.207        -731.675           0.155  
G06  20637822.101      -67381.971       -3128.132           0.173  
G07  23541687.581      -85436.830       -4104.383           0.144  
G09  23017649.486      -78582.500       -4187.496           0.148  
> 2023 05 18 00 00 38.4688020  0  7                     
G02  24437495.264        5535.770         198.783           0.137  
G03  22285783.124      -73017.875       -3168.246           0.159  
G04  23772643.766     -109420.030       -4883.284           0.142  
G05  22542230.197      -15621.746        -725.792           0.155  
G06  20637903.112      -67694.305       -3124.391           0.172  
G07  23541789.751      -85846.739       -4098.981           0.145  
G09  23017759.799      -79000.985       -4182.631           0.149  
> 2023 05 18 00 00 38.5688020  0  7                     
G02  24437492.968        5555.929         207.394           0.137  
G03  22285865.854      -73334.066       -3149.213           0.159  
G04  23772770.355     -109908.145       -4878.474           0.142  
G05  22542249.971      -15693.444        -575.735           0.156  
G06  20637981.539      -68006.135       -3113.770           0.172  
G07  23541892.654      -86256.176       -4091.128           0.145  
G09  23017867.395      -79418.721       -4136.175           0.149  
> 2023 05 18 00 00 38.6688020  0  7                     
G02  24437485.492        5576.729         211.530           0.137  
G03  22285945.317      -73650.171       -3157.198           0.159  
G04  23772891.811     -110395.571       -4874.062           0.142  
G05  22542268.725      -15765.209        -710.386           0.157  
G06  20638062.467      -68317.332       -3110.012           0.172  
G07  23541999.288      -86664.954       -4082.415           0.145  
G09  23017968.850      -79836.288       -4170.958           0.149  
> 2023 05 18 00 00 38.7688020  0  7                     
G02  24437481.494        5597.319         202.323           0.137  
G03  22286025.758      -73966.208       -3164.077           0.159  
G04  23773013.909     -110883.213       -4880.085           0.141  
G05  22542285.222      -15836.844        -717.095           0.156  
G06  20638138.222      -68628.757       -3117.735           0.173  
G07  23542101.639      -87073.956       -4090.217           0.145  
G09  23018079.011      -80253.839       -4176.835           0.149  
> 2023 05 18 00 00 38.8688020  0  7                     
G02  24437475.282        5617.493         204.096           0.137  
G03  22286105.092      -74282.671       -3162.862           0.159  
G04  23773138.856     -111371.278       -4879.520           0.142  
G05  22542303.350      -15908.897        -719.956           0.157  
G06  20638218.718      -68940.594       -3117.263           0.173  
G07  23542205.081      -87483.376       -4089.322           0.145  
G09  23018187.144      -80671.808       -4176.337           0.149  
> 2023 05 18 00 00 38.9688020  0  7                     
G02  24437469.222        5637.936         206.691           0.137  
G03  22286186.576      -74598.882       -3159.817           0.160  
G04  23773265.936     -111859.093       -4874.988           0.142  
G05  22542321.292      -15980.695        -716.168           0.156  
G06  20638299.339      -69252.193       -3115.170           0.173  
G07  23542312.813      -87892.560       -4091.125           0.145  
G09  23018291.968      -81089.532       -4176.199           0.150  
> 2023 05 18 00 00 39.0688020  0  7                     
G02  24437463.134        5658.573         211.562           0.136  
G03  22286266.455      -74914.867       -3160.105           0.160  
G04  23773389.935     -112346.684       -4873.342           0.142  
G05  22542339.825      -16052.211        -715.385           0.156  
G06  20638377.892      -69563.535       -3112.719           0.173  
G07  23542415.891      -88301.272       -4127.168           0.145  
G09  23018389.692      -81506.999       -4176.045           0.150  
> 2023 05 18 00 00 39.1688020  0  7                     
G02  24437456.712        5679.246         206.165           0.137  
G03  22286348.640      -75230.822       -3159.407           0.160  
G04  23773513.298     -112834.230       -4874.605           0.142  
G05  22542357.129      -16123.751        -716.362           0.157  
G06  20638458.667      -69874.870       -3114.149           0.173  
G07  23542516.393      -88710.422       -4090.445           0.146  
G09  23018503.855      -81924.462       -4175.439           0.150  
> 2023 05 18 00 00 39.2688020  0  7                     
G02  24437451.421        5699.932         205.746           0.137  
G03  22286425.363      -75546.815       -3159.649           0.160  
G04  23773637.282     -113321.821       -4875.225           0.143  
G05  22542376.700      -16195.334        -715.443           0.156  
G06  20638536.206      -70186.218       -3114.074           0.173  
G07  23542622.373      -89119.367       -4090.922           0.145  
G09  23018608.665      -82341.951       -4177.137           0.150  
> 2023 05 18 00 00 39.3688020  0  7                     
G02  24437446.150        5720.433         201.697           0.138  
G03  22286506.387      -75862.925       -3161.685           0.160  
G04  23773760.265     -113809.518       -4875.646           0.142  
G05  22542393.050      -16267.002        -716.857           0.155  
G06  20638615.561      -70497.731       -3115.162           0.173  
G07  23542726.496      -89528.424       -4092.962           0.145  
G09  23018714.842      -82759.520       -4176.839           0.150  
> 2023 05 18 00 00 39.4688020  0  7                     
G02  24437439.483        5740.955         201.828           0.138  
G03  22286583.878      -76179.054       -3122.767           0.160  
G04  23773886.081     -114297.269       -4877.529           0.142  
G05  22542411.363      -16338.684        -715.539           0.156  
G06  20638693.250      -70809.240       -3113.816           0.173  
G07  23542829.840      -89937.524       -4092.765           0.145  
G09  23018821.775      -83177.367       -4139.612           0.150  
> 2023 05 18 00 00 39.5688020  0  7                     
G02  24437437.582        5761.509         204.144           0.136  
G03  22286665.693      -76495.229       -3161.465           0.160  
G04  23774009.710     -114784.988       -4878.319           0.143  
G05  22542429.182      -16410.397        -716.074           0.156  
G06  20638772.038      -71120.755       -3115.126           0.173  
G07  23542932.519      -90346.603       -4092.891           0.146  
G09  23018929.986      -83594.759       -4173.763           0.149  
> 2023 05 18 00 00 39.6688020  0  7                     
G02  24437430.852        5782.071         207.461           0.137  
G03  22286745.944      -76811.329       -3161.267           0.160  
G04  23774133.585     -115272.657       -4876.151           0.142  
G05  22542446.902      -16482.050        -716.892           0.156  
G06  20638851.478      -71432.222       -3114.146           0.173  
G07  23543041.100      -90755.621       -4087.652           0.145  
G09  23019032.637      -84012.318       -4173.550           0.149  
> 2023 05 18 00 00 39.7688020  0  7                     
G02  24437425.303        5802.801         208.992           0.139  
G03  22286827.210      -77127.065       -3087.379           0.160  
G04  23774257.662     -115760.153       -4873.760           0.142  
G05  22542465.268      -16553.655        -738.768           0.156  
G06  20638931.166      -71743.508       -3112.361           0.173  
G07  23543140.940      -91165.059       -4196.812           0.145  
G09  23019140.288      -84429.719       -4172.914           0.150  
> 2023 05 18 00 00 39.8688020  0  7                     
G02  24437422.451        5823.586         204.754           0.137  
G03  22286908.570      -77443.123       -3157.242           0.159  
G04  23774382.485     -116247.601       -4872.748           0.142  
G05  22542484.381      -16625.007        -714.956           0.156  
G06  20639010.997      -72054.758       -3112.751           0.173  
G07  23543245.801      -91573.667       -4098.430           0.146  
G09  23019246.220      -84847.094       -4174.506           0.149  
> 2023 05 18 00 00 39.9688020  0  7                     
G02  24437417.116        5844.394         203.939           0.137  
G03  22286989.957      -77759.038       -3161.620           0.160  
G04  23774503.374     -116735.068       -4877.333           0.142  
G05  22542501.586      -16696.445        -716.194           0.157  
G06  20639088.701      -72366.005       -3113.515           0.173  
G07  23543349.840      -91982.140       -4088.087           0.146  
G09  23019350.462      -85264.463       -4176.387           0.150  
> 2023 05 18 00 00 40.0688020  0  7                     
G02  24437410.239        5864.999         206.676           0.137  
G03  22287070.910      -78075.136       -3161.635           0.159  
G04  23774624.398     -117222.737       -4877.310           0.143  
G05  22542520.025      -16768.088        -718.136           0.157  
G06  20639169.041      -72677.465       -3116.185           0.172  
G07  23543455.009      -92391.208       -4094.214           0.145  
G09  23019458.463      -85681.992       -4176.956           0.149  
> 2023 05 18 00 00 40.1688020  0  7                     
G02  24437402.938        5885.233         205.030           0.136  
G03  22287149.615      -78391.578       -3165.596           0.160  
G04  23774750.552     -117710.753       -4882.153           0.142  
G05  22542538.340      -16840.098        -722.964           0.156  
G06  20639248.441      -72989.274       -3119.607           0.173  
G07  23543556.045      -92800.572       -4096.201           0.146  
G09  23019563.675      -86099.879       -4178.604           0.150  
> 2023 05 18 00 00 40.2688020  0  7                     
G02  24437396.952        5905.167         201.026           0.136  
G03  22287231.605      -78708.367       -3167.374           0.160  
G04  23774877.715     -118199.083       -4883.823           0.142  
G05  22542557.630      -16912.660        -830.402           0.156  
G06  20639328.663      -73301.409       -3121.246           0.173  
G07  23543661.272      -93210.915       -4120.621           0.145  
G09  23019669.973      -86518.151       -4169.520           0.149  
> 2023 05 18 00 00 40.3688020  0  7                     
G02  24437395.070        5925.010         200.156           0.137  
G03  22287309.962      -79025.164       -3165.885           0.159  
G04  23775000.867     -118687.463       -4883.287           0.142  
G05  22542572.450      -16984.775        -724.767           0.156  
G06  20639407.285      -73613.576       -3120.441           0.173  
G07  23543767.713      -93620.042       -4097.854           0.145  
G09  23019778.502      -86936.363       -4181.329           0.150  
> 2023 05 18 00 00 40.4688020  0  7                     
G02  24437386.262        5944.998         195.560           0.137  
G03  22287389.510      -79341.887       -3165.616           0.160  
G04  23775125.386     -119175.721       -4881.679           0.142  
G05  22542590.950      -17057.016        -724.024           0.156  
G06  20639487.588      -73925.652       -3121.222           0.173  
G07  23543872.391      -94029.688       -4096.562           0.145  
G09  23019882.635      -87354.514       -4181.582           0.151  
> 2023 05 18 00 00 40.5688020  0  7                     
G02  24437382.540        5964.306         187.575           0.137  
G03  22287469.151      -79659.304       -3178.500           0.159  
G04  23775249.900     -119664.689       -4893.692           0.143  
G05  22542610.808      -17130.421        -866.606           0.158  
G06  20639565.295      -74238.420       -3131.217           0.172  
G07  23543975.365      -94440.120       -4070.538           0.146  
G09  23019989.364      -87773.732       -4234.503           0.150  
> 2023 05 18 00 00 40.6688020  0  7                     
G02  24437381.708        5983.158         190.408           0.137  
G03  22287551.005      -79977.178       -3174.251           0.160  
G04  23775372.918     -120154.099       -4891.756           0.141  
G05  22542631.019      -17203.365        -731.571           0.157  
G06  20639645.389      -74551.655       -3130.373           0.172  
G07  23544079.770      -94850.840       -4107.654           0.146  
G09  23020093.553      -88192.660       -4190.417           0.150  
> 2023 05 18 00 00 40.7688020  0  7                     
G02  24437376.956        6002.692         200.823           0.135  
G03  22287633.661      -80294.411       -3168.614           0.159  
G04  23775499.348     -120642.856       -4882.834           0.141  
G05  22542649.355      -17276.117        -725.105           0.155  
G06  20639724.139      -74864.220       -3121.973           0.172  
G07  23544184.400      -95260.955       -4097.957           0.144  
G09  23020202.571      -88611.291       -4180.916           0.148  
> 2023 05 18 00 00 40.8688020  0  7                     
G02  24437373.102        6022.404         195.066           0.136  
G03  22287712.470      -80611.374       -3172.973           0.159  
G04  23775620.383     -121131.354       -4883.969           0.142  
G05  22542664.101      -17348.605        -727.265           0.155  
G06  20639806.430      -75176.549       -3124.638           0.172  
G07  23544285.364      -95670.855       -4102.208           0.144  
G09  23020311.308      -89029.703       -4183.873           0.149  
> 2023 05 18 00 00 40.9688020  0  7                     
G02  24437364.256        6042.766         206.068           0.136  
G03  22287794.342      -80927.720       -3161.110           0.158  
G04  23775743.321     -121619.245       -4873.686           0.141  
G05  22542684.406      -17420.527        -715.779           0.156  
G06  20639882.654      -75488.247       -3112.992           0.172  
G07  23544392.795      -96080.126       -4088.290           0.143  
G09  23020413.485      -89447.482       -4170.631           0.147  
> 2023 05 18 00 00 41.0688020  0  7                     
G02  24437358.402        6063.577         207.569           0.136  
G03  22287873.973      -81243.657       -3158.579           0.159  
G04  23775866.946     -122106.729       -4873.388           0.141  
G05  22542703.841      -17492.020        -717.697           0.156  
G06  20639962.466      -75799.544       -3112.295           0.172  
G07  23544497.450      -96489.008       -4089.315           0.146  
G09  23020520.251      -89864.858       -4174.214           0.150  
> 2023 05 18 00 00 41.1688020  0  7                     
G02  24437351.167        6084.291         206.942           0.137  
G03  22287956.070      -81559.687       -3161.429           0.159  
G04  23775994.322     -122594.254       -4873.890           0.142  
G05  22542720.584      -17563.564        -717.434           0.155  
G06  20640040.836      -76110.916       -3112.970           0.173  
G07  23544600.051      -96897.940       -4090.418           0.145  
G09  23020627.425      -90282.305       -4174.982           0.150  
> 2023 05 18 00 00 41.2688020  0  7                     
G02  24437346.147        6105.025         208.847           0.137  
G03  22288034.156      -81875.674       -3159.527           0.159  
G04  23776120.795     -123081.774       -4872.293           0.141  
G05  22542736.324      -17635.081        -714.580           0.154  
G06  20640119.185      -76422.267       -3113.101           0.170  
G07  23544702.534      -97306.857       -4087.150           0.144  
G09  23020734.391      -90699.730       -4174.570           0.148  
> 2023 05 18 00 00 41.3688020  0  7                     
G02  24437341.935        6125.901         209.719           0.134  
G03  22288117.809      -82191.524       -3156.995           0.157  
G04  23776244.997     -123569.140       -4869.827           0.140  
G05  22542756.381      -17706.444        -667.996           0.153  
G06  20640199.503      -76733.455       -3110.125           0.168  
G07  23544809.747      -97715.946       -4149.953           0.142  
G09  23020840.441      -91116.987       -4173.642           0.147  
> 2023 05 18 00 00 41.4688020  0  7                     
G02  24437336.260        6146.300         193.002           0.132  
G03  22288195.010      -82507.756       -3098.983           0.156  
G04  23776369.649     -124057.003       -4888.563           0.138  
G05  22542776.068      -17778.238        -652.417           0.151  
G06  20640278.739      -77045.145       -3126.034           0.168  
G07  23544913.481      -98124.849       -4099.716           0.141  
G09  23020946.961      -91534.614       -4219.934           0.145  
> 2023 05 18 00 00 41.5688020  0  7                     
G02  24437331.480        6166.320         204.078           0.133  
G03  22288275.667      -82824.635       -3161.989           0.155  
G04  23776491.773     -124545.281       -4880.592           0.137  
G05  22542793.826      -17850.541        -716.753           0.152  
G06  20640359.554      -77357.244       -3117.586           0.168  
G07  23545014.753      -98534.546       -4092.488           0.141  
G09  23021051.961      -91952.858       -4178.013           0.146  
> 2023 05 18 00 00 41.6688020  0  7                     
G02  24437323.300        6186.893         204.893           0.134  
G03  22288352.471      -83140.831       -3162.352           0.156  
G04  23776617.469     -125032.972       -4876.656           0.139  
G05  22542811.533      -17922.268        -716.796           0.155  
G06  20640438.405      -77668.786       -3115.815           0.170  
G07  23545119.063      -98943.582       -4086.831           0.141  
G09  23021158.951      -92370.488       -4176.002           0.146  
> 2023 05 18 00 00 41.7688020  0  7                     
G02  24437317.516        6207.517         205.485           0.134  
G03  22288436.711      -83456.975       -3161.694           0.157  
G04  23776736.778     -125520.631       -4875.850           0.139  
G05  22542827.152      -17993.941        -718.200           0.154  
G06  20640519.792      -77980.250       -3114.920           0.170  
G07  23545227.016      -99352.684       -4089.393           0.144  
G09  23021265.893      -92787.992       -4174.795           0.147  
> 2023 05 18 00 00 41.8688020  0  7                     
G02  24437310.267        6227.442         193.599           0.134  
G03  22288518.557      -83773.832       -3172.852           0.157  
G04  23776865.052     -126008.984       -4888.112           0.139  
G05  22542846.703      -18066.307        -728.592           0.154  
G06  20640595.096      -78292.476       -3127.300           0.170  
G07  23545329.370      -99762.401       -4100.303           0.142  
G09  23021372.391      -93206.225       -4186.796           0.147  
> 2023 05 18 00 00 41.9688020  0  7                     
G02  24437307.521        6247.556         203.785           0.134  
G03  22288597.684      -84090.475       -3163.674           0.157  
G04  23776989.300     -126497.112       -4876.807           0.140  
G05  22542862.181      -18138.422        -718.476           0.155  
G06  20640675.449      -78604.446       -3117.005           0.170  
G07  23545433.767     -100171.995       -4093.800           0.143  
G09  23021475.214      -93624.271       -4178.226           0.147  
> 2023 05 18 00 00 42.0688020  0  7                     
G02  24437301.493        6268.034         198.747           0.135  
G03  22288679.308      -84406.800       -3165.232           0.157  
G04  23777113.085     -126984.901       -4880.246           0.140  
G05  22542882.054      -18210.245        -721.954           0.155  
G06  20640752.587      -78916.085       -3118.787           0.171  
G07  23545540.225     -100581.150       -4095.554           0.142  
G09  23021585.636      -94041.953       -4179.164           0.147  
> 2023 05 18 00 00 42.1688020  0  7                     
G02  24437293.859        6288.218         203.999           0.135  
G03  22288759.149      -84723.596       -3121.649           0.158  
G04  23777238.331     -127473.002       -4879.257           0.139  
G05  22542901.635      -18282.342        -720.183           0.155  
G06  20640834.228      -79228.044       -3117.995           0.171  
G07  23545641.606     -100990.691       -4092.368           0.144  
G09  23021690.796      -94459.934       -4177.017           0.149  
> 2023 05 18 00 00 42.2688020  0  7                     
G02  24437288.490        6308.723         205.203           0.135  
G03  22288840.470      -85039.686       -3160.019           0.158  
G04  23777362.152     -127960.783       -4875.510           0.139  
G05  22542920.999      -18354.147        -717.531           0.155  
G06  20640914.238      -79539.665       -3113.195           0.171  
G07  23545744.020     -101399.883       -4093.077           0.143  
G09  23021795.971      -94877.607       -4175.375           0.148  
> 2023 05 18 00 00 42.3688020  0  7                     
G02  24437285.823        6329.353         205.750           0.136  
G03  22288919.456      -85355.834       -3160.212           0.158  
G04  23777485.359     -128448.452       -4878.905           0.141  
G05  22542940.197      -18425.810        -715.340           0.154  
G06  20640992.435      -79851.153       -3114.804           0.171  
G07  23545850.272     -101808.926       -4094.325           0.144  
G09  23021902.687      -95295.136       -4176.331           0.148  
> 2023 05 18 00 00 42.4688020  0  7                     
G02  24437281.150        6349.682         198.023           0.134  
G03  22289000.639      -85672.337       -3170.564           0.157  
G04  23777607.685     -128936.407       -4882.783           0.139  
G05  22542955.332      -18497.750        -723.386           0.152  
G06  20641072.218      -80162.977       -3122.496           0.170  
G07  23545953.413     -102218.290       -4095.564           0.142  
G09  23022008.483      -95712.976       -4180.604           0.147  
> 2023 05 18 00 00 42.5688020  0  7                     
G02  24437273.548        6369.390         202.147           0.134  
G03  22289079.897      -85989.442       -3169.342           0.157  
G04  23777733.178     -129424.994       -4885.044           0.139  
G05  22542974.136      -18570.399        -725.098           0.153  
G06  20641150.432      -80475.421       -3122.934           0.170  
G07  23546057.506     -102628.280       -4098.881           0.142  
G09  23022114.235      -96131.453       -4183.379           0.147  
> 2023 05 18 00 00 42.6688020  0  7                     
G02  24437271.782        6388.195         184.922           0.132  
G03  22289159.598      -86307.476       -3253.492           0.154  
G04  23777858.566     -129914.402       -4900.228           0.138  
G05  22542993.348      -18642.627        -533.498           0.152  
G06  20641231.969      -80788.718       -3139.002           0.169  
G07  23546160.669     -103039.195       -4115.770           0.139  
G09  23022220.487      -96550.267       -4185.650           0.144  
> 2023 05 18 00 00 42.7688020  0  7                     
G02  24437266.451        6406.939         191.143           0.133  
G03  22289239.318      -86625.438       -3175.172           0.156  
G04  23777982.663     -130403.916       -4888.765           0.138  
G05  22543010.465      -18717.354        -730.547           0.153  
G06  20641309.133      -81102.093       -3128.407           0.169  
G07  23546269.036     -103450.078       -4103.271           0.140  
G09  23022325.468      -96970.173       -4188.771           0.146  
> 2023 05 18 00 00 42.8688020  0  7                     
G02  24437257.151        6426.811         202.433           0.135  
G03  22289320.739      -86942.413       -3165.899           0.156  
G04  23778108.528     -130892.325       -4881.665           0.139  
G05  22543028.458      -18789.834        -721.496           0.155  
G06  20641390.254      -81414.392       -3119.513           0.171  
G07  23546369.429     -103859.944       -4097.323           0.143  
G09  23022436.112      -97388.494       -4178.701           0.146  
> 2023 05 18 00 00 42.9688020  0  7                     
G02  24437253.648        6446.931         196.827           0.136  
G03  22289405.343      -87259.113       -3170.511           0.158  
G04  23778235.915     -131380.532       -4883.137           0.143  
G05  22543046.525      -18861.989        -725.769           0.156  
G06  20641468.869      -81726.428       -3123.046           0.172  
G07  23546476.022     -104269.769       -4145.894           0.144  
G09  23022543.333      -97805.759       -4092.664           0.148  
> 2023 05 18 00 00 43.0688020  0  7                     
G02  24437251.125        6467.055         205.881           0.137  
G03  22289481.733      -87575.819       -3163.430           0.159  
G04  23778358.778     -131868.695       -4875.564           0.143  
G05  22543066.385      -18934.206        -718.992           0.157  
G06  20641549.437      -82038.466       -3115.842           0.173  
G07  23546579.993     -104679.101       -4090.231           0.146  
G09  23022645.765      -98224.581       -4175.959           0.150  
> 2023 05 18 00 00 43.1688020  0  7                     
G02  24437247.055        6487.664         207.985           0.138  
G03  22289566.301      -87892.043       -3163.734           0.160  
G04  23778481.345     -132356.365       -4876.406           0.143  
G05  22543084.006      -19005.884        -719.858           0.156  
G06  20641626.693      -82350.016       -3116.305           0.173  
G07  23546685.639     -105088.209       -4090.645           0.146  
G09  23022751.904      -98642.123       -4175.338           0.151  
> 2023 05 18 00 00 43.2688020  0  7                     
G02  24437239.763        6508.403         209.545           0.137  
G03  22289644.231      -88208.130       -3159.350           0.159  
G04  23778601.980     -132843.918       -4874.808           0.142  
G05  22543102.420      -19077.445        -713.339           0.156  
G06  20641707.141      -82661.435       -3114.199           0.172  
G07  23546785.353     -105497.201       -4089.809           0.144  
G09  23022859.072      -99059.576       -4173.371           0.149  
> 2023 05 18 00 00 43.3688020  0  7                     
G02  24437232.854        6529.270         208.284           0.135  
G03  22289726.326      -88524.093       -3160.947           0.158  
G04  23778726.894     -133331.308       -4873.330           0.141  
G05  22543119.565      -19148.904        -712.322           0.154  
G06  20641784.387      -82972.712       -3113.833           0.170  
G07  23546890.774     -105906.025       -4090.875           0.144  
G09  23022967.999      -99476.841       -4173.550           0.148  
> 2023 05 18 00 00 43.4688020  0  7                     
G02  24437227.039        6550.186         211.354           0.133  
G03  22289805.106      -88840.044       -3159.445           0.157  
G04  23778848.449     -133818.736       -4875.730           0.139  
G05  22543136.296      -19220.306        -715.198           0.153  
G06  20641864.900      -83284.001       -3113.094           0.169  
G07  23546998.325     -106315.482       -4162.088           0.141  
G09  23023071.489      -99894.730       -4216.478           0.147  
> 2023 05 18 00 00 43.5688020  0  7                     
G02  24437222.639        6570.620         201.486           0.134  
G03  22289883.502      -89156.424       -3165.186           0.156  
G04  23778975.960     -134306.555       -4883.356           0.139  
G05  22543154.941      -19292.183        -722.079           0.152  
G06  20641943.300      -83595.712       -3122.231           0.169  
G07  23547097.422     -106724.122       -4096.127           0.142  
G09  23023177.985     -100311.845       -4181.588           0.146  
> 2023 05 18 00 00 43.6688020  0  7                     
G02  24437218.941        6590.637         201.998           0.135  
G03  22289965.874      -89473.267       -3166.412           0.156  
G04  23779099.919     -134794.811       -4882.213           0.139  
G05  22543167.958      -19364.490        -721.839           0.153  
G06  20642023.537      -83907.863       -3121.823           0.169  
G07  23547202.794     -107133.859       -4098.313           0.142  
G09  23023280.403     -100729.998       -4180.585           0.146  
> 2023 05 18 00 00 43.7688020  0  7                     
G02  24437213.995        6610.670         202.615           0.135  
G03  22290046.627      -89790.096       -3167.400           0.156  
G04  23779222.047     -135283.051       -4879.985           0.139  
G05  22543190.453      -19436.743        -720.624           0.152  
G06  20642103.943      -84220.008       -3120.105           0.169  
G07  23547309.165     -107543.528       -4095.282           0.142  
G09  23023386.878     -101148.146       -4178.705           0.147  
> 2023 05 18 00 00 43.8688020  0  7                     
G02  24437204.731        6631.026         207.677           0.134  
G03  22290127.046      -90106.629       -3163.380           0.156  
G04  23779346.152     -135771.010       -4878.025           0.139  
G05  22543210.323      -19508.393        -638.232           0.152  
G06  20642181.810      -84531.846       -3116.976           0.169  
G07  23547412.387     -107952.926       -4092.449           0.143  
G09  23023492.493     -101565.984       -4175.275           0.146  
> 2023 05 18 00 00 43.9688020  0  7                     
G02  24437200.387        6651.770         209.093           0.135  
G03  22290203.667      -90422.713       -3158.510           0.156  
G04  23779467.206     -136258.548       -4873.143           0.139  
G05  22543229.664      -19580.291        -711.612           0.153  
G06  20642264.383      -84843.264       -3113.128           0.170  
G07  23547515.758     -108361.908       -4088.881           0.143  
G09  23023601.145     -101983.362       -4171.946           0.146  
> 2023 05 18 00 00 44.0688020  0  7                     
G02  24437196.389        6672.782         211.160           0.134  
G03  22290289.411      -90738.569       -3158.872           0.157  
G04  23779594.140     -136745.814       -4872.440           0.139  
G05  22543247.467      -19651.637        -713.036           0.154  
G06  20642340.819      -85154.420       -3111.583           0.170  
G07  23547616.656     -108770.586       -4083.984           0.142  
G09  23023711.973     -102400.511       -4167.467           0.146  
> 2023 05 18 00 00 44.1688020  0  7                     
G02  24437190.689        6693.908         214.452           0.134  
G03  22290366.137      -91054.318       -3156.939           0.157  
G04  23779717.867     -137232.991       -4872.462           0.139  
G05  22543262.529      -19722.849        -713.855           0.153  
G06  20642423.023      -85465.502       -3111.196           0.170  
G07  23547722.786     -109179.254       -4088.700           0.143  
G09  23023815.537     -102817.592       -4170.567           0.146  
> 2023 05 18 00 00 44.2688020  0  7                     
G02  24437182.199        6714.982         212.364           0.134  
G03  22290448.842      -91370.432       -3172.236           0.157  
G04  23779843.027     -137720.223       -4872.028           0.138  
G05  22543283.266      -19793.987        -630.134           0.153  
G06  20642498.111      -85776.607       -3110.049           0.169  
G07  23547826.348     -109588.261       -4178.581           0.142  
G09  23023920.260     -103234.784       -4287.152           0.147  
> 2023 05 18 00 00 44.3688020  0  7                     
G02  24437177.568        6736.049         210.030           0.134  
G03  22290529.587      -91685.931       -3158.014           0.156  
G04  23779969.870     -138207.403       -4872.206           0.139  
G05  22543299.411      -19865.369        -713.719           0.153  
G06  20642577.505      -86087.729       -3112.846           0.169  
G07  23547935.147     -109996.517       -4086.689           0.142  
G09  23024030.490     -103651.755       -4171.143           0.146  
> 2023 05 18 00 00 44.4688020  0  7                     
G02  24437168.043        6757.091         210.664           0.133  
G03  22290610.011      -92001.772       -3159.656           0.156  
G04  23780092.216     -138694.675       -4870.930           0.139  
G05  22543315.883      -19936.650        -715.009           0.154  
G06  20642653.379      -86398.870       -3110.359           0.170  
G07  23548038.650     -110405.259       -4086.946           0.143  
G09  23024133.970     -104068.924       -4168.479           0.145  
> 2023 05 18 00 00 44.5688020  0  7                     
G02  24437163.551        6778.037         206.728           0.134  
G03  22290687.943      -92317.502       -3184.077           0.157  
G04  23780212.991     -139182.044       -4874.646           0.139  
G05  22543334.576      -20008.040        -715.075           0.153  
G06  20642735.453      -86710.157       -3113.649           0.169  
G07  23548141.069     -110813.450       -4099.585           0.141  
G09  23024238.335     -104485.503       -4170.127           0.146  
> 2023 05 18 00 00 44.6688020  0  7                     
G02  24437159.940        6798.488         202.077           0.134  
G03  22290768.332      -92634.198       -3168.088           0.156  
G04  23780336.671     -139669.883       -4880.967           0.139  
G05  22543353.328      -20079.979        -720.648           0.153  
G06  20642812.826      -87021.915       -3119.519           0.169  
G07  23548239.479     -111223.384       -4096.964           0.141  
G09  23024346.178     -104903.882       -4179.460           0.146  
> 2023 05 18 00 00 44.7688020  0  7                     
G02  24437156.325        6818.780         205.361           0.133  
G03  22290847.525      -92950.804       -3165.680           0.156  
G04  23780462.574     -140157.914       -4876.699           0.139  
G05  22543371.031      -20152.021        -718.653           0.153  
G06  20642893.466      -87333.834       -3116.924           0.169  
G07  23548349.465     -111632.872       -4096.793           0.141  
G09  23024453.889     -105321.803       -4177.760           0.145  
> 2023 05 18 00 00 44.8688020  0  7                     
G02  24437147.038        6839.158         204.401           0.133  
G03  22290927.523      -93267.335       -3166.727           0.156  
G04  23780586.381     -140645.832       -4877.397           0.140  
G05  22543391.263      -20223.969        -719.047           0.153  
G06  20642973.372      -87645.674       -3118.083           0.169  
G07  23548453.362     -112042.221       -4092.470           0.141  
G09  23024554.766     -105739.610       -4178.490           0.146  
> 2023 05 18 00 00 44.9688020  0  7                     
G02  24437141.364        6859.498         202.906           0.134  
G03  22291009.993      -93583.888       -3166.039           0.157  
G04  23780709.226     -141133.798       -4880.132           0.140  
G05  22543409.003      -20295.968        -720.173           0.153  
G06  20643051.076      -87957.541       -3119.529           0.170  
G07  23548560.076     -112451.626       -4093.129           0.143  
G09  23024661.991     -106157.410       -4177.849           0.146  
> 2023 05 18 00 00 45.0688020  0  7                     
G02  24437138.022        6879.975         204.647           0.135  
G03  22291090.991      -93900.338       -3162.203           0.157  
G04  23780832.025     -141621.643       -4878.457           0.140  
G05  22543426.993      -20368.245        -748.903           0.152  
G06  20643131.145      -88269.302       -3116.242           0.170  
G07  23548661.176     -112860.936       -4093.579           0.144  
G09  23024772.793     -106575.151       -4174.578           0.147  
> 2023 05 18 00 00 45.1688020  0  7                     
G02  24437132.965        6900.661         206.763           0.134  
G03  22291174.536      -94216.581       -3162.208           0.157  
G04  23780959.856     -142109.230       -4873.200           0.139  
G05  22543444.336      -20439.550        -716.174           0.153  
G06  20643210.101      -88580.837       -3114.348           0.170  
G07  23548764.722     -113270.008       -4089.557           0.142  
G09  23024877.176     -106992.634       -4174.614           0.147  
> 2023 05 18 00 00 45.2688020  0  7                     
G02  24437126.383        6921.415         207.353           0.135  
G03  22291251.502      -94532.773       -3163.019           0.156  
G04  23781082.954     -142596.815       -4874.990           0.140  
G05  22543460.162      -20511.190        -718.166           0.151  
G06  20643293.024      -88892.341       -3115.554           0.170  
G07  23548866.000     -113679.060       -4089.011           0.143  
G09  23024985.215     -107410.078       -4173.310           0.146  
> 2023 05 18 00 00 45.3688020  0  7                     
G02  24437124.309        6942.124         209.470           0.133  
G03  22291335.713      -94848.839       -3165.053           0.156  
G04  23781207.932     -143084.411       -4874.326           0.139  
G05  22543478.570      -20582.575        -659.990           0.154  
G06  20643369.764      -89203.837       -3114.910           0.169  
G07  23548969.087     -114088.083       -4089.711           0.143  
G09  23025087.529     -107827.692       -4156.087           0.146  
> 2023 05 18 00 00 45.4688020  0  7                     
G02  24437120.051        6962.871         206.314           0.133  
G03  22291412.631      -95165.137       -3162.819           0.155  
G04  23781332.280     -143571.996       -4877.404           0.139  
G05  22543497.830      -20654.367        -713.846           0.151  
G06  20643450.095      -89515.323       -3115.229           0.169  
G07  23549078.204     -114497.111       -4093.665           0.140  
G09  23025194.458     -108245.009       -4175.700           0.145  
> 2023 05 18 00 00 45.5688020  0  7                     
G02  24437113.381        6983.062         197.698           0.133  
G03  22291493.281      -95481.917       -3173.984           0.155  
G04  23781456.652     -144060.135       -4890.430           0.138  
G05  22543515.976      -20726.580        -728.263           0.151  
G06  20643525.525      -89827.400       -3127.898           0.168  
G07  23549180.007     -114906.730       -4103.011           0.140  
G09  23025300.612     -108663.040       -4187.398           0.145  
> 2023 05 18 00 00 45.6688020  0  7                     
G02  24437110.141        7002.293         193.982           0.133  
G03  22291575.185      -95799.626       -3176.068           0.156  
G04  23781578.555     -144549.168       -4888.640           0.137  
G05  22543536.220      -20799.692        -729.221           0.153  
G06  20643607.924      -90140.393       -3128.949           0.169  
G07  23549283.556     -115317.255       -4103.127           0.141  
G09  23025409.837     -109081.951       -4186.713           0.145  
> 2023 05 18 00 00 45.7688020  0  7                     
G02  24437102.355        7021.937         198.699           0.134  
G03  22291654.785      -96116.922       -3171.715           0.156  
G04  23781701.956     -145037.827       -4883.707           0.139  
G05  22543551.914      -20873.077        -746.392           0.153  
G06  20643685.382      -90452.980       -3123.570           0.170  
G07  23549389.086     -115729.033       -4266.286           0.142  
G09  23025516.709     -109500.250       -4170.278           0.147  
> 2023 05 18 00 00 45.8688020  0  7                     
G02  24437095.210        7041.958         197.158           0.134  
G03  22291734.388      -96433.880       -3170.339           0.156  
G04  23781827.865     -145526.127       -4884.532           0.138  
G05  22543571.914      -20944.798        -725.720           0.154  
G06  20643766.576      -90765.223       -3124.647           0.169  
G07  23549497.157     -116137.191       -4100.083           0.142  
G09  23025620.116     -109918.656       -4184.337           0.146  
> 2023 05 18 00 00 45.9688020  0  7                     
G02  24437093.145        7061.321         188.983           0.133  
G03  22291813.962      -96751.443       -3179.296           0.156  
G04  23781953.221     -146015.041       -4893.447           0.138  
G05  22543587.873      -21017.792        -733.222           0.153  
G06  20643845.288      -91078.094       -3134.077           0.169  
G07  23549595.642     -116547.594       -4110.187           0.141  
G09  23025725.454     -110337.499       -4192.855           0.147  
> 2023 05 18 00 00 46.0688020  0  7                     
G02  24437086.981        7080.506         199.416           0.133  
G03  22291891.639      -97069.242       -3172.072           0.156  
G04  23782078.607     -146504.182       -4883.897           0.138  
G05  22543605.667      -21090.988        -726.126           0.152  
G06  20643922.788      -91391.181       -3123.949           0.168  
G07  23549700.478     -116958.197       -4098.535           0.142  
G09  23025836.548     -110756.509       -4183.499           0.146  
> 2023 05 18 00 00 46.1688020  0  7                     
G02  24437082.166        7100.773         207.417           0.133  
G03  22291975.948      -97385.939       -3163.717           0.156  
G04  23782202.351     -146992.252       -4878.405           0.138  
G05  22543626.819      -21163.089        -719.096           0.152  
G06  20644002.031      -91703.161       -3117.437           0.168  
G07  23549807.439     -117367.720       -4091.760           0.141  
G09  23025939.719     -111174.411       -4176.166           0.145  
> 2023 05 18 00 00 46.2688020  0  7                     
G02  24437076.522        7121.782         210.991           0.133  
G03  22292059.743      -97701.881       -3156.391           0.155  
G04  23782326.515     -147479.532       -4870.961           0.139  
G05  22543646.118      -21234.443        -709.726           0.153  
G06  20644081.556      -92014.397       -3109.076           0.169  
G07  23549912.801     -117776.485       -4083.857           0.141  
G09  23026044.437     -111591.577       -4167.521           0.145  
> 2023 05 18 00 00 46.3688020  0  7                     
G02  24437071.152        7142.488         205.797           0.134  
G03  22292139.366      -98018.173       -3163.047           0.155  
G04  23782449.253     -147967.194       -4879.610           0.139  
G05  22543663.440      -21306.134        -716.771           0.152  
G06  20644163.893      -92325.982       -3117.039           0.169  
G07  23550011.671     -118185.629       -4093.724           0.141  
G09  23026151.346     -112009.120       -4178.458           0.146  
> 2023 05 18 00 00 46.4688020  0  7                     
G02  24437067.367        7163.462         216.677           0.132  
G03  22292223.858      -98334.206       -3158.185           0.156  
G04  23782573.210     -148454.511       -4869.015           0.139  
G05  22543681.181      -21377.527        -710.301           0.153  
G06  20644242.305      -92637.296       -3109.677           0.169  
G07  23550118.943     -118594.460       -4085.619           0.141  
G09  23026255.717     -112426.333       -4168.089           0.147  
> 2023 05 18 00 00 46.5688020  0  7                     
G02  24437059.867        7184.558         210.465           0.133  
G03  22292299.314      -98650.052       -3157.633           0.156  
G04  23782697.449     -148941.726       -4872.986           0.139  
