     3.02           OBSERVATION DATA    M: Mixed            RINEX VERSION / TYPE
GNSS-SDRLIB v1.1                        20230616 045718 UTC PGM / RUN BY / DATE 
                                                            MARKER NAME         
                                                            MARKER NUMBER       
                                                            MARKER TYPE         
                                                            OBSERVER / AGENCY   
GNSS-SDRLIB         GNSS-SDRLIB         1.1                 REC # / TYPE / VERS 
                                                            ANT # / TYPE        
        0.0000        0.0000        0.0000                  APPROX POSITION XYZ 
        0.0000        0.0000        0.0000                  ANTENNA: DELTA H/E/N
G    4 C1C L1C D1C S1C                                      SYS / # / OBS TYPES 
R    4 C1C L1C D1C S1C                                      SYS / # / OBS TYPES 
E    4 C1C L1C D1C S1C                                      SYS / # / OBS TYPES 
J    4 C1C L1C D1C S1C                                      SYS / # / OBS TYPES 
S    4 C1C L1C D1C S1C                                      SYS / # / OBS TYPES 
C    4 C1C L1C D1C S1C                                      SYS / # / OBS TYPES 
  1970     1     1     0     0    0.0000000     GPS         TIME OF FIRST OBS   
  1970     1     1     0     0    0.0000000     GPS         TIME OF LAST OBS    
G                                                           SYS / PHASE SHIFT   
R                                                           SYS / PHASE SHIFT   
E                                                           SYS / PHASE SHIFT   
J                                                           SYS / PHASE SHIFT   
S                                                           SYS / PHASE SHIFT   
C                                                           SYS / PHASE SHIFT   
  0                                                         GLONASS SLOT / FRQ #
 C1C    0.000 C1P    0.000 C2C    0.000 C2P    0.000        GLONASS COD/PHS/BIS 
                                                            END OF HEADER       
> 2023  5 18  0  0 36.0688020  0  1                     
G 8  20626276.271       -3766.073        -622.867           4.500  
> 2023  5 18  0  0 36.0688020  0  2                     
G 7  22526802.906       51463.004        2730.027           0.500  
G 8  20626276.271       -3766.073        -622.867           4.500  
> 2023  5 18  0  0 36.0688020  0  3                     
G 4  23612904.683      -54947.874       -2848.694          61.000  
G 7  22526802.906       51463.004        2730.027           0.500  
G 8  20626276.271       -3766.073        -622.867           4.500  
> 2023  5 18  0  0 36.0688020  0  4                     
G 1  24305253.520      118834.203        3897.910          59.750  
G 4  23612904.683      -54947.874       -2848.694          61.000  
G 7  22526802.906       51463.004        2730.027           0.500  
G 8  20626276.271       -3766.073        -622.867           4.500  
> 2023  5 18  0  0 36.1688020  0  4                     
G 1  24305326.619      119224.004        3897.703          59.750  
G 4  23613105.376      -55232.749       -2842.022          61.000  
G 7  22526897.828       51735.703        2699.664           0.500  
G 8  20626435.033       -3828.444        -622.508           4.750  
> 2023  5 18  0  0 36.2688020  0  4                     
G 1  24305252.300      119613.816        3897.379          59.750  
G 4  23613159.632      -55517.521       -2848.332          61.000  
G 7  22526846.492       52008.991        2730.277           0.500  
G 8  20626447.139       -3890.812        -624.219           4.500  
> 2023  5 18  0  0 36.3688020  0  4                     
G 1  24305177.673      120003.628        3898.469          59.750  
G 4  23613214.631      -55802.343       -2847.695          61.000  
G 7  22526794.639       52281.987        2730.285           0.500  
G 8  20626458.827       -3953.204        -623.210           4.750  
> 2023  5 18  0  0 36.4688020  0  4                     
G 1  24305103.439      120393.435        3898.735          59.750  
G 4  23613268.578      -56087.175       -2848.530          61.000  
G 7  22526742.594       52554.972        2729.674           0.500  
G 8  20626470.863       -4015.567        -623.011           4.750  
> 2023  5 18  0  0 36.5688020  0  4                     
G 1  24305029.222      120783.242        3898.261          59.750  
G 4  23613322.975      -56372.001       -2847.694          61.000  
G 7  22526690.236       52827.956        2729.255           0.500  
G 8  20626482.618       -4077.983        -625.896           4.750  
> 2023  5 18  0  0 36.6688020  0  4                     
G 1  24304953.959      121173.050        3898.589          59.750  
G 4  23613378.000      -56656.832       -2848.194          61.000  
G 7  22526638.147       53100.944        2729.662           0.500  
G 8  20626494.494       -4140.355        -623.333           4.750  
> 2023  5 18  0  0 36.7688020  0  4                     
G 1  24304880.399      121562.857        3898.326          59.750  
G 4  23613432.037      -56941.668       -2847.778          61.000  
G 7  22526586.214       53373.923        2729.453           0.500  
G 8  20626506.563       -4202.757        -625.340           4.500  
> 2023  5 18  0  0 36.8688020  0  4                     
G 1  24304806.659      121952.663        3898.772          59.750  
G 4  23613486.717      -57226.469       -2859.825          61.000  
G 7  22526534.306       53647.068        2734.294           0.500  
G 8  20626518.143       -4265.155        -622.531           4.750  
> 2023  5 18  0  0 36.9688020  0  4                     
G 1  24304732.745      122342.472        3898.388          59.750  
G 4  23613540.128      -57511.344       -2848.640          61.000  
G 7  22526482.574       53919.880        2729.341           0.500  
G 8  20626530.533       -4327.550        -624.222           4.750  
> 2023  5 18  0  0 37.0688020  0  4                     
G 1  24304658.490      122732.282        3898.139          59.750  
G 4  23613593.881      -57796.271       -2867.079          61.000  
G 7  22526430.502       54193.031        2746.316           0.500  
G 8  20626542.103       -4389.980        -624.467           4.750  
> 2023  5 18  0  0 37.1688020  0  4                     
G 1  24304584.394      123122.089        3898.164          59.750  
G 4  23613648.782      -58081.019       -2848.538          61.000  
G 7  22526379.265       54465.821        2729.207           0.500  
G 8  20626553.980       -4452.375        -623.555           4.750  
> 2023  5 18  0  0 37.2688020  0  4                     
G 1  24304510.586      123511.894        3898.018          59.750  
G 4  23613702.445      -58365.859       -2848.198          61.000  
G 7  22526327.223       54738.787        2729.766           0.500  
G 8  20626565.697       -4514.816        -626.001           4.500  
> 2023  5 18  0  0 37.3688020  0  4                     
G 1  24304435.748      123901.697        3897.181          59.750  
G 4  23613756.631      -58650.695       -2848.248          61.000  
G 7  22526275.166       55011.747        2730.151           0.500  
G 8  20626577.511       -4577.215        -622.232           4.750  
> 2023  5 18  0  0 37.4688020  0  4                     
G 1  24304361.262      124291.504        3896.898          59.750  
G 4  23613810.278      -58935.539       -2848.519          61.000  
G 7  22526222.875       55284.707        2729.663           0.500  
G 8  20626589.542       -4639.656        -623.482           4.750  
> 2023  5 18  0  0 37.5688020  0  4                     
G 1  24304287.299      124681.318        3898.303          59.750  
G 4  23613864.737      -59220.384       -2848.897          61.000  
G 7  22526170.190       55557.666        2729.229           0.500  
G 8  20626601.124       -4702.094        -623.470           4.750  
> 2023  5 18  0  0 37.6688020  0  4                     
G 1  24304213.409      125071.125        3898.145          59.750  
G 4  23613919.664      -59505.229       -2849.411          61.000  
G 7  22526118.621       55830.621        2728.875           0.500  
G 8  20626613.007       -4764.520        -623.683           4.500  
> 2023  5 18  0  0 37.7688020  0  4                     
G 1  24304140.060      125460.936        3897.456          59.750  
G 4  23613973.232      -59790.070       -2848.969          61.000  
G 7  22526066.969       56103.576        2730.421           0.500  
G 8  20626625.522       -4826.970        -623.933           4.500  
> 2023  5 18  0  0 37.8688020  0  4                     
G 1  24304064.555      125850.745        3898.131          59.750  
G 4  23614027.959      -60074.925       -2849.367          61.000  
G 7  22526014.692       56376.523        2729.369           0.500  
G 8  20626638.167       -4889.418        -625.741           4.500  
> 2023  5 18  0  0 37.9688020  0  4                     
G 1  24303990.935      126240.559        3898.078          59.750  
G 4  23614081.602      -60359.775       -2848.889          61.000  
G 7  22525963.430       56649.465        2729.623           0.500  
G 8  20626647.905       -4951.844        -624.034           4.500  
> 2023  5 18  0  0 38.0688020  0  4                     
G 1  24303917.051      126630.343        3898.495          59.750  
G 4  23614136.184      -60644.625       -2848.670          61.000  
G 7  22525911.079       56922.410        2729.327           0.500  
G 8  20626660.882       -5014.307        -624.248           4.750  
> 2023  5 18  0  0 38.1688020  0  4                     
G 1  24303841.774      127020.151        3898.156          59.750  
G 4  23614190.943      -60929.477       -2849.214          61.000  
G 7  22525859.117       57195.345        2729.384           0.500  
G 8  20626672.305       -5076.773        -624.583           4.500  
> 2023  5 18  0  0 38.2688020  0  4                     
G 1  24303768.421      127409.956        3897.512          59.750  
G 4  23614244.119      -61214.102       -2840.626          61.000  
G 7  22525807.061       57468.343        2738.195           0.500  
G 8  20626684.263       -5139.244        -623.930           4.500  
> 2023  5 18  0  0 38.3688020  0  4                     
G 1  24303693.928      127799.764        3898.369          59.750  
G 4  23614298.540      -61499.187       -2849.104          61.000  
G 7  22525755.486       57741.220        2729.593           0.500  
G 8  20626696.336       -5201.712        -624.619           4.500  
> 2023  5 18  0  0 38.4688020  0  4                     
G 1  24303619.635      128189.567        3898.114          59.750  
G 4  23614353.005      -61784.040       -2848.449          61.000  
G 7  22525703.618       58014.149        2729.241           0.500  
G 8  20626708.332       -5264.201        -624.985           4.750  
> 2023  5 18  0  0 38.5688020  0  4                     
G 1  24303545.765      128579.383        3898.489          60.000  
G 4  23614407.477      -62068.752       -2840.987          61.000  
G 7  22525651.597       58286.959        2718.802           0.500  
G 8  20626720.033       -5326.660        -624.783           4.500  
> 2023  5 18  0  0 38.6688020  0  4                     
G 1  24303471.676      128969.193        3898.514          59.750  
G 4  23614461.969      -62353.765       -2848.469          61.000  
G 7  22525599.848       58559.987        2729.146           0.500  
G 8  20626731.732       -5389.155        -624.608           4.500  
> 2023  5 18  0  0 38.7688020  0  4                     
G 1  24303397.303      129358.998        3897.885          59.750  
G 4  23614515.714      -62638.622       -2848.508          61.000  
G 7  22525547.487       58832.909        2729.045           0.500  
G 8  20626744.266       -5451.636        -624.808           4.750  
> 2023  5 18  0  0 38.8688020  0  4                     
G 1  24303323.071      129748.808        3898.156          59.750  
G 4  23614569.868      -62923.480       -2848.126          61.000  
G 7  22525495.790       59105.821        2729.144           0.500  
G 8  20626755.891       -5514.125        -625.281           4.500  
> 2023  5 18  0  0 38.9688020  0  4                     
G 1  24303249.226      130138.611        3898.209          59.750  
G 4  23614623.602      -63208.349       -2848.216          61.000  
G 7  22525444.213       59378.730        2729.156           0.500  
G 8  20626767.876       -5576.620        -625.358           4.500  
> 2023  5 18  0  0 39.0688020  0  4                     
G 1  24303174.146      130528.418        3897.523          59.750  
G 4  23614678.429      -63493.228       -2849.451          61.000  
G 7  22525392.448       59651.648        2728.939           0.500  
G 8  20626780.412       -5639.133        -627.089           4.500  
> 2023  5 18  0  0 39.1688020  0  4                     
G 1  24303101.120      130918.233        3897.896          59.750  
G 4  23614732.032      -63778.089       -2858.006          61.000  
G 7  22525340.012       59924.541        2722.560           0.500  
G 8  20626791.912       -5701.631        -626.448           4.500  
> 2023  5 18  0  0 39.2688020  0  4                     
G 1  24303027.032      131308.034        3897.804          59.750  
G 4  23614786.135      -64062.956       -2848.255          61.000  
G 7  22525288.130       60197.462        2728.772           0.500  
G 8  20626803.242       -5764.155        -627.808           4.500  
> 2023  5 18  0  0 39.3688020  0  4                     
G 1  24302951.414      131697.844        3896.915          59.750  
G 4  23614840.542      -64347.831       -2849.121          61.000  
G 7  22525235.963       60470.371        2728.829           0.500  
G 8  20626815.284       -5826.646        -624.823           4.500  
> 2023  5 18  0  0 39.4688020  0  4                     
G 1  24302877.741      132087.648        3898.460          59.750  
G 4  23614895.152      -64632.708       -2848.183          61.000  
G 7  22525183.868       60743.275        2729.991           0.500  
G 8  20626827.216       -5889.166        -625.904           4.750  
> 2023  5 18  0  0 39.5688020  0  4                     
G 1  24302804.244      132477.450        3898.800          59.750  
G 4  23614949.148      -64917.584       -2849.032          61.000  
G 7  22525132.091       61016.167        2728.728           0.500  
G 8  20626839.404       -5951.686        -623.964           4.500  
> 2023  5 18  0  0 39.6688020  0  4                     
G 1  24302730.056      132867.249        3898.102          60.000  
G 4  23615003.355      -65202.448       -2849.285          61.000  
G 7  22525080.359       61289.064        2729.035           0.500  
G 8  20626850.908       -6014.226        -625.577           4.500  
> 2023  5 18  0  0 39.7688020  0  4                     
G 1  24302655.630      133257.060        3898.165          59.750  
G 4  23615057.570      -65487.326       -2848.459          61.000  
G 7  22525028.322       61561.958        2728.390           0.500  
G 8  20626862.562       -6076.768        -626.372           4.500  
> 2023  5 18  0  0 39.8688020  0  4                     
G 1  24302581.532      133646.867        3897.913          59.750  
G 4  23615111.422      -65772.209       -2849.403          61.000  
G 7  22524976.174       61834.851        2728.572           0.500  
G 8  20626874.822       -6139.290        -624.082           4.750  
> 2023  5 18  0  0 39.9688020  0  4                     
G 1  24302507.515      134036.675        3898.156          59.750  
G 4  23615166.145      -66057.088       -2849.073          61.000  
G 7  22524923.615       62107.744        2728.973           0.500  
G 8  20626886.162       -6201.832        -625.635           4.500  
> 2023  5 18  0  0 40.0688020  0  4                     
G 1  24302432.880      134426.486        3898.840          59.750  
G 4  23615220.797      -66341.966       -2849.241          61.000  
G 7  22524872.997       62380.623        2729.330           0.500  
G 8  20626897.777       -6264.389        -626.033           4.500  
> 2023  5 18  0  0 40.1688020  0  4                     
G 1  24302359.304      134816.294        3898.839          59.750  
G 4  23615274.261      -66626.847       -2848.906          61.000  
G 7  22524820.468       62653.496        2728.152           0.500  
G 8  20626910.161       -6326.941        -625.531           4.500  
> 2023  5 18  0  0 40.2688020  0  4                     
G 1  24302284.396      135206.099        3898.560          59.750  
G 4  23615329.089      -66911.731       -2849.540          61.000  
G 7  22524768.835       62926.375        2728.843           0.500  
G 8  20626923.116       -6389.489        -624.087           4.750  
> 2023  5 18  0  0 40.3688020  0  4                     
G 1  24302210.031      135595.902        3897.531          60.000  
G 4  23615382.458      -67196.612       -2848.463          61.000  
G 7  22524716.536       63199.247        2729.213           0.500  
G 8  20626934.191       -6452.073        -627.273           4.750  
> 2023  5 18  0  0 40.4688020  0  4                     
G 1  24302136.269      135985.716        3898.171          59.750  
G 4  23615436.934      -67481.507       -2849.229          61.000  
G 7  22524664.869       63472.114        2728.479           0.500  
G 8  20626946.339       -6514.626        -624.584           4.500  
> 2023  5 18  0  0 40.5688020  0  4                     
G 1  24302061.791      136375.525        3897.651          59.750  
G 4  23615492.970      -67766.392       -2849.300          61.000  
G 7  22524613.615       63744.980        2728.815           0.500  
G 8  20626957.865       -6577.208        -627.747           4.500  
> 2023  5 18  0  0 40.6688020  0  4                     
G 1  24301986.873      136765.334        3897.655          59.750  
G 4  23615546.670      -68051.281       -2849.293          61.000  
G 7  22524561.103       64017.847        2728.306           0.500  
G 8  20626970.220       -6639.767        -625.280           4.500  
> 2023  5 18  0  0 40.7688020  0  4                     
G 1  24301913.194      137155.138        3897.976          59.750  
G 4  23615599.230      -68336.191       -2849.343          61.000  
G 7  22524508.851       64290.710        2728.507           0.500  
G 8  20626982.369       -6702.355        -626.972           4.500  
> 2023  5 18  0  0 40.8688020  0  4                     
G 1  24301839.403      137544.947        3897.362          59.750  
G 4  23615653.420      -68621.080       -2849.118          61.000  
G 7  22524456.683       64563.568        2728.392           0.500  
G 8  20626993.979       -6764.954        -627.768           4.500  
> 2023  5 18  0  0 40.9688020  0  4                     
G 1  24301765.923      137934.755        3897.666          59.750  
G 4  23615708.462      -68905.976       -2849.489          61.000  
G 7  22524404.861       64836.426        2728.681           0.500  
G 8  20627005.327       -6827.526        -626.962           4.500  
> 2023  5 18  0  0 41.0688020  0  4                     
G 1  24301691.402      138324.571        3897.914          59.750  
G 4  23615762.161      -69191.001       -2847.861          61.000  
G 7  22524352.557       65109.155        2718.196           0.500  
G 8  20627018.184       -6890.117        -624.680           4.750  
> 2023  5 18  0  0 41.1688020  0  4                     
G 1  24301616.993      138714.377        3897.963          59.750  
G 4  23615816.829      -69475.765       -2848.129          61.000  
G 7  22524301.165       65382.131        2728.725           0.500  
G 8  20627029.443       -6952.714        -626.255           4.500  
> 2023  5 18  0  0 41.2688020  0  4                     
G 1  24301543.288      139104.188        3898.634          59.750  
G 4  23615871.048      -69760.686       -2849.285          61.000  
G 7  22524249.644       65654.975        2728.637           0.500  
G 8  20627041.033       -7015.326        -626.509           4.500  
> 2023  5 18  0  0 41.3688020  0  4                     
G 1  24301469.263      139493.988        3898.573          60.000  
G 4  23615924.962      -70045.580       -2849.120          61.000  
G 7  22524197.482       65927.821        2728.581           0.500  
G 8  20627052.766       -7077.948        -626.435           4.500  
> 2023  5 18  0  0 41.4688020  0  4                     
G 1  24301394.995      139883.803        3898.323          59.750  
G 4  23615978.855      -70330.481       -2849.382          61.000  
G 7  22524145.493       66200.662        2727.991           0.500  
G 8  20627065.413       -7140.556        -626.526           4.500  
> 2023  5 18  0  0 41.5688020  0  4                     
G 1  24301320.431      140273.609        3898.483          59.750  
G 4  23616034.014      -70615.384       -2849.088          61.000  
G 7  22524093.711       66473.507        2728.450           0.500  
G 8  20627077.294       -7203.155        -627.242           4.500  
> 2023  5 18  0  0 41.6688020  0  4                     
G 1  24301245.882      140663.408        3897.544          59.750  
G 4  23616087.401      -70900.286       -2848.514          61.000  
G 7  22524042.131       66746.354        2728.900           0.500  
G 8  20627089.072       -7265.789        -625.143           4.500  
> 2023  5 18  0  0 41.7688020  0  4                     
G 1  24301171.928      141053.223        3898.423          59.750  
G 4  23616141.465      -71185.199       -2848.568          61.000  
G 7  22523989.920       67019.187        2729.122           0.500  
G 8  20627101.228       -7328.403        -626.247           4.500  
> 2023  5 18  0  0 41.8688020  0  4                     
G 1  24301097.711      141443.031        3898.642          59.750  
G 4  23616196.176      -71470.101       -2849.672          61.000  
G 7  22523937.704       67292.012        2727.966           0.500  
G 8  20627113.495       -7391.053        -626.964           4.500  
> 2023  5 18  0  0 41.9688020  0  4                     
G 1  24301022.817      141832.834        3897.969          59.750  
G 4  23616251.234      -71755.010       -2849.913          61.000  
G 7  22523885.581       67564.844        2727.870           0.500  
G 8  20627125.293       -7453.664        -625.454           4.500  
> 2023  5 18  0  0 42.0688020  0  4                     
G 1  24300948.466      142222.639        3897.754          59.750  
G 4  23616304.935      -72039.923       -2849.782          61.000  
G 7  22523834.098       67837.671        2728.289           0.500  
G 8  20627137.244       -7516.325        -626.124           4.500  
> 2023  5 18  0  0 42.1688020  0  4                     
G 1  24300875.295      142612.444        3897.375          59.750  
G 4  23616359.717      -72324.829       -2848.227          61.000  
G 7  22523782.380       68110.489        2728.171           0.500  
G 8  20627148.781       -7578.956        -627.075           4.500  
> 2023  5 18  0  0 42.2688020  0  4                     
G 1  24300801.393      143002.263        3898.087          59.750  
G 4  23616413.326      -72609.744       -2848.974          61.000  
G 7  22523730.145       68383.310        2728.104           0.500  
G 8  20627161.341       -7641.616        -626.285           4.500  
> 2023  5 18  0  0 42.3688020  0  4                     
G 1  24300727.016      143392.062        3897.310          59.750  
G 4  23616467.442      -72894.648       -2848.828          61.000  
G 7  22523678.299       68656.126        2728.103           0.500  
G 8  20627172.653       -7704.257        -626.125           4.500  
> 2023  5 18  0  0 42.4688020  0  4                     
G 1  24300652.536      143781.881        3898.396          59.750  
G 4  23616521.553      -73179.570       -2849.558          61.000  
G 7  22523626.332       68928.939        2728.109           0.500  
G 8  20627184.672       -7766.927        -626.646           4.500  
> 2023  5 18  0  0 42.5688020  0  4                     
G 1  24300578.686      144171.687        3897.908          59.750  
G 4  23616575.632      -73464.488       -2849.710          61.000  
G 7  22523574.219       69201.752        2728.171           0.500  
G 8  20627196.647       -7829.582        -626.497           4.500  
> 2023  5 18  0  0 42.6688020  0  4                     
G 1  24300504.427      144561.493        3898.725          59.750  
G 4  23616629.205      -73749.407       -2848.981          61.000  
G 7  22523522.804       69474.561        2728.302           0.500  
G 8  20627208.413       -7892.256        -626.126           4.750  
> 2023  5 18  0  0 42.7688020  0  4                     
G 1  24300430.222      144951.292        3898.585          59.750  
G 4  23616683.809      -74034.318       -2848.255          61.000  
G 7  22523470.329       69747.359        2727.896           0.500  
G 8  20627220.132       -7954.915        -626.963           4.500  
> 2023  5 18  0  0 42.8688020  0  4                     
G 1  24300356.655      145341.086        3897.437          59.750  
G 4  23616737.790      -74319.248       -2848.994          61.000  
G 7  22523418.455       70020.166        2728.264           0.500  
G 8  20627232.255       -8017.613        -626.520           4.500  
> 2023  5 18  0  0 42.9688020  0  4                     
G 1  24300282.518      145730.890        3897.340          59.750  
G 4  23616793.049      -74604.251       -2831.966          61.000  
G 7  22523367.229       70292.994        2730.741           0.500  
G 8  20627244.218       -8080.274        -626.769           4.500  
> 2023  5 18  0  0 43.0688020  0  4                     
G 1  24300208.029      146120.694        3897.703          59.750  
G 4  23616846.975      -74889.095       -2849.089          61.000  
G 7  22523315.265       70565.759        2727.642           0.500  
G 8  20627256.303       -8142.977        -626.742           4.750  
> 2023  5 18  0  0 43.1688020  0  4                     
G 1  24300133.586      146510.498        3897.287          59.750  
G 4  23616901.376      -75174.173       -2873.926          61.000  
G 7  22523263.534       70838.489        2729.133           0.500  
G 8  20627267.977       -8205.650        -627.099           4.500  
> 2023  5 18  0  0 43.2688020  0  4                     
G 1  24300058.392      146900.303        3897.570          59.750  
G 4  23616955.426      -75458.952       -2849.341          61.000  
G 7  22523211.470       71111.340        2727.903           0.500  
G 8  20627280.283       -8268.353        -626.065           4.500  
> 2023  5 18  0  0 43.3688020  0  4                     
G 1  24299984.891      147290.102        3897.659          59.750  
G 4  23617009.199      -75743.877       -2849.266          61.000  
G 7  22523159.033       71384.124        2727.765           0.500  
G 8  20627292.054       -8331.050        -627.699           4.500  
> 2023  5 18  0  0 43.4688020  0  4                     
G 1  24299910.722      147679.905        3897.664          59.750  
G 4  23617063.624      -76028.808       -2849.259          61.000  
G 7  22523107.403       71656.908        2728.191           0.500  
G 8  20627303.516       -8393.760        -626.122           4.500  
> 2023  5 18  0  0 43.5688020  0  4                     
G 1  24299836.279      148069.709        3897.492          59.750  
G 4  23617118.385      -76313.738       -2849.498          61.000  
G 7  22523055.463       71929.682        2727.655           0.500  
G 8  20627316.018       -8456.463        -626.560           4.500  
> 2023  5 18  0  0 43.6688020  0  4                     
G 1  24299762.216      148459.508        3897.172          59.750  
G 4  23617173.055      -76598.672       -2848.745          61.000  
G 7  22523003.839       72202.466        2727.482           0.500  
G 8  20627328.741       -8519.168        -626.621           4.750  
> 2023  5 18  0  0 43.7688020  0  4                     
G 1  24299688.000      148849.314        3897.721          59.750  
G 4  23617226.160      -76883.617       -2849.802          61.000  
G 7  22522951.434       72475.239        2728.321           0.500  
G 8  20627340.199       -8581.906        -627.323           4.500  
> 2023  5 18  0  0 43.8688020  0  4                     
G 1  24299614.129      149239.115        3897.253          59.750  
G 4  23617281.106      -77168.545       -2849.094          61.000  
G 7  22522899.907       72748.010        2727.612           0.500  
G 8  20627351.662       -8644.635        -628.248           4.500  
> 2023  5 18  0  0 43.9688020  0  4                     
G 1  24299539.770      149628.919        3897.452          59.750  
G 4  23617333.689      -77453.484       -2849.203          61.000  
G 7  22522847.884       73020.777        2727.354           0.500  
G 8  20627363.262       -8707.348        -627.352           4.500  
> 2023  5 18  0  0 44.0688020  0  4                     
G 1  24299466.113      150018.715        3897.926          59.750  
G 4  23617388.430      -77738.747       -2875.741          61.000  
G 7  22522795.656       73293.445        2716.316           0.500  
G 8  20627375.301       -8770.080        -628.649           4.750  
> 2023  5 18  0  0 44.1688020  0  4                     
G 1  24299392.428      150408.516        3897.736          59.750  
G 4  23617443.276      -78023.361       -2848.838          61.000  
G 7  22522743.944       73566.311        2727.651           0.500  
G 8  20627387.465       -8832.815        -627.078           4.750  
> 2023  5 18  0  0 44.2688020  0  4                     
G 1  24299317.689      150798.324        3897.591          59.750  
G 4  23617497.416      -78308.301       -2848.218          61.000  
G 7  22522692.104       73839.073        2727.900           0.500  
G 8  20627399.673       -8895.560        -626.850           4.750  
> 2023  5 18  0  0 44.3688020  0  4                     
G 1  24299243.814      151188.126        3898.380          60.000  
G 4  23617551.801      -78593.256       -2849.713          61.000  
G 7  22522640.365       74111.832        2727.408           0.500  
G 8  20627411.591       -8958.299        -627.256           4.750  
> 2023  5 18  0  0 44.4688020  0  4                     
G 1  24299170.122      151577.925        3897.854          59.750  
G 4  23617604.852      -78878.189       -2848.723          61.000  
G 7  22522588.727       74384.576        2727.846           0.500  
G 8  20627423.584       -9021.064        -628.844           4.500  
> 2023  5 18  0  0 44.5688020  0  4                     
G 1  24299095.472      151967.725        3897.295          59.750  
G 4  23617659.671      -79163.139       -2849.836          61.000  
G 7  22522536.524       74657.320        2727.416           0.500  
G 8  20627435.255       -9083.815        -628.068           4.500  
> 2023  5 18  0  0 44.6688020  0  4                     
G 1  24299020.930      152357.528        3897.522          59.750  
G 4  23617714.173      -79448.078       -2848.920          61.000  
G 7  22522483.742       74930.074        2727.505           0.500  
G 8  20627446.816       -9146.589        -628.862           4.500  
> 2023  5 18  0  0 44.7688020  0  4                     
G 1  24298946.493      152747.330        3898.003          59.750  
G 4  23617768.399      -79733.032       -2848.744          61.000  
G 7  22522431.911       75202.809        2726.804           0.500  
G 8  20627458.900       -9209.341        -627.885           4.500  
> 2023  5 18  0  0 44.8688020  0  4                     
G 1  24298872.758      153137.130        3897.571          59.750  
G 4  23617822.878      -80017.957       -2877.275          61.000  
G 7  22522380.760       75475.545        2727.317           0.500  
G 8  20627470.778       -9272.102        -627.915           4.500  
> 2023  5 18  0  0 44.9688020  0  4                     
G 1  24298798.288      153526.932        3897.789          59.750  
G 4  23617876.981      -80302.941       -2850.059          61.000  
G 7  22522328.900       75748.296        2727.639           0.500  
G 8  20627483.016       -9334.885        -627.291           4.500  
> 2023  5 18  0  0 45.0688020  0  4                     
G 1  24298724.362      153916.732        3897.537          59.750  
G 4  23617930.776      -80587.816       -2854.454          61.000  
G 7  22522276.782       76021.232        2742.216           0.500  
G 8  20627494.562       -9397.659        -628.341           4.500  
> 2023  5 18  0  0 45.1688020  0  4                     
G 1  24298650.002      154306.538        3898.267          59.750  
G 4  23617985.432      -80872.841       -2849.118          61.000  
G 7  22522224.421       76293.765        2727.356           0.500  
G 8  20627506.565       -9460.443        -626.772           4.500  
> 2023  5 18  0  0 45.2688020  0  4                     
G 1  24298575.732      154696.340        3897.422          59.750  
G 4  23618040.102      -81157.804       -2849.584          61.000  
G 7  22522173.310       76566.493        2727.144           0.500  
G 8  20627519.043       -9523.228        -627.386           4.750  
> 2023  5 18  0  0 45.3688020  0  4                     
G 1  24298501.895      155086.136        3898.293          59.750  
G 4  23618093.872      -81442.777       -2849.230          61.000  
G 7  22522121.393       76839.227        2727.262           0.500  
G 8  20627530.760       -9586.026        -628.684           4.500  
> 2023  5 18  0  0 45.4688020  0  4                     
G 1  24298426.772      155475.941        3897.742          59.750  
G 4  23618148.568      -81727.735       -2848.913          61.000  
G 7  22522069.075       77111.945        2726.956           0.500  
G 8  20627542.986       -9648.826        -628.840           4.500  
> 2023  5 18  0  0 45.5688020  0  4                     
G 1  24298353.052      155865.743        3897.621          59.750  
G 4  23618202.393      -82012.701       -2849.990          61.000  
G 7  22522016.937       77384.670        2727.057           0.500  
G 8  20627554.871       -9711.621        -628.294           4.500  
> 2023  5 18  0  0 45.6688020  0  4                     
G 1  24298278.895      156255.547        3897.278          59.750  
G 4  23618256.338      -82297.656       -2849.407          61.000  
G 7  22521965.478       77657.394        2727.422           0.500  
G 8  20627566.379       -9774.431        -627.914           4.750  
> 2023  5 18  0  0 45.7688020  0  4                     
G 1  24298204.228      156645.350        3897.598          59.750  
G 4  23618311.215      -82582.624       -2849.268          61.000  
G 7  22521913.177       77930.109        2727.411           0.500  
G 8  20627578.947       -9837.249        -627.806           4.500  
> 2023  5 18  0  0 45.8688020  0  4                     
G 1  24298130.318      157035.153        3897.979          59.750  
G 4  23618365.892      -82867.617       -2860.436          61.000  
G 7  22521861.922       78202.838        2728.890           0.500  
G 8  20627590.870       -9900.058        -627.109           4.500  
> 2023  5 18  0  0 45.9688020  0  4                     
G 1  24298056.231      157424.955        3897.438          59.750  
G 4  23618420.134      -83152.576       -2850.361          61.000  
G 7  22521809.972       78475.527        2727.027           0.500  
G 8  20627602.069       -9962.867        -627.563           4.500  
> 2023  5 18  0  0 46.0688020  0  4                     
G 1  24297982.430      157814.757        3898.586          59.750  
G 4  23618474.208      -83437.539       -2849.625          61.000  
G 7  22521758.214       78748.236        2727.439           0.500  
G 8  20627614.003      -10025.700        -628.319           4.500  
> 2023  5 18  0  0 46.1688020  0  4                     
G 1  24297908.240      158204.561        3898.063          59.750  
G 4  23618526.946      -83722.136       -2818.519          61.000  
G 7  22521705.684       79021.113        2751.599           0.500  
G 8  20627626.011      -10088.530        -627.508           4.500  
> 2023  5 18  0  0 46.2688020  0  4                     
G 1  24297833.997      158594.364        3898.345          59.750  
G 4  23618581.424      -84007.470       -2849.996          61.000  
G 7  22521654.612       79293.640        2727.022           0.500  
G 8  20627638.565      -10151.377        -629.212           4.500  
> 2023  5 18  0  0 46.3688020  0  4                     
G 1  24297759.774      158984.172        3899.046          60.000  
G 4  23618635.293      -84292.451       -2849.601          61.000  
G 7  22521602.533       79566.336        2727.371           0.500  
G 8  20627650.300      -10214.209        -628.320           4.500  
> 2023  5 18  0  0 46.4688020  0  4                     
G 1  24297685.840      159373.963        3898.600          59.750  
G 4  23618690.815      -84577.427       -2850.714          61.000  
G 7  22521550.321       79839.033        2726.902           0.500  
G 8  20627661.947      -10277.050        -628.778           4.500  
> 2023  5 18  0  0 46.5688020  0  4                     
G 1  24297611.854      159763.762        3897.884          59.750  
G 4  23618743.758      -84862.398       -2850.362          61.000  
G 7  22521497.796       80111.724        2726.958           0.500  
G 8  20627674.084      -10339.906        -629.570           4.500  
> 2023  5 18  0  0 46.6688020  0  4                     
G 1  24297537.467      160153.568        3897.876          59.750  
G 4  23618798.709      -85147.377       -2850.200          61.000  
G 7  22521446.162       80384.416        2726.955           0.500  
G 8  20627686.819      -10402.751        -628.371           4.750  
> 2023  5 18  0  0 46.7688020  0  4                     
G 1  24297463.112      160543.373        3898.258          59.750  
G 4  23618852.475      -85432.359       -2850.357          61.000  
G 7  22521393.871       80657.099        2726.388           0.500  
G 8  20627698.908      -10465.606        -628.551           4.750  
> 2023  5 18  0  0 46.8688020  0  4                     
G 1  24297389.606      160933.176        3897.805          60.000  
G 4  23618906.734      -85717.337       -2850.140          61.000  
G 7  22521342.541       80929.789        2726.113           0.500  
G 8  20627710.282      -10528.448        -628.894           4.500  
> 2023  5 18  0  0 46.9688020  0  4                     
G 1  24297314.794      161322.973        3897.936          59.750  
G 4  23618961.062      -86002.306       -2848.323          61.000  
G 7  22521291.092       81202.474        2726.702           0.500  
G 8  20627722.631      -10591.328        -627.630           4.500  
> 2023  5 18  0  0 47.0688020  0  4                     
G 1  24297240.779      161712.772        3897.241          59.750  
G 4  23619015.311      -86287.297       -2849.263          61.000  
G 7  22521238.884       81475.151        2727.132           0.500  
G 8  20627734.181      -10654.200        -629.182           4.500  
> 2023  5 18  0  0 47.1688020  0  4                     
G 1  24297166.687      162102.579        3897.831          59.750  
G 4  23619070.138      -86572.282       -2850.146          61.000  
G 7  22521186.427       81747.829        2727.064           0.500  
G 8  20627746.193      -10717.079        -629.250           4.500  
> 2023  5 18  0  0 47.2688020  0  4                     
G 1  24297092.271      162492.383        3897.980          59.750  
G 4  23619124.301      -86857.262       -2848.923          61.000  
G 7  22521135.154       82020.505        2727.208           0.500  
G 8  20627759.338      -10779.956        -628.867           4.750  
> 2023  5 18  0  0 47.3688020  0  4                     
G 1  24297017.439      162882.184        3898.061          59.750  
G 4  23619178.844      -87142.256       -2849.878          61.000  
G 7  22521083.093       82293.169        2726.644           0.500  
G 8  20627771.033      -10842.838        -629.528           4.750  
> 2023  5 18  0  0 47.4688020  0  4                     
G 1  24296944.005      163271.979        3897.086          59.750  
G 4  23619232.122      -87427.248       -2850.094          61.000  
G 7  22521031.521       82565.840        2726.906           0.500  
G 8  20627782.126      -10905.730        -628.537           4.750  
> 2023  5 18  0  0 47.5688020  0  4                     
G 1  24296869.816      163661.788        3897.812          59.750  
G 4  23619286.853      -87712.239       -2850.351          61.000  
G 7  22520979.026       82838.500        2726.701           0.500  
G 8  20627794.420      -10968.614        -629.021           4.500  
> 2023  5 18  0  0 47.6688020  0  4                     
G 1  24296795.816      164051.594        3899.129          59.750  
G 4  23619341.403      -87997.229       -2850.784          61.000  
G 7  22520927.526       83111.165        2726.744           0.500  
G 8  20627806.252      -11031.496        -629.031           4.500  
> 2023  5 18  0  0 47.7688020  0  4                     
G 1  24296721.680      164441.375        3898.498          59.750  
G 4  23619395.081      -88282.217       -2850.953          61.000  
G 7  22520876.037       83383.820        2726.583           0.500  
G 8  20627818.011      -11094.415        -626.841           4.750  
> 2023  5 18  0  0 47.8688020  0  4                     
G 1  24296646.712      164831.172        3898.321          59.750  
G 4  23619449.466      -88567.216       -2850.275          61.000  
G 7  22520824.640       83656.478        2726.257           0.500  
G 8  20627829.886      -11157.323        -627.531           4.750  
> 2023  5 18  0  0 47.9688020  0  4                     
G 1  24296572.182      165220.976        3897.204          59.750  
G 4  23619503.191      -88852.207       -2849.679          61.000  
G 7  22520772.266       83929.127        2726.695           0.500  
G 8  20627842.687      -11220.231        -628.229           4.750  
> 2023  5 18  0  0 48.0688020  0  4                     
G 1  24296498.194      165610.778        3897.973          59.750  
G 4  23619557.802      -89137.204       -2850.135          61.000  
G 7  22520720.408       84201.777        2726.580           0.500  
G 8  20627854.166      -11283.152        -629.121           4.500  
> 2023  5 18  0  0 48.1688020  0  4                     
G 1  24296424.064      166000.575        3897.441          59.750  
G 4  23619612.278      -89422.204       -2850.338          61.000  
G 7  22520668.148       84474.422        2726.133           0.500  
G 8  20627865.601      -11346.085        -629.055           4.500  
> 2023  5 18  0  0 48.2688020  0  4                     
G 1  24296350.471      166390.380        3897.436          59.750  
G 4  23619666.250      -89707.204       -2849.917          61.000  
G 7  22520616.136       84747.062        2726.022           0.500  
G 8  20627876.877      -11408.997        -628.696           4.500  
> 2023  5 18  0  0 48.3688020  0  4                     
G 1  24296276.685      166780.184        3897.912          59.750  
G 4  23619721.098      -89992.204       -2849.914          61.000  
G 7  22520564.730       85019.703        2725.905           0.500  
G 8  20627890.144      -11471.933        -629.126           4.500  
> 2023  5 18  0  0 48.4688020  0  4                     
G 1  24296202.392      167169.988        3898.284          59.750  
G 4  23619775.251      -90277.208       -2849.468          61.000  
G 7  22520512.317       85292.344        2726.151           0.500  
G 8  20627901.633      -11534.863        -629.533           4.500  
> 2023  5 18  0  0 48.5688020  0  4                     
G 1  24296128.019      167559.772        3898.251          59.750  
G 4  23619829.210      -90562.224       -2850.195          61.000  
G 7  22520460.786       85564.973        2726.053           0.500  
G 8  20627913.611      -11597.800        -629.236           4.500  
> 2023  5 18  0  0 48.6688020  0  4                     
G 1  24296053.533      167949.570        3897.490          59.750  
G 4  23619883.806      -90847.230       -2850.062          61.000  
G 7  22520408.448       85837.600        2726.327           0.500  
G 8  20627925.807      -11660.758        -629.498           4.500  
> 2023  5 18  0  0 48.7688020  0  4                     
G 1  24295979.229      168339.378        3898.438          59.750  
G 4  23619937.819      -91132.239       -2850.540          61.000  
G 7  22520356.771       86110.220        2726.728           0.500  
G 8  20627937.466      -11723.679        -628.821           4.500  
> 2023  5 18  0  0 48.8688020  0  4                     
G 1  24295905.397      168729.175        3897.541          59.750  
G 4  23619993.000      -91417.246       -2849.840          61.000  
G 7  22520305.293       86382.840        2726.153           0.500  
G 8  20627949.746      -11786.652        -629.156           4.750  
> 2023  5 18  0  0 48.9688020  0  4                     
G 1  24295830.836      169118.978        3897.893          59.750  
G 4  23620046.489      -91702.258       -2849.745          61.000  
G 7  22520253.546       86655.467        2726.323           0.500  
G 8  20627961.825      -11849.610        -630.602           4.500  
> 2023  5 18  0  0 49.0688020  0  4                     
G 1  24295756.721      169508.769        3897.561          59.750  
G 4  23620099.921      -91987.267       -2849.693          61.000  
G 7  22520201.274       86928.082        2725.761           0.500  
G 8  20627972.962      -11912.573        -629.872           4.750  
> 2023  5 18  0  0 49.1688020  0  4                     
G 1  24295682.894      169898.565        3897.907          59.750  
G 4  23620154.186      -92272.280       -2850.236          61.000  
G 7  22520149.911       87200.696        2725.663           0.500  
G 8  20627985.893      -11975.555        -630.298           4.500  
> 2023  5 18  0  0 49.2688020  0  4                     
G 1  24295608.200      170288.361        3897.999          59.750  
G 4  23620208.833      -92557.298       -2850.544          61.000  
G 7  22520097.347       87473.313        2725.799           0.500  
G 8  20627997.280      -12038.506        -630.303           4.500  
> 2023  5 18  0  0 49.3688020  0  4                     
G 1  24295533.799      170678.159        3898.044          59.750  
G 4  23620262.832      -92842.311       -2849.588          61.000  
G 7  22520045.949       87745.928        2726.331           0.500  
G 8  20628009.997      -12101.491        -629.697           4.750  
> 2023  5 18  0  0 49.4688020  0  4                     
G 1  24295459.853      171067.958        3897.870          59.750  
G 4  23620317.277      -93127.324       -2849.470          61.000  
G 7  22519993.762       88018.529        2725.893           0.500  
G 8  20628021.611      -12164.470        -630.354           4.500  
> 2023  5 18  0  0 49.5688020  0  4                     
G 1  24295385.331      171457.750        3897.562          59.750  
G 4  23620371.338      -93412.348       -2849.939          61.000  
G 7  22519942.198       88291.143        2726.448           0.500  
G 8  20628033.267      -12227.453        -629.159           4.500  
> 2023  5 18  0  0 49.6688020  0  4                     
G 1  24295311.815      171847.542        3897.646          59.750  
G 4  23620425.575      -93697.369       -2850.160          61.000  
G 7  22519890.067       88563.740        2725.466           0.500  
G 8  20628045.696      -12290.451        -630.418           4.500  
> 2023  5 18  0  0 49.7688020  0  4                     
G 1  24295237.795      172237.348        3898.195          59.750  
G 4  23620480.349      -93982.394       -2850.413          61.000  
G 7  22519838.528       88836.346        2725.907           0.500  
G 8  20628057.665      -12353.432        -629.333           4.500  
> 2023  5 18  0  0 49.8688020  0  4                     
G 1  24295164.015      172627.137        3898.186          59.750  
G 4  23620534.328      -94267.417       -2850.445          61.000  
G 7  22519786.695       89108.929        2726.583           0.500  
G 8  20628069.649      -12416.440        -629.294           4.500  
> 2023  5 18  0  0 49.9688020  0  4                     
G 1  24295089.400      173016.915        3898.704          59.750  
G 4  23620588.236      -94552.442       -2850.112          61.000  
G 7  22519734.557       89381.525        2725.878           0.500  
G 8  20628081.372      -12479.459        -631.665           4.500  
> 2023  5 18  0  0 50.0688020  0  4                     
G 1  24295015.917      173406.706        3898.135          59.750  
G 4  23620642.837      -94837.470       -2850.369          61.000  
G 7  22519682.002       89654.113        2726.580           0.500  
G 8  20628093.442      -12542.442        -628.057           4.500  
> 2023  5 18  0  0 50.1688020  0  4                     
G 1  24294941.359      173796.503        3897.700          59.750  
G 4  23620697.006      -95122.498       -2850.099          61.000  
G 7  22519630.356       89926.697        2725.661           0.500  
G 8  20628105.392      -12605.492        -632.060           4.500  
> 2023  5 18  0  0 50.2688020  0  4                     
G 1  24294867.036      174186.300        3897.709          59.750  
G 4  23620751.432      -95407.535       -2850.466          61.000  
G 7  22519578.400       90199.281        2725.632           0.500  
G 8  20628117.178      -12668.489        -630.542           4.500  
> 2023  5 18  0  0 50.3688020  0  4                     
G 1  24294792.141      174576.101        3897.986          59.750  
G 4  23620806.351      -95692.561       -2850.095          61.000  
G 7  22519526.561       90471.865        2725.938           0.500  
G 8  20628129.790      -12731.516        -629.515           4.750  
> 2023  5 18  0  0 50.4688020  0  4                     
G 1  24294718.703      174965.894        3897.773          59.750  
G 4  23620860.143      -95977.607       -2852.404          61.000  
G 7  22519475.226       90744.446        2725.485           0.500  
G 8  20628141.148      -12794.551        -631.868           4.500  
> 2023  5 18  0  0 50.5688020  0  4                     
G 1  24294644.120      175355.697        3898.053          59.750  
G 4  23620914.403      -96262.574       -2858.340          61.000  
G 7  22519423.302       91017.093        2737.194           0.500  
G 8  20628154.222      -12857.563        -629.530           4.500  
> 2023  5 18  0  0 50.6688020  0  4                     
G 1  24294569.603      175745.487        3897.792          59.750  
G 4  23620968.641      -96547.668       -2850.510          61.000  
G 7  22519371.479       91289.591        2725.623           0.500  
G 8  20628166.394      -12920.613        -629.992           4.500  
> 2023  5 18  0  0 50.7688020  0  4                     
G 1  24294495.920      176135.284        3897.953          59.750  
G 4  23621022.347      -96832.716       -2850.681          61.000  
G 7  22519319.543       91562.164        2725.605           0.500  
G 8  20628177.662      -12983.658        -631.166           4.500  
> 2023  5 18  0  0 50.8688020  0  4                     
G 1  24294421.577      176525.078        3897.919          59.750  
G 4  23621077.350      -97117.753       -2850.661          61.000  
G 7  22519267.272       91834.729        2725.294           0.500  
G 8  20628189.625      -13046.704        -630.409           4.500  
> 2023  5 18  0  0 50.9688020  0  4                     
G 1  24294347.096      176914.867        3897.172          59.750  
G 4  23621131.232      -97402.857       -2858.771          61.000  
G 7  22519215.669       92107.295        2725.725           0.500  
G 8  20628200.953      -13109.756        -631.535           4.500  
> 2023  5 18  0  0 51.0688020  0  4                     
G 1  24294273.292      177304.674        3898.359          59.750  
G 4  23621185.602      -97687.832       -2850.298          61.000  
G 7  22519164.019       92379.846        2725.287           0.500  
G 8  20628212.497      -13172.799        -630.714           4.500  
> 2023  5 18  0  0 51.1688020  0  4                     
G 1  24294199.032      177694.462        3897.164          59.750  
G 4  23621239.722      -97972.873       -2850.177          61.000  
G 7  22519112.115       92652.408        2725.338           0.500  
G 8  20628225.526      -13235.870        -629.841           4.500  
> 2023  5 18  0  0 51.2688020  0  4                     
G 1  24294125.242      178084.256        3897.452          59.750  
G 4  23621293.839      -98257.924       -2851.302          61.000  
G 7  22519060.331       92924.956        2724.777           0.500  
G 8  20628237.275      -13298.936        -632.307           4.500  
> 2023  5 18  0  0 51.3688020  0  4                     
G 1  24294051.334      178474.059        3898.253          59.750  
G 4  23621348.232      -98542.968       -2850.774          61.000  
G 7  22519008.449       93197.515        2725.165           0.500  
G 8  20628249.390      -13361.989        -629.665           4.500  
> 2023  5 18  0  0 51.4688020  0  4                     
G 1  24293976.788      178863.849        3897.986          59.750  
G 4  23621401.968      -98828.011       -2850.794          61.000  
G 7  22518956.693       93470.062        2725.538           0.500  
G 8  20628261.418      -13425.077        -630.450           4.750  
> 2023  5 18  0  0 51.5688020  0  4                     
G 1  24293903.087      179253.631        3898.677          59.750  
G 4  23621456.145      -99113.073       -2850.728          61.000  
G 7  22518904.826       93742.609        2725.090           0.500  
G 8  20628273.130      -13488.138        -630.852           4.500  
> 2023  5 18  0  0 51.6688020  0  4                     
G 1  24293828.977      179643.427        3898.357          59.750  
G 4  23621510.530      -99398.124       -2850.486          61.000  
G 7  22518852.960       94015.148        2725.738           0.500  
G 8  20628285.734      -13551.227        -630.667           4.500  
> 2023  5 18  0  0 51.7688020  0  4                     
G 1  24293754.568      180033.225        3898.185          59.750  
G 4  23621564.769      -99683.174       -2850.807          61.000  
G 7  22518800.981       94287.686        2724.969           0.500  
G 8  20628297.508      -13614.320        -630.692           4.500  
> 2023  5 18  0  0 51.8688020  0  4                     
G 1  24293680.496      180423.013        3897.490          59.750  
G 4  23621618.998      -99968.227       -2850.434          61.000  
G 7  22518748.901       94560.225        2725.872           0.500  
G 8  20628308.834      -13677.405        -631.214           4.500  
> 2023  5 18  0  0 51.9688020  0  4                     
G 1  24293606.027      180812.811        3897.868          59.750  
G 4  23621673.144     -100253.276       -2849.680          61.000  
G 7  22518697.082       94832.759        2725.282           0.500  
G 8  20628321.699      -13740.510        -630.803           4.500  
> 2023  5 18  0  0 52.0688020  0  4                     
G 1  24293531.603      181202.611        3898.014          59.750  
G 4  23621727.857     -100538.339       -2850.400          61.000  
G 7  22518645.349       95105.298        2725.966           0.500  
G 8  20628333.412      -13803.611        -631.382           4.500  
> 2023  5 18  0  0 52.1688020  0  4                     
G 1  24293457.502      181592.406        3897.915          59.750  
G 4  23621782.035     -100823.396       -2850.056          61.000  
G 7  22518593.330       95377.822        2725.283           0.500  
G 8  20628345.143      -13866.701        -630.767           4.500  
> 2023  5 18  0  0 52.2688020  0  4                     
G 1  24293384.157      181982.206        3898.400          59.750  
G 4  23621835.845     -101108.456       -2849.742          61.000  
G 7  22518541.606       95650.350        2724.874           0.500  
G 8  20628357.641      -13929.835        -632.181           4.500  
> 2023  5 18  0  0 52.3688020  0  4                     
G 1  24293309.657      182371.994        3897.205          59.750  
G 4  23621890.704     -101393.527       -2850.164          61.000  
G 7  22518489.997       95922.860        2724.731           0.500  
G 8  20628369.268      -13992.947        -631.641           4.500  
> 2023  5 18  0  0 52.4688020  0  4                     
G 1  24293234.790      182761.789        3897.795          59.750  
G 4  23621944.518     -101678.593       -2851.232          61.000  
G 7  22518438.225       96195.382        2724.873           0.500  
G 8  20628381.332      -14056.042        -629.858           4.500  
> 2023  5 18  0  0 52.5688020  0  4                     
G 1  24293161.032      183151.587        3897.908          59.750  
G 4  23621998.616     -101963.650       -2850.500          61.000  
G 7  22518386.051       96467.899        2725.403           0.500  
G 8  20628393.397      -14119.196        -632.087           4.500  
> 2023  5 18  0  0 52.6688020  0  4                     
G 1  24293086.576      183541.382        3897.978          59.750  
G 4  23622052.638     -102248.718       -2851.423          61.000  
G 7  22518334.210       96740.414        2724.869           0.500  
G 8  20628405.124      -14182.308        -632.038           4.500  
> 2023  5 18  0  0 52.7688020  0  4                     
G 1  24293012.188      183931.183        3898.186          59.750  
G 4  23622107.878     -102533.782       -2851.096          61.000  
G 7  22518281.986       97012.922        2724.959           0.500  
G 8  20628417.445      -14245.429        -630.572           4.500  
> 2023  5 18  0  0 52.8688020  0  4                     
G 1  24292937.783      184320.969        3897.724          59.750  
G 4  23622161.742     -102818.845       -2850.927          61.000  
G 7  22518230.048       97285.432        2724.855           0.500  
G 8  20628430.057      -14308.585        -632.013           4.500  
> 2023  5 18  0  0 52.9688020  0  4                     
G 1  24292863.379      184710.765        3897.138          59.750  
G 4  23622215.840     -103103.912       -2850.779          61.000  
G 7  22518178.581       97557.932        2724.592           0.500  
G 8  20628441.325      -14371.718        -631.580           4.500  
> 2023  5 18  0  0 53.0688020  0  4                     
G 1  24292788.782      185100.562        3897.463          59.750  
G 4  23622270.998     -103388.980       -2850.608          61.000  
G 7  22518126.304       97830.441        2725.416           0.500  
G 8  20628454.236      -14434.860        -630.976           4.500  
> 2023  5 18  0  0 53.1688020  0  4                     
G 1  24292715.328      185490.359        3898.094          59.750  
G 4  23622325.045     -103674.051       -2850.473          61.000  
G 7  22518074.797       98102.933        2724.336           0.500  
G 8  20628466.378      -14498.026        -632.014           4.500  
> 2023  5 18  0  0 53.2688020  0  4                     
G 1  24292641.051      185880.162        3898.437          59.750  
G 4  23622378.834     -103959.125       -2850.697          61.000  
G 7  22518022.871       98375.442        2725.604           0.500  
G 8  20628477.535      -14561.169        -631.710           4.500  
> 2023  5 18  0  0 53.3688020  0  4                     
G 1  24292567.556      186269.961        3898.691          59.750  
G 4  23622433.144     -104244.203       -2850.240          61.000  
G 7  22517970.910       98647.922        2724.370           0.500  
