     3.03           OBSERVATION DATA    M: Mixed            RINEX VERSION / TYPE
GNSS-SDRLIB v1.1                        20231210 101743 UTC PGM / RUN BY / DATE 
                                                            MARKER NAME         
                                                            MARKER NUMBER       
                                                            MARKER TYPE         
                                                            OBSERVER / AGENCY   
GNSS-SDRLIB         GNSS-SDRLIB         1.1                 REC # / TYPE / VERS 
                                                            ANT # / TYPE        
        0.0000        0.0000        0.0000                  APPROX POSITION XYZ 
        0.0000        0.0000        0.0000                  ANTENNA: DELTA H/E/N
G    4 C1C L1C D1C S1C                                      SYS / # / OBS TYPES 
R    4 C1C L1C D1C S1C                                      SYS / # / OBS TYPES 
E    4 C1C L1C D1C S1C                                      SYS / # / OBS TYPES 
J    4 C1C L1C D1C S1C                                      SYS / # / OBS TYPES 
S    4 C1C L1C D1C S1C                                      SYS / # / OBS TYPES 
C    4 C1C L1C D1C S1C                                      SYS / # / OBS TYPES 
I    4 C1C L1C D1C S1C                                      SYS / # / OBS TYPES 
  1970    01    01    00    00   00.0000000     GPS         TIME OF FIRST OBS   
  1970    01    01    00    00   00.0000000     GPS         TIME OF LAST OBS    
G L1C                                                       SYS / PHASE SHIFT   
R L1C                                                       SYS / PHASE SHIFT   
E L1C  0.00000                                              SYS / PHASE SHIFT   
J L1C                                                       SYS / PHASE SHIFT   
S L1C                                                       SYS / PHASE SHIFT   
C L1C  0.00000                                              SYS / PHASE SHIFT   
I L1C  0.00000                                              SYS / PHASE SHIFT   
  0                                                         GLONASS SLOT / FRQ #
 C1C    0.000 C1P    0.000 C2C    0.000 C2P    0.000        GLONASS COD/PHS/BIS 
                                                            END OF HEADER       
> 2023 05 18 00 00 36.0688020  0  1                     
G05  20623393.069       43091.549        2049.010           0.255  
> 2023 05 18 00 00 36.0688020  0  2                     
G05  22536033.819       43078.475        2047.582           0.255  
G06  20627217.154       -6209.798        -481.632           0.255  
> 2023 05 18 00 00 36.0688020  0  4                     
G03  22335982.512      -11114.556        -500.357           0.255  
G05  22536033.819       43078.475        2047.582           0.255  
G06  20627217.154       -6209.798        -481.632           0.255  
G07  23384795.993      -13958.119       -1293.648           0.248  
> 2023 05 18 00 00 36.0688020  0  5                     
G02  24268754.101       87106.957        2906.941           0.239  
G03  22335982.512      -11114.556        -500.357           0.255  
G05  22536033.819       43078.475        2047.582           0.255  
G06  20627217.154       -6209.798        -481.632           0.255  
G07  23384795.993      -13958.119       -1293.648           0.248  
> 2023 05 18 00 00 36.0688020  0  6                     
G02  24268754.101       87106.957        2906.941           0.239  
G03  22335982.512      -11114.556        -500.357           0.255  
G04  23581332.638      -42279.977       -2146.322           0.244  
G05  22536033.819       43078.475        2047.582           0.255  
G06  20627217.154       -6209.798        -481.632           0.255  
G07  23384795.993      -13958.119       -1293.648           0.248  
> 2023 05 18 00 00 36.1688020  0  6                     
G02  24268680.373       87397.573        2907.517           0.239  
G03  22335997.241      -11164.627        -500.814           0.255  
G04  23581386.207      -42491.792       -2107.836           0.244  
G05  22535981.646       43283.279        2048.025           0.255  
G06  20627228.227       -6257.966        -481.833           0.255  
G07  23384829.591      -14087.480       -1288.202           0.248  
> 2023 05 18 00 00 36.2688020  0  6                     
G02  24268606.992       87688.160        2904.667           0.239  
G03  22336010.309      -11214.696        -500.337           0.255  
G04  23581440.841      -42703.202       -2116.445           0.244  
G05  22535929.222       43488.082        2048.286           0.255  
G06  20627240.411       -6306.144        -481.535           0.255  
G07  23384862.658      -14216.869       -1293.813           0.248  
> 2023 05 18 00 00 36.3688020  0  6                     
G02  24268533.681       87978.752        2905.726           0.239  
G03  22336023.773      -11264.771        -500.113           0.255  
G04  23581493.618      -42914.900       -2116.532           0.244  
G05  22535876.978       43692.882        2048.512           0.255  
G06  20627252.134       -6354.320        -481.976           0.255  
G07  23384895.497      -14346.252       -1293.684           0.248  
> 2023 05 18 00 00 36.4688020  0  6                     
G02  24268458.207       88269.357        2906.877           0.239  
G03  22336036.935      -11314.857        -501.436           0.255  
G04  23581547.959      -43126.621       -2117.937           0.244  
G05  22535825.032       43897.676        2048.124           0.255  
G06  20627264.301       -6402.499        -481.444           0.255  
G07  23384928.456      -14475.635       -1293.800           0.248  
> 2023 05 18 00 00 36.5688020  0  6                     
G02  24268384.144       88559.987        2909.068           0.239  
G03  22336049.966      -11364.872        -491.339           0.255  
G04  23581601.523      -43338.696       -2138.077           0.244  
G05  22535772.689       44102.476        2047.692           0.255  
G06  20627276.700       -6450.682        -481.903           0.255  
G07  23384961.305      -14605.025       -1293.898           0.248  
> 2023 05 18 00 00 36.6688020  0  6                     
G02  24268309.741       88850.576        2905.956           0.239  
G03  22336062.453      -11415.198        -522.657           0.255  
G04  23581656.409      -43550.053       -2116.159           0.244  
G05  22535720.513       44307.266        2047.620           0.255  
G06  20627288.841       -6498.868        -481.705           0.255  
G07  23384994.513      -14734.410       -1293.915           0.248  
> 2023 05 18 00 00 36.7688020  0  6                     
G02  24268236.947       89141.162        2904.430           0.239  
G03  22336074.515      -11465.127        -500.403           0.255  
G04  23581708.511      -43761.703       -2132.058           0.244  
G05  22535668.786       44512.385        2144.568           0.255  
G06  20627301.589       -6547.064        -482.049           0.255  
G07  23385027.202      -14863.809       -1294.099           0.248  
> 2023 05 18 00 00 36.8688020  0  6                     
G02  24268162.165       89431.741        2905.236           0.239  
G03  22336087.556      -11515.214        -500.053           0.255  
G04  23581763.835      -43973.478       -2117.029           0.244  
G05  22535616.498       44716.842        2048.256           0.255  
G06  20627313.599       -6595.262        -482.394           0.255  
G07  23385060.344      -14993.201       -1293.875           0.248  
> 2023 05 18 00 00 36.9688020  0  6                     
G02  24268088.368       89722.352        2908.663           0.239  
G03  22336100.652      -11565.335        -501.205           0.255  
G04  23581817.743      -44185.196       -2119.290           0.244  
G05  22535564.123       44921.625        2047.635           0.255  
G06  20627326.227       -6643.456        -481.896           0.255  
G07  23385093.103      -15122.604       -1293.926           0.248  
> 2023 05 18 00 00 37.0688020  0  6                     
G02  24268013.991       90012.979        2907.395           0.239  
G03  22336112.981      -11615.424        -490.736           0.255  
G04  23581871.610      -44396.930       -2118.588           0.243  
G05  22535512.227       45126.407        2047.076           0.255  
G06  20627338.417       -6691.656        -482.140           0.255  
G07  23385125.933      -15252.004       -1294.097           0.248  
> 2023 05 18 00 00 37.1688020  0  6                     
G02  24267940.686       90303.557        2905.185           0.239  
G03  22336125.274      -11665.558        -501.014           0.255  
G04  23581926.133      -44608.632       -2116.445           0.244  
G05  22535460.080       45331.188        2048.258           0.255  
G06  20627350.691       -6739.862        -481.872           0.255  
G07  23385158.877      -15381.414       -1294.145           0.248  
> 2023 05 18 00 00 37.2688020  0  6                     
G02  24267865.829       90594.173        2906.655           0.239  
G03  22336136.581      -11715.680        -501.795           0.255  
G04  23581980.521      -44820.359       -2117.783           0.244  
G05  22535407.311       45535.968        2048.377           0.255  
G06  20627363.648       -6788.066        -481.644           0.255  
G07  23385191.914      -15510.822       -1294.631           0.248  
> 2023 05 18 00 00 37.3688020  0  6                     
G02  24267793.290       90884.814        2910.121           0.239  
G03  22336150.969      -11765.811        -502.428           0.255  
G04  23582033.153      -45032.070       -2116.911           0.244  
G05  22535355.191       45740.173        1939.329           0.255  
G06  20627375.626       -6836.275        -481.565           0.255  
G07  23385224.891      -15640.232       -1294.194           0.248  
> 2023 05 18 00 00 37.4688020  0  6                     
G02  24267719.533       91175.361        2905.985           0.239  
G03  22336164.726      -11815.935        -501.949           0.255  
G04  23582085.965      -45243.792       -2117.365           0.244  
G05  22535303.068       45945.509        2047.309           0.255  
G06  20627387.103       -6884.490        -481.836           0.255  
G07  23385258.055      -15769.644       -1294.100           0.248  
> 2023 05 18 00 00 37.5688020  0  6                     
G02  24267644.221       91465.957        2906.214           0.239  
G03  22336177.989      -11866.069        -501.819           0.255  
G04  23582141.168      -45455.183       -2056.972           0.244  
G05  22535250.915       46150.277        2047.236           0.255  
G06  20627399.054       -6932.708        -481.825           0.255  
G07  23385291.052      -15899.064       -1294.103           0.248  
> 2023 05 18 00 00 37.6688020  0  6                     
G02  24267570.340       91756.562        2905.075           0.239  
G03  22336189.631      -11916.201        -501.552           0.255  
G04  23582194.314      -45667.237       -2116.839           0.244  
G05  22535198.930       46355.052        2047.727           0.255  
G06  20627412.027       -6980.932        -482.054           0.255  
G07  23385324.180      -16028.483       -1294.582           0.248  
> 2023 05 18 00 00 37.7688020  0  6                     
G02  24267496.634       92047.166        2906.232           0.239  
G03  22336202.156      -11966.341        -501.707           0.255  
G04  23582247.623      -45878.959       -2118.025           0.244  
G05  22535146.325       46559.823        2048.331           0.255  
G06  20627424.520       -7029.157        -482.258           0.255  
G07  23385357.510      -16157.907       -1293.935           0.248  
> 2023 05 18 00 00 37.8688020  0  6                     
G02  24267422.130       92337.758        2906.310           0.240  
G03  22336213.510      -12016.487        -501.470           0.255  
G04  23582302.216      -46090.423       -2099.403           0.244  
G05  22535094.583       46764.585        2047.412           0.255  
G06  20627437.684       -7077.389        -482.563           0.255  
G07  23385389.681      -16287.330       -1294.096           0.248  
> 2023 05 18 00 00 37.9688020  0  6                     
G02  24267345.560       92628.370        2907.118           0.239  
G03  22336227.787      -12066.640        -501.627           0.255  
G04  23582357.645      -46302.413       -2118.486           0.244  
G05  22535042.509       46969.350        2047.110           0.255  
G06  20627449.632       -7125.615        -482.236           0.255  
G07  23385422.806      -16416.764       -1294.288           0.248  
> 2023 05 18 00 00 38.0688020  0  6                     
G02  24267273.032       92918.980        2906.715           0.239  
G03  22336240.639      -12116.792        -502.074           0.255  
G04  23582411.106      -46514.142       -2117.888           0.244  
G05  22534990.452       47174.117        2047.743           0.255  
G06  20627461.530       -7173.854        -481.874           0.255  
G07  23385455.662      -16546.191       -1293.804           0.248  
> 2023 05 18 00 00 38.1688020  0  6                     
G02  24267199.819       93209.577        2907.553           0.239  
G03  22336251.961      -12167.112        -516.539           0.255  
G04  23582464.863      -46726.132       -2147.566           0.244  
G05  22534937.946       47378.896        2059.740           0.255  
G06  20627474.513       -7222.092        -482.280           0.255  
G07  23385489.085      -16675.720       -1298.787           0.248  
> 2023 05 18 00 00 38.2688020  0  6                     
G02  24267124.708       93500.176        2905.966           0.239  
G03  22336267.033      -12217.246        -529.125           0.255  
G04  23582519.231      -46937.818       -2139.460           0.244  
G05  22534886.084       47583.376        1992.493           0.255  
G06  20627485.495       -7270.333        -482.473           0.255  
G07  23385522.127      -16805.041       -1286.015           0.248  
> 2023 05 18 00 00 38.3688020  0  6                     
G02  24267051.904       93790.744        2933.935           0.239  
G03  22336278.050      -12267.281        -501.546           0.255  
G04  23582571.870      -47149.334       -2116.665           0.244  
G05  22534833.883       47788.390        2046.941           0.255  
G06  20627498.474       -7318.585        -482.719           0.255  
G07  23385554.556      -16934.512       -1294.288           0.248  
> 2023 05 18 00 00 38.4688020  0  6                     
G02  24266977.496       94081.377        2905.913           0.239  
G03  22336294.469      -12317.455        -501.385           0.255  
G04  23582626.820      -47361.073       -2117.326           0.244  
G05  22534781.581       47993.150        2047.474           0.255  
G06  20627509.420       -7366.831        -482.405           0.255  
G07  23385587.305      -17063.958       -1294.222           0.248  
> 2023 05 18 00 00 38.5688020  0  6                     
G02  24266903.139       94371.981        2905.410           0.239  
G03  22336305.197      -12367.634        -501.801           0.255  
G04  23582681.244      -47572.811       -2117.553           0.244  
G05  22534729.443       48197.904        2048.210           0.255  
G06  20627522.119       -7415.081        -482.236           0.255  
G07  23385620.771      -17193.404       -1294.817           0.248  
> 2023 05 18 00 00 38.6688020  0  6                     
G02  24266829.615       94662.556        2905.302           0.239  
G03  22336318.735      -12417.817        -502.257           0.255  
G04  23582734.734      -47784.543       -2116.920           0.244  
G05  22534676.980       48402.335        1992.838           0.255  
G06  20627534.268       -7463.341        -482.719           0.255  
G07  23385654.016      -17322.856       -1294.536           0.248  
> 2023 05 18 00 00 38.7688020  0  6                     
G02  24266756.511       94953.171        2906.128           0.239  
G03  22336331.409      -12467.999        -501.751           0.255  
G04  23582786.279      -47996.288       -2117.718           0.244  
G05  22534624.759       48607.397        2047.220           0.255  
G06  20627546.952       -7511.598        -482.178           0.255  
G07  23385687.268      -17452.312       -1294.469           0.248  
> 2023 05 18 00 00 38.8688020  0  6                     
G02  24266682.413       95243.772        2906.546           0.238  
G03  22336344.471      -12518.189        -501.950           0.255  
G04  23582840.971      -48208.022       -2117.663           0.243  
G05  22534572.698       48812.148        2047.110           0.255  
G06  20627559.274       -7559.861        -482.483           0.255  
G07  23385719.938      -17581.771       -1294.890           0.248  
> 2023 05 18 00 00 38.9688020  0  6                     
G02  24266608.190       95534.196        2882.741           0.239  
G03  22336354.865      -12568.354        -491.449           0.255  
G04  23582895.407      -48419.758       -2117.661           0.244  
G05  22534520.402       49016.892        2047.921           0.255  
G06  20627572.220       -7608.128        -482.584           0.255  
G07  23385752.793      -17711.181       -1298.470           0.248  
> 2023 05 18 00 00 39.0688020  0  6                     
G02  24266532.384       95824.978        2906.593           0.239  
G03  22336367.785      -12618.512        -490.662           0.255  
G04  23582950.916      -48631.493       -2117.611           0.244  
G05  22534468.098       49221.632        2047.713           0.255  
G06  20627585.154       -7656.396        -482.680           0.255  
G07  23385785.927      -17840.683       -1294.365           0.248  
> 2023 05 18 00 00 39.1688020  0  6                     
G02  24266457.690       96115.320        2919.659           0.239  
G03  22336382.003      -12668.789        -501.975           0.255  
G04  23583005.273      -48843.227       -2117.251           0.244  
G05  22534416.435       49426.448        2049.712           0.255  
G06  20627596.921       -7704.666        -482.668           0.255  
G07  23385818.751      -17970.148       -1295.058           0.248  
> 2023 05 18 00 00 39.2688020  0  6                     
G02  24266384.542       96406.161        2905.729           0.239  
G03  22336395.484      -12718.998        -502.271           0.255  
G04  23583058.884      -49054.974       -2117.389           0.244  
G05  22534363.971       49631.103        2047.192           0.255  
G06  20627608.606       -7752.945        -482.554           0.255  
G07  23385851.120      -18099.612       -1294.662           0.248  
> 2023 05 18 00 00 39.3688020  0  6                     
G02  24266311.214       96696.770        2906.450           0.239  
G03  22336404.373      -12769.210        -502.427           0.255  
G04  23583112.646      -49266.545       -2094.478           0.244  
G05  22534312.435       49835.844        2047.708           0.255  
G06  20627622.164       -7801.226        -482.708           0.255  
G07  23385885.215      -18229.083       -1294.696           0.248  
> 2023 05 18 00 00 39.4688020  0  6                     
G02  24266237.288       96987.373        2905.531           0.239  
G03  22336418.778      -12819.429        -502.134           0.255  
G04  23583165.872      -49478.462       -2116.653           0.244  
G05  22534259.787       50040.574        2047.252           0.255  
G06  20627633.691       -7849.514        -483.029           0.255  
G07  23385917.955      -18358.557       -1294.815           0.248  
> 2023 05 18 00 00 39.5688020  0  6                     
G02  24266162.823       97277.982        2906.943           0.239  
G03  22336432.001      -12869.649        -502.208           0.255  
G04  23583219.862      -49690.216       -2118.116           0.244  
G05  22534207.763       50245.302        2046.750           0.255  
G06  20627645.992       -7897.795        -482.780           0.255  
G07  23385951.091      -18488.032       -1295.090           0.248  
> 2023 05 18 00 00 39.6688020  0  6                     
G02  24266088.536       97568.570        2906.804           0.239  
G03  22336443.467      -12919.877        -502.319           0.255  
G04  23583273.953      -49901.938       -2117.662           0.244  
G05  22534155.579       50450.040        2047.573           0.255  
G06  20627658.834       -7946.088        -482.936           0.255  
G07  23385984.295      -18617.509       -1294.576           0.248  
> 2023 05 18 00 00 39.7688020  0  6                     
G02  24266014.193       97859.179        2904.777           0.239  
G03  22336457.508      -12970.108        -502.145           0.255  
G04  23583329.884      -50113.697       -2115.817           0.244  
G05  22534103.225       50654.760        2047.280           0.255  
G06  20627670.179       -7994.379        -482.957           0.255  
G07  23386016.231      -18746.991       -1294.616           0.248  
> 2023 05 18 00 00 39.8688020  0  6                     
G02  24265940.431       98149.784        2906.623           0.239  
G03  22336470.929      -13020.348        -502.611           0.255  
G04  23583382.668      -50325.444       -2117.891           0.244  
G05  22534050.998       50859.478        2046.754           0.255  
G06  20627682.414       -8042.677        -482.925           0.255  
G07  23386050.011      -18876.481       -1295.042           0.248  
> 2023 05 18 00 00 39.9688020  0  6                     
G02  24265865.892       98440.376        2905.924           0.239  
G03  22336483.522      -13070.582        -502.065           0.255  
G04  23583436.917      -50537.189       -2116.460           0.244  
G05  22533998.673       51064.208        2047.400           0.255  
G06  20627695.479       -8090.982        -483.206           0.255  
G07  23386083.635      -19005.960       -1294.383           0.248  
> 2023 05 18 00 00 40.0688020  0  6                     
G02  24265791.997       98730.979        2905.330           0.239  
G03  22336496.376      -13120.829        -502.267           0.255  
G04  23583490.074      -50748.762       -2076.232           0.244  
G05  22533946.927       51268.930        2047.909           0.255  
G06  20627707.343       -8139.285        -483.299           0.255  
G07  23386115.667      -19135.449       -1294.370           0.248  
> 2023 05 18 00 00 40.1688020  0  6                     
G02  24265718.317       99021.580        2905.336           0.239  
G03  22336508.573      -13171.080        -502.459           0.255  
G04  23583544.581      -50960.861       -2105.828           0.244  
G05  22533894.351       51473.643        2047.275           0.255  
G06  20627719.643       -8187.594        -482.757           0.255  
G07  23386149.123      -19264.949       -1295.368           0.248  
> 2023 05 18 00 00 40.2688020  0  6                     
G02  24265643.417       99312.174        2905.370           0.239  
G03  22336521.644      -13221.335        -502.459           0.255  
G04  23583599.219      -51172.454       -2117.579           0.244  
G05  22533841.677       51678.359        2046.880           0.255  
G06  20627733.432       -8235.907        -483.186           0.255  
G07  23386181.696      -19394.439       -1294.047           0.248  
> 2023 05 18 00 00 40.3688020  0  6                     
G02  24265571.295       99602.776        2906.357           0.239  
G03  22336533.149      -13271.593        -502.626           0.255  
G04  23583651.962      -51384.215       -2118.186           0.244  
G05  22533789.785       51883.075        2047.340           0.255  
G06  20627745.580       -8284.223        -483.396           0.255  
G07  23386214.586      -19523.943       -1294.997           0.248  
> 2023 05 18 00 00 40.4688020  0  6                     
G02  24265496.456       99893.375        2906.632           0.239  
G03  22336546.938      -13321.855        -502.571           0.255  
G04  23583705.936      -51595.965       -2117.958           0.244  
G05  22533737.726       52087.789        2047.339           0.255  
G06  20627757.086       -8332.538        -483.225           0.255  
G07  23386247.837      -19653.448       -1294.885           0.248  
> 2023 05 18 00 00 40.5688020  0  6                     
G02  24265422.888      100182.869        2847.479           0.239  
G03  22336562.739      -13372.127        -503.072           0.255  
G04  23583760.595      -51807.488       -2038.606           0.244  
G05  22533685.747       52292.288        2006.864           0.255  
G06  20627767.784       -8380.863        -483.717           0.255  
G07  23386280.490      -19783.126       -1310.985           0.248  
> 2023 05 18 00 00 40.6688020  0  6                     
G02  24265348.310      100474.569        2903.320           0.239  
G03  22336574.679      -13422.396        -502.987           0.255  
G04  23583813.889      -52019.464       -2116.096           0.244  
G05  22533634.265       52497.204        2047.183           0.255  
G06  20627780.234       -8429.183        -483.828           0.255  
G07  23386313.113      -19912.462       -1294.629           0.248  
> 2023 05 18 00 00 40.7688020  0  6                     
G02  24265274.571      100764.815        2857.987           0.239  
G03  22336587.411      -13472.639        -479.174           0.255  
G04  23583867.923      -52231.215       -2115.480           0.244  
G05  22533581.839       52701.912        2047.474           0.255  
G06  20627792.669       -8477.507        -482.992           0.255  
G07  23386346.609      -20041.978       -1294.557           0.248  
> 2023 05 18 00 00 40.8688020  0  6                     
G02  24265200.161      101055.775        2906.220           0.239  
G03  22336598.719      -13522.950        -502.857           0.255  
G04  23583921.945      -52442.982       -2117.487           0.244  
G05  22533529.567       52906.611        2047.176           0.255  
G06  20627805.887       -8525.844        -483.310           0.255  
G07  23386380.350      -20171.502       -1295.170           0.248  
> 2023 05 18 00 00 40.9688020  0  6                     
G02  24265126.106      101346.370        2906.031           0.239  
G03  22336613.145      -13573.242        -503.222           0.255  
G04  23583976.187      -52654.587       -2141.883           0.244  
G05  22533477.078       53111.308        2046.520           0.255  
G06  20627817.203       -8574.174        -483.183           0.255  
G07  23386413.059      -20301.018       -1295.167           0.248  
> 2023 05 18 00 00 41.0688020  0  6                     
G02  24265052.332      101636.989        2907.840           0.239  
G03  22336626.276      -13623.525        -503.041           0.255  
G04  23584029.426      -52866.530       -2100.841           0.244  
G05  22533425.222       53316.010        2047.226           0.255  
G06  20627829.574       -8622.515        -482.946           0.255  
G07  23386445.810      -20430.571       -1307.769           0.248  
> 2023 05 18 00 00 41.1688020  0  6                     
G02  24264977.393      101927.588        2907.002           0.239  
G03  22336637.749      -13673.822        -503.374           0.255  
G04  23584083.998      -53078.277       -2118.767           0.244  
G05  22533372.987       53520.706        2047.432           0.255  
G06  20627842.726       -8670.858        -484.009           0.255  
G07  23386479.272      -20560.061       -1295.359           0.248  
> 2023 05 18 00 00 41.2688020  0  6                     
G02  24264904.391      102218.186        2907.178           0.239  
G03  22336650.476      -13724.118        -503.037           0.255  
G04  23584137.899      -53290.031       -2118.194           0.244  
G05  22533320.386       53725.390        2045.913           0.255  
G06  20627854.846       -8719.200        -483.286           0.255  
G07  23386511.743      -20689.592       -1295.974           0.248  
> 2023 05 18 00 00 41.3688020  0  6                     
G02  24264830.937      102508.777        2905.439           0.239  
G03  22336662.607      -13774.423        -502.828           0.255  
G04  23584191.213      -53501.793       -2117.376           0.244  
G05  22533268.099       53930.088        2046.609           0.255  
G06  20627867.684       -8767.552        -483.504           0.255  
G07  23386545.019      -20819.058       -1260.262           0.248  
> 2023 05 18 00 00 41.4688020  0  6                     
G02  24264757.011      102799.384        2905.132           0.239  
G03  22336674.898      -13824.740        -495.438           0.255  
G04  23584244.883      -53713.310       -2081.416           0.244  
G05  22533216.547       54134.777        2047.259           0.255  
G06  20627880.195       -8815.902        -483.974           0.255  
G07  23386578.441      -20948.650       -1294.534           0.248  
> 2023 05 18 00 00 41.5688020  0  6                     
G02  24264682.166      103089.980        2905.704           0.239  
G03  22336689.213      -13875.041        -503.000           0.255  
G04  23584298.464      -53925.332       -2117.812           0.244  
G05  22533164.373       54339.295        2036.261           0.255  
G06  20627891.940       -8864.253        -483.692           0.255  
G07  23386610.335      -21078.087       -1287.916           0.248  
> 2023 05 18 00 00 41.6688020  0  6                     
G02  24264608.132      103380.587        2906.244           0.239  
G03  22336702.233      -13925.363        -503.007           0.255  
G04  23584352.619      -54137.096       -2116.741           0.244  
G05  22533112.260       54544.144        2047.076           0.255  
G06  20627904.449       -8912.612        -483.829           0.255  
G07  23386643.012      -21207.724       -1295.328           0.248  
> 2023 05 18 00 00 41.7688020  0  6                     
G02  24264533.833      103671.172        2904.316           0.239  
G03  22336714.241      -13975.686        -503.127           0.255  
G04  23584407.452      -54348.373       -2098.338           0.244  
G05  22533059.961       54748.828        2047.093           0.255  
G06  20627916.781       -8960.979        -484.013           0.255  
G07  23386676.922      -21337.270       -1295.424           0.248  
> 2023 05 18 00 00 41.8688020  0  6                     
G02  24264460.048      103961.795        2908.115           0.239  
G03  22336727.324      -14026.000        -502.917           0.255  
G04  23584461.203      -54560.639       -2119.245           0.244  
G05  22533007.728       54953.506        2046.792           0.255  
G06  20627929.102       -9009.345        -483.779           0.255  
G07  23386709.884      -21466.820       -1295.612           0.248  
> 2023 05 18 00 00 41.9688020  0  6                     
G02  24264385.485      104252.396        2905.730           0.239  
G03  22336739.783      -14076.337        -503.178           0.255  
G04  23584515.201      -54772.410       -2117.511           0.244  
G05  22532955.826       55158.176        2046.676           0.255  
G06  20627941.423       -9057.710        -483.661           0.255  
G07  23386743.134      -21596.363       -1295.262           0.248  
> 2023 05 18 00 00 42.0688020  0  6                     
G02  24264310.478      104542.997        2906.459           0.240  
G03  22336751.758      -14126.668        -503.011           0.255  
G04  23584569.495      -54984.182       -2117.763           0.244  
G05  22532903.838       55362.853        2047.120           0.255  
G06  20627954.058       -9106.084        -483.924           0.255  
G07  23386776.192      -21725.913       -1295.285           0.248  
> 2023 05 18 00 00 42.1688020  0  6                     
G02  24264236.876      104833.589        2906.183           0.239  
G03  22336765.126      -14177.019        -503.277           0.255  
G04  23584622.660      -55195.954       -2118.449           0.244  
G05  22532851.630       55567.161        1971.419           0.255  
G06  20627966.394       -9154.458        -484.180           0.255  
G07  23386809.350      -21855.291       -1275.999           0.248  
> 2023 05 18 00 00 42.2688020  0  6                     
G02  24264163.894      105123.887        2851.290           0.239  
G03  22336777.871      -14227.365        -503.669           0.255  
G04  23584676.659      -55407.727       -2117.199           0.244  
G05  22532799.325       55772.207        2046.361           0.255  
G06  20627978.553       -9202.831        -483.984           0.255  
G07  23386841.771      -21984.852       -1284.694           0.248  
> 2023 05 18 00 00 42.3688020  0  6                     
G02  24264089.466      105414.788        2905.244           0.239  
G03  22336791.216      -14277.709        -503.430           0.255  
G04  23584731.206      -55619.495       -2116.032           0.244  
G05  22532747.075       55976.878        2047.403           0.255  
G06  20627990.577       -9251.219        -483.791           0.255  
G07  23386874.906      -22114.578       -1296.058           0.248  
> 2023 05 18 00 00 42.4688020  0  6                     
G02  24264015.173      105705.412        2906.856           0.239  
G03  22336804.215      -14328.058        -503.233           0.255  
G04  23584785.278      -55831.294       -2118.447           0.244  
G05  22532694.818       56181.545        2046.946           0.255  
G06  20628002.753       -9299.608        -483.928           0.255  
G07  23386908.069      -22244.139       -1295.899           0.248  
> 2023 05 18 00 00 42.5688020  0  6                     
G02  24263941.187      105995.999        2903.969           0.239  
G03  22336817.296      -14378.413        -502.626           0.255  
G04  23584839.239      -56043.061       -2116.449           0.244  
G05  22532642.626       56386.207        2046.760           0.255  
G06  20628015.200       -9347.999        -484.328           0.255  
G07  23386941.109      -22373.703       -1295.458           0.248  
> 2023 05 18 00 00 42.6688020  0  6                     
G02  24263867.891      106286.590        2905.465           0.239  
G03  22336829.799      -14428.775        -502.389           0.255  
G04  23584892.819      -56254.812       -2115.779           0.244  
G05  22532590.869       56590.872        2047.399           0.255  
G06  20628027.677       -9396.390        -483.897           0.255  
G07  23386973.289      -22503.263       -1295.322           0.248  
> 2023 05 18 00 00 42.7688020  0  6                     
G02  24263793.650      106577.202        2905.508           0.239  
G03  22336842.484      -14479.145        -503.055           0.255  
G04  23584946.809      -56466.623       -2117.772           0.244  
G05  22532538.501       56795.534        2046.255           0.255  
G06  20628040.606       -9444.786        -484.460           0.255  
G07  23387006.826      -22632.834       -1295.259           0.248  
> 2023 05 18 00 00 42.8688020  0  6                     
G02  24263718.817      106867.803        2905.725           0.239  
G03  22336855.517      -14529.519        -503.688           0.255  
G04  23585001.154      -56678.396       -2117.144           0.244  
G05  22532485.982       57000.187        2046.093           0.255  
G06  20628052.275       -9493.189        -484.208           0.255  
G07  23387040.291      -22762.410       -1295.876           0.248  
> 2023 05 18 00 00 42.9688020  0  6                     
G02  24263644.910      107158.489        2903.190           0.239  
G03  22336867.825      -14580.033        -532.730           0.255  
G04  23585055.356      -56890.179       -2118.539           0.244  
G05  22532433.855       57204.703        2015.838           0.255  
G06  20628064.688       -9541.588        -484.500           0.255  
G07  23387073.335      -22891.816       -1265.554           0.248  
> 2023 05 18 00 00 43.0688020  0  6                     
G02  24263570.812      107449.007        2905.540           0.239  
G03  22336880.924      -14630.275        -503.993           0.255  
G04  23585109.500      -57101.963       -2117.425           0.244  
G05  22532381.749       57409.720        2110.817           0.255  
G06  20628077.153       -9589.994        -484.226           0.255  
G07  23387106.392      -23021.549       -1279.722           0.248  
> 2023 05 18 00 00 43.1688020  0  6                     
G02  24263497.184      107739.608        2905.871           0.239  
G03  22336894.817      -14680.654        -504.355           0.255  
G04  23585163.222      -57313.589       -2083.994           0.244  
G05  22532329.756       57614.155        2046.559           0.255  
G06  20628088.741       -9638.403        -483.368           0.255  
G07  23387139.281      -23151.029       -1289.148           0.248  
> 2023 05 18 00 00 43.2688020  0  6                     
G02  24263422.989      108030.197        2905.964           0.239  
G03  22336907.467      -14731.047        -503.465           0.255  
G04  23585217.138      -57525.543       -2117.214           0.244  
G05  22532277.657       57818.810        2046.751           0.255  
G06  20628101.334       -9686.819        -484.304           0.255  
G07  23387172.319      -23280.732       -1295.684           0.248  
> 2023 05 18 00 00 43.3688020  0  6                     
G02  24263348.820      108320.789        2904.789           0.239  
G03  22336920.191      -14781.438        -503.709           0.255  
G04  23585271.327      -57737.331       -2117.050           0.244  
G05  22532225.539       58023.457        2046.083           0.255  
G06  20628113.697       -9735.239        -484.798           0.255  
G07  23387205.059      -23410.322       -1295.679           0.248  
> 2023 05 18 00 00 43.4688020  0  6                     
G02  24263274.326      108611.380        2905.441           0.239  
G03  22336931.908      -14831.830        -503.814           0.255  
G04  23585325.135      -57949.183       -2122.264           0.244  
G05  22532173.352       58228.104        2046.632           0.255  
G06  20628126.607       -9783.659        -484.361           0.255  
G07  23387237.941      -23539.916       -1296.198           0.248  
> 2023 05 18 00 00 43.5688020  0  6                     
G02  24263200.605      108901.963        2904.847           0.239  
G03  22336945.554      -14882.237        -504.055           0.255  
G04  23585378.721      -58160.904       -2117.175           0.244  
G05  22532121.044       58432.748        2046.397           0.255  
G06  20628138.890       -9832.079        -484.154           0.255  
G07  23387271.059      -23669.508       -1295.704           0.248  
> 2023 05 18 00 00 43.6688020  0  6                     
G02  24263127.049      109192.562        2905.877           0.239  
G03  22336960.234      -14932.651        -504.467           0.255  
G04  23585433.072      -58372.701       -2117.671           0.244  
G05  22532069.122       58637.391        2045.574           0.255  
G06  20628150.307       -9880.512        -484.121           0.255  
G07  23387304.132      -23799.104       -1295.847           0.248  
> 2023 05 18 00 00 43.7688020  0  6                     
G02  24263051.720      109483.109        2917.480           0.239  
G03  22336972.341      -14983.060        -504.231           0.255  
G04  23585487.994      -58584.392       -2093.929           0.244  
G05  22532016.793       58842.030        2046.226           0.255  
G06  20628162.364       -9928.936        -484.248           0.255  
G07  23387336.899      -23928.693       -1292.884           0.248  
> 2023 05 18 00 00 43.8688020  0  6                     
G02  24262977.620      109773.756        2905.936           0.239  
G03  22336984.055      -15033.474        -504.157           0.255  
G04  23585541.640      -58796.285       -2117.702           0.244  
G05  22531964.502       59046.669        2046.039           0.255  
G06  20628174.956       -9977.370        -484.063           0.255  
G07  23387370.682      -24058.309       -1295.994           0.248  
> 2023 05 18 00 00 43.9688020  0  6                     
G02  24262903.106      110064.031        2890.945           0.239  
G03  22336997.135      -15083.896        -504.178           0.255  
G04  23585596.183      -59008.083       -2119.289           0.244  
G05  22531912.390       59251.300        2045.871           0.255  
G06  20628186.641      -10025.808        -484.296           0.255  
G07  23387404.179      -24187.916       -1295.807           0.248  
> 2023 05 18 00 00 44.0688020  0  6                     
G02  24262829.133      110354.938        2906.282           0.239  
G03  22337008.575      -15134.321        -504.333           0.255  
G04  23585650.334      -59219.864       -2118.374           0.244  
G05  22531860.332       59455.941        2046.843           0.255  
G06  20628199.825      -10074.252        -483.804           0.255  
G07  23387437.008      -24317.530       -1296.013           0.248  
> 2023 05 18 00 00 44.1688020  0  6                     
G02  24262757.452      110645.537        2905.240           0.239  
G03  22337022.686      -15184.745        -504.236           0.255  
G04  23585701.997      -59431.668       -2117.801           0.244  
G05  22531808.251       59660.571        2046.307           0.255  
G06  20628212.248      -10122.699        -484.282           0.255  
G07  23387469.924      -24447.145       -1296.483           0.248  
> 2023 05 18 00 00 44.2688020  0  6                     
G02  24262683.214      110936.128        2905.354           0.239  
G03  22337035.243      -15235.181        -504.086           0.255  
G04  23585756.261      -59643.458       -2117.946           0.244  
G05  22531756.031       59865.623        2133.668           0.255  
G06  20628225.001      -10171.148        -484.668           0.255  
G07  23387502.331      -24576.631       -1290.964           0.248  
> 2023 05 18 00 00 44.3688020  0  6                     
G02  24262610.697      111226.720        2903.988           0.239  
G03  22337050.508      -15285.624        -504.209           0.255  
G04  23585808.145      -59855.258       -2117.159           0.244  
G05  22531703.656       60069.825        2047.214           0.255  
G06  20628236.749      -10219.595        -484.545           0.255  
G07  23387535.492      -24706.374       -1296.215           0.248  
> 2023 05 18 00 00 44.4688020  0  6                     
G02  24262533.202      111517.319        2905.678           0.239  
G03  22337062.026      -15336.063        -503.452           0.255  
G04  23585865.916      -60067.054       -2117.754           0.244  
G05  22531651.638       60274.446        2045.951           0.255  
G06  20628249.316      -10268.054        -485.022           0.255  
G07  23387568.468      -24835.999       -1296.230           0.248  
> 2023 05 18 00 00 44.6688020  0  6                     
G02  24262385.949      112098.511        2906.855           0.239  
G03  22337088.439      -15437.251        -538.627           0.255  
G04  23585972.295      -60490.661       -2119.042           0.244  
G05  22531547.562       60683.295        1961.323           0.255  
G06  20628273.939      -10364.967        -484.175           0.255  
G07  23387634.408      -25095.047       -1265.501           0.248  
> 2023 05 18 00 00 44.7688020  0  6                     
G02  24262312.516      112389.122        2908.137           0.239  
G03  22337101.440      -15487.355        -493.913           0.255  
G04  23586026.309      -60702.635       -2135.491           0.244  
G05  22531495.505       60888.307        2045.782           0.255  
G06  20628286.373      -10413.432        -484.530           0.255  
G07  23387667.559      -25224.884       -1296.818           0.248  
> 2023 05 18 00 00 44.9688020  0  6                     
G02  24262164.927      112970.301        2906.383           0.239  
G03  22337125.805      -15588.358        -505.028           0.255  
G04  23586133.757      -61126.069       -2118.117           0.244  
G05  22531390.942       61297.262        1992.202           0.255  
G06  20628311.875      -10510.373        -484.565           0.255  
G07  23387733.441      -25484.155       -1296.165           0.248  
> 2023 05 18 00 00 45.0688020  0  6                     
G02  24262089.961      113260.913        2907.920           0.239  
G03  22337140.438      -15638.828        -505.272           0.255  
G04  23586188.050      -61338.064       -2114.659           0.244  
G05  22531338.688       61502.151        2046.057           0.255  
G06  20628323.413      -10558.846        -484.390           0.255  
G07  23387767.005      -25613.800       -1311.252           0.248  
> 2023 05 18 00 00 45.1688020  0  6                     
G02  24262015.583      113551.495        2906.465           0.239  
G03  22337150.582      -15689.300        -504.738           0.255  
G04  23586242.456      -61549.686       -2118.156           0.244  
G05  22531286.687       61706.760        2046.113           0.255  
G06  20628336.927      -10607.328        -484.746           0.255  
G07  23387799.907      -25743.431       -1296.570           0.248  
> 2023 05 18 00 00 45.2688020  0  6                     
G02  24261942.273      113842.079        2905.510           0.239  
G03  22337164.796      -15739.947        -501.669           0.255  
G04  23586295.604      -61761.485       -2118.062           0.244  
G05  22531234.717       61911.367        2045.553           0.255  
G06  20628348.174      -10655.809        -484.697           0.255  
G07  23387832.923      -25873.077       -1296.431           0.248  
> 2023 05 18 00 00 45.3688020  0  6                     
G02  24261869.601      114132.679        2906.427           0.239  
G03  22337177.119      -15790.260        -504.251           0.255  
G04  23586348.810      -61973.297       -2118.347           0.244  
G05  22531182.439       62115.985        2063.217           0.255  
G06  20628360.907      -10704.298        -485.179           0.255  
G07  23387865.871      -26002.758       -1307.272           0.248  
> 2023 05 18 00 00 45.6688020  0  6                     
G02  24261644.520      115004.454        2905.262           0.239  
G03  22337214.572      -15941.737        -504.895           0.255  
G04  23586512.670      -62608.651       -2119.041           0.244  
G05  22531025.865       62729.771        2046.599           0.255  
G06  20628398.395      -10849.771        -484.986           0.255  
G07  23387965.688      -26391.679       -1296.391           0.248  
> 2023 05 18 00 00 45.8688020  0  6                     
G02  24261497.365      115585.661        2905.867           0.239  
G03  22337240.599      -16042.747        -505.132           0.255  
G04  23586620.216      -63032.215       -2075.919           0.244  
G05  22530922.045       63138.953        2046.175           0.255  
G06  20628422.929      -10946.776        -485.210           0.255  
G07  23388031.038      -26651.000       -1296.871           0.248  
> 2023 05 18 00 00 45.9688020  0  6                     
G02  24261422.847      115876.251        2905.378           0.239  
G03  22337253.409      -16093.335        -530.715           0.255  
G04  23586674.862      -63244.168       -2117.769           0.244  
G05  22530870.144       63343.263        1987.996           0.255  
G06  20628435.673      -10995.280        -485.143           0.255  
G07  23388063.855      -26780.666       -1296.689           0.248  
> 2023 05 18 00 00 46.0688020  0  6                     
G02  24261348.048      116166.847        2905.588           0.239  
G03  22337267.478      -16143.772        -505.483           0.255  
G04  23586729.783      -63455.985       -2117.537           0.244  
G05  22530818.257       63548.130        2046.045           0.255  
G06  20628446.946      -11043.789        -485.397           0.255  
G07  23388096.741      -26910.331       -1296.962           0.248  
> 2023 05 18 00 00 46.1688020  0  6                     
G02  24261274.682      116457.440        2906.312           0.239  
G03  22337279.868      -16194.291        -504.565           0.255  
G04  23586783.010      -63667.800       -2117.879           0.244  
G05  22530765.868       63752.720        2046.471           0.255  
G06  20628459.718      -11092.301        -485.387           0.255  
G07  23388130.103      -27040.004       -1297.002           0.248  
> 2023 05 18 00 00 46.2688020  0  6                     
G02  24261201.031      116748.033        2905.852           0.239  
G03  22337291.171      -16244.811        -504.560           0.255  
G04  23586837.268      -63879.620       -2118.405           0.244  
G05  22530712.923       63957.298        2045.237           0.255  
G06  20628472.637      -11140.819        -485.510           0.255  
G07  23388163.072      -27169.680       -1296.739           0.248  
> 2023 05 18 00 00 46.4688020  0  6                     
G02  24261053.764      117329.242        2907.164           0.239  
G03  22337317.900      -16345.874        -504.540           0.255  
G04  23586944.635      -64303.274       -2118.872           0.244  
G05  22530609.263       64366.469        2045.141           0.255  
G06  20628497.439      -11237.858        -485.240           0.255  
G07  23388229.252      -27429.033       -1296.677           0.248  
> 2023 05 18 00 00 46.5688020  0  6                     
G02  24260981.311      117619.825        2905.770           0.239  
G03  22337329.470      -16396.418        -505.601           0.255  
G04  23586997.709      -64515.092       -2118.017           0.244  
G05  22530557.349       64571.259        2088.523           0.255  
G06  20628509.819      -11286.384        -484.916           0.255  
G07  23388262.536      -27558.714       -1296.688           0.248  
> 2023 05 18 00 00 46.6688020  0  6                     
G02  24260906.442      117910.419        2906.109           0.239  
G03  22337342.992      -16446.957        -505.187           0.255  
G04  23587051.610      -64726.912       -2118.545           0.244  
G05  22530504.858       64775.629        2045.757           0.255  
G06  20628521.866      -11334.916        -485.202           0.255  
G07  23388295.091      -27688.403       -1296.786           0.248  
> 2023 05 18 00 00 46.7688020  0  6                     
G02  24260831.078      118201.010        2905.543           0.239  
G03  22337355.834      -16497.513        -505.624           0.255  
G04  23587105.109      -64938.730       -2117.954           0.244  
G05  22530452.657       64980.204        2045.257           0.255  
G06  20628535.254      -11383.450        -485.149           0.255  
G07  23388328.415      -27818.091       -1296.574           0.248  
> 2023 05 18 00 00 46.8688020  0  6                     
G02  24260758.910      118491.626        2907.268           0.239  
G03  22337368.822      -16548.062        -505.752           0.255  
G04  23587158.325      -65150.566       -2118.938           0.244  
G05  22530400.679       65184.781        2046.320           0.255  
G06  20628547.082      -11431.986        -485.258           0.255  
G07  23388361.606      -27947.785       -1296.629           0.248  
> 2023 05 18 00 00 46.9688020  0  6                     
G02  24260683.136      118780.768        2765.206           0.239  
G03  22337382.926      -16598.612        -505.466           0.255  
G04  23587213.517      -65362.377       -2118.033           0.244  
G05  22530348.214       65389.345        2045.195           0.255  
G06  20628558.791      -11480.528        -485.217           0.255  
G07  23388394.350      -28077.476       -1296.705           0.248  
> 2023 05 18 00 00 47.0688020  0  6                     
G02  24260608.267      119072.781        2906.808           0.239  
G03  22337395.280      -16649.249        -508.926           0.255  
G04  23587267.730      -65574.191       -2118.620           0.244  
G05  22530296.156       65593.919        2046.174           0.255  
G06  20628571.474      -11529.073        -485.633           0.255  
G07  23388427.465      -28207.178       -1296.806           0.248  
> 2023 05 18 00 00 47.1688020  0  6                     
G02  24260533.453      119363.177        2877.129           0.239  
G03  22337409.325      -16699.768        -498.123           0.255  
G04  23587322.406      -65786.052       -2120.374           0.244  
G05  22530244.217       65798.480        2045.407           0.255  
G06  20628583.347      -11577.615        -485.535           0.255  
G07  23388460.679      -28336.877       -1296.892           0.248  
> 2023 05 18 00 00 47.2688020  0  6                     
G02  24260458.589      119653.984        2906.210           0.239  
G03  22337422.041      -16750.311        -491.470           0.255  
G04  23587377.104      -65997.875       -2118.490           0.244  
G05  22530192.294       66003.049        2045.931           0.255  
G06  20628595.798      -11626.163        -485.539           0.255  
G07  23388493.715      -28466.582       -1297.221           0.248  
> 2023 05 18 00 00 47.3688020  0  6                     
G02  24260385.324      119944.584        2905.754           0.240  
G03  22337435.919      -16800.884        -505.078           0.255  
G04  23587430.679      -66209.705       -2117.794           0.244  
G05  22530140.388       66207.608        2045.704           0.255  
G06  20628608.114      -11674.719        -485.892           0.255  
G07  23388526.897      -28596.285       -1296.990           0.248  
> 2023 05 18 00 00 47.4688020  0  6                     
G02  24260311.785      120235.177        2904.978           0.239  
G03  22337447.702      -16851.472        -505.639           0.255  
G04  23587483.988      -66421.546       -2118.084           0.244  
G05  22530088.097       66412.467        2125.960           0.255  
G06  20628620.225      -11723.275        -485.477           0.255  
G07  23388559.824      -28725.999       -1297.134           0.248  
> 2023 05 18 00 00 47.5688020  0  6                     
G02  24260240.172      120525.788        2905.471           0.239  
G03  22337460.443      -16902.057        -505.596           0.255  
G04  23587537.442      -66633.389       -2118.705           0.244  
G05  22530035.912       66616.726        2046.000           0.255  
G06  20628633.140      -11771.833        -485.497           0.255  
G07  23388593.085      -28855.711       -1297.257           0.248  
> 2023 05 18 00 00 47.6688020  0  6                     
G02  24260166.089      120816.377        2906.916           0.239  
G03  22337474.131      -16952.631        -505.512           0.255  
G04  23587590.648      -66845.215       -2119.023           0.244  
G05  22529983.523       66821.277        2045.465           0.255  
G06  20628645.009      -11820.404        -485.519           0.255  
G07  23388626.056      -28985.432       -1296.990           0.248  
> 2023 05 18 00 00 47.7688020  0  6                     
G02  24260090.444      121106.972        2907.530           0.239  
G03  22337483.997      -17003.219        -506.512           0.255  
G04  23587645.738      -67057.303       -2182.165           0.244  
G05  22529931.875       67025.830        2045.902           0.255  
G06  20628658.990      -11868.975        -485.843           0.255  
G07  23388659.282      -29115.187       -1284.521           0.248  
> 2023 05 18 00 00 47.8688020  0  6                     
G02  24260016.682      121397.555        2906.432           0.239  
G03  22337498.750      -17053.823        -505.745           0.255  
G04  23587699.252      -67268.882       -2119.218           0.244  
G05  22529879.285       67230.382        2044.857           0.255  
G06  20628670.332      -11917.538        -485.405           0.255  
G07  23388692.088      -29244.878       -1297.269           0.248  
> 2023 05 18 00 00 47.9688020  0  6                     
G02  24259941.968      121688.152        2905.686           0.239  
G03  22337508.085      -17104.423        -506.148           0.255  
G04  23587753.864      -67480.710       -2118.874           0.244  
G05  22529827.090       67434.932        2045.739           0.255  
G06  20628683.794      -11966.115        -485.744           0.255  
G07  23388725.204      -29374.596       -1297.146           0.248  
> 2023 05 18 00 00 48.0688020  0  6                     
G02  24259869.477      121978.750        2905.964           0.239  
G03  22337523.400      -17155.028        -505.828           0.255  
G04  23587806.494      -67692.553       -2118.960           0.244  
G05  22529774.816       67639.478        2045.588           0.255  
G06  20628695.259      -12014.690        -485.755           0.255  
G07  23388758.379      -29504.258       -1282.925           0.248  
> 2023 05 18 00 00 48.1688020  0  6                     
G02  24259795.125      122269.354        2905.775           0.239  
G03  22337537.733      -17205.643        -506.889           0.255  
G04  23587861.058      -67904.395       -2117.894           0.244  
G05  22529722.741       67844.031        2046.504           0.255  
G06  20628707.209      -12063.273        -485.136           0.255  
G07  23388791.652      -29634.055       -1297.352           0.248  
> 2023 05 18 00 00 48.2688020  0  6                     
G02  24259720.351      122559.944        2905.413           0.239  
G03  22337550.056      -17256.258        -506.971           0.255  
G04  23587915.353      -68116.358       -2116.047           0.244  
G05  22529670.502       68048.568        2045.816           0.255  
G06  20628719.726      -12111.856        -485.651           0.255  
G07  23388824.510      -29763.793       -1297.619           0.248  
> 2023 05 18 00 00 48.3688020  0  6                     
G02  24259646.175      122850.534        2905.619           0.239  
G03  22337563.398      -17306.870        -506.045           0.255  
G04  23587969.830      -68328.069       -2117.570           0.244  
G05  22529618.756       68253.112        2045.630           0.255  
G06  20628731.836      -12160.454        -486.328           0.255  
G07  23388857.278      -29893.528       -1297.649           0.248  
> 2023 05 18 00 00 48.4688020  0  6                     
G02  24259571.878      123141.134        2906.511           0.239  
G03  22337575.921      -17357.487        -505.304           0.255  
G04  23588024.077      -68539.916       -2119.199           0.244  
G05  22529566.601       68457.650        2045.374           0.255  
G06  20628744.433      -12209.044        -486.624           0.255  
G07  23388890.279      -30023.265       -1297.419           0.248  
> 2023 05 18 00 00 48.5688020  0  6                     
G02  24259498.471      123431.730        2905.376           0.239  
G03  22337588.507      -17408.080        -449.660           0.255  
G04  23588077.791      -68751.663       -2079.445           0.244  
G05  22529514.482       68661.940        1973.491           0.255  
G06  20628756.924      -12257.641        -486.677           0.255  
G07  23388923.348      -30153.018       -1302.547           0.248  
> 2023 05 18 00 00 48.6688020  0  6                     
G02  24259424.124      123722.313        2903.770           0.239  
G03  22337600.534      -17459.052        -494.786           0.255  
G04  23588131.469      -68963.598       -2117.344           0.244  
G05  22529462.159       68866.722        2045.643           0.255  
G06  20628769.513      -12306.238        -486.469           0.255  
G07  23388956.246      -30282.752       -1303.326           0.248  
> 2023 05 18 00 00 48.8688020  0  6                     
G02  24259275.838      124303.507        2904.553           0.239  
G03  22337626.885      -17560.029        -505.783           0.255  
G04  23588239.939      -69387.264       -2116.359           0.244  
G05  22529358.172       69275.780        2045.864           0.255  
