     3.03           OBSERVATION DATA    M: Mixed            RINEX VERSION / TYPE
Geo++ RINEX Logger  Geo++               20200205 145512 UTC PGM / RUN BY / DATE
************************************************************COMMENT
This file was generated by the Geo++ RINEX Logger App       COMMENT
for Android devices (Version 2.1.5). If you encounter       COMMENT
any issues, please send an email to android@geopp.de        COMMENT
************************************************************COMMENT
Geo++                                                       MARKER NAME
GEODETIC                                                    MARKER TYPE
Geo++               Geo++                                   OBSERVER / AGENCY
unknown             Xiaomi              MI 8                REC # / TYPE / VERS
unknown             MI 8                                    ANT # / TYPE
  4422031.4128   718371.5053  4524871.1851                  APPROX POSITION XYZ
        0.0000        0.0000        0.0000                  ANTENNA: DELTA H/E/N
G    8 C1C L1C D1C S1C C5Q L5Q D5Q S5Q                      SYS / # / OBS TYPES
R    4 C1C L1C D1C S1C                                      SYS / # / OBS TYPES
E   12 C1B L1B D1B S1B C1C L1C D1C S1C C5Q L5Q D5Q S5Q      SYS / # / OBS TYPES
C    4 C2I L2I D2I S2I                                      SYS / # / OBS TYPES
J    8 C1C L1C D1C S1C C5Q L5Q D5Q S5Q                      SYS / # / OBS TYPES
  2020     2     5    14    52   49.0000000     GPS         TIME OF FIRST OBS
 24 R01  1 R02 -4 R03  5 R04  6 R05  1 R06 -4 R07  5 R08  6 GLONASS SLOT / FRQ #
    R09 -2 R10 -5 R11  0 R12 -1 R13 -2 R14 -7 R15  0 R16 -1 GLONASS SLOT / FRQ #
    R17  4 R18 -3 R19  3 R20  2 R21  4 R22 -3 R23  3 R24  2 GLONASS SLOT / FRQ #
G L1C                                                       SYS / PHASE SHIFT
G L5Q -0.25000                                              SYS / PHASE SHIFT
R L1C                                                       SYS / PHASE SHIFT
E L1B                                                       SYS / PHASE SHIFT
E L1C +0.50000                                              SYS / PHASE SHIFT
E L5Q -0.25000                                              SYS / PHASE SHIFT
C L2I                                                       SYS / PHASE SHIFT
J L1C                                                       SYS / PHASE SHIFT
J L5Q -0.25000                                              SYS / PHASE SHIFT
 C1C    0.000 C1P    0.000 C2C    0.000 C2P    0.000        GLONASS COD/PHS/BIS
                                                            END OF HEADER
> 2020  2  5 14 55 12.0000000  3  1
Geo++
> 2020  2  5 14 55 12.0000000  0 23
C13  39299515.112   204642653.394        1820.360          29.136  
C14  25252819.837                         145.201          20.139  
C26  22753419.236   118483024.205        2228.581          29.108  
C29  22540133.990   117372169.158        1093.828          34.227  
C30  24626138.779                       -1895.940          14.309  
E19                                                                                                                                  25479655.701    99987476.513         457.992          21.983  
E21                                                                                                                                  25634034.427   100593456.390        1591.146          24.502  
E27                                                                                                                                  23160113.187    90885257.683         120.983          23.355  
G06  24004521.815                        2167.296          21.429  
G12  19966505.976   104924456.405         792.789          31.285  
G14  25187665.042                        3474.351          19.622  
G15  24396716.904                       -3509.326          20.361  
G17  24311216.695                       -2842.480          22.247  
G19  22198787.899   116655202.274       -2090.014          36.416  
G24  20203645.407   106170629.066        -772.163          31.824    20203644.508                        -577.471          25.245  
G25  21929638.727   115241028.929        2856.610          25.176    21929642.325    86056626.6031       2133.627          27.933  
G32  22864804.725                        2529.270          23.925    22864805.624    89726407.698        1886.214          29.452  
R07  21197976.646                       -1507.157          22.570  
R084237615352.400                        2036.421          22.946  
R09  20601985.342                        2435.188          25.524  
R16  19953173.006   106586019.640       -1207.593          27.958  
R174814509908.406                       -2764.690          23.032  
R18  20403296.392   108914181.2041        749.276          27.801  
> 2020  2  5 14 55 13.0000000  0 23
C13  39299165.254   204641065.440        1820.401          28.527  
C14  25252796.753                         145.985          20.189  
C26  22752992.631   118480577.266        2228.385          28.351  
C29  22539923.536   117371296.352        1093.252          35.345  
C30  24626481.741                       -1881.156          16.538  
E19                                                                                                                                  25479539.982    99987187.272         457.539          22.037  
E21                                                                                                                                  25633628.808   100591701.028        1590.659          24.693  
E27                                                                                                                                  23160083.208    90884972.524         120.456          24.126  
G06  24004110.200                        2167.306          20.294  
G12  19966353.981   104923897.851         791.995          32.807  
G14  25186999.503                        3477.539          19.334  
G15  24397371.051                       -3505.654          20.280  
G17  24311765.915                       -2841.931          21.278  
G19  22199183.925   116657498.372       -2090.657          36.498  
G24  20203793.805   106171652.213        -772.705          31.575    20203794.704    79284029.7071       -576.963          26.552  
G25  21929092.805   115237952.189        2856.181          24.644    21929098.501    86054328.731        2133.169          28.607  
G32  22864324.458                        2525.982          24.626    22864325.057    89724357.238        1885.756          30.127  
R07  21198298.923                       -1502.508          21.061  
R084837199869.074                        2040.369          22.311  
R09  20601511.670                        2436.889          23.480  
R16  19953380.162   106587374.512       -1208.074          27.585  
R175114302874.254                       -2763.282          21.705  
R18  20403155.789                         748.314          27.626  
> 2020  2  5 14 55 14.0000000  0 22
C13  39298814.197   204639028.154        1820.293          30.992  
C14  25252767.973                         149.678          21.562  
C26  22752564.827   118478574.908        2228.365          28.732  
C29  22539716.679   117369986.442        1092.917          35.134  
E19                                                                                                                                  25479422.763    99986566.448         457.297          23.587  
E21                                                                                                                                  25633224.388   100590277.575        1590.927          23.984  
E27                                                                                                                                  23160050.830    90885013.537         120.461          26.750  
G06  24003703.082                        2162.028          22.791    24003703.982                        1619.215          18.534  
G12  19966202.286   104922887.034         791.834          32.377  
G14  25186337.561                        3477.558          18.726  
G15  24398047.683                       -3499.322          18.465  
G17  24312298.346   127761814.4801      -2841.987          23.510  
G19  22199585.946   116659370.463       -2091.075          38.133  
G24  20203941.003   106172206.250        -773.021          35.341    20203940.103    79284443.402        -577.222          30.169  
G25  21928548.981                        2857.383          22.578    21928555.277    86052360.075        2133.129          28.864  
G32  22863843.590   120150091.1281       2524.952          26.879    22863846.289    89722643.207        1885.505          29.828  
R07  21198558.244                       -1499.384          20.441  
R084837199495.530                        2040.276          21.227  
R09  20601035.900                        2440.212          24.330  
R16  19953619.397   106588653.194       -1208.282          29.075  
R175414095842.800                       -2760.617          19.603  
R18  20403013.987   108912673.7571        747.545          29.386  
> 2020  2  5 14 55 15.0000000  0 22
C13  39298464.039   204637414.470        1819.691          30.938  
C14  25252747.287                         145.919          23.493  
C26  22752137.023   118476130.106        2227.809          28.860  
C29  22539502.027   117369101.596        1091.854          34.057  
E19                                                                                                                                  25479304.345    99986262.286         456.636          23.854  
E21                                                                                                                                  25632817.869   100588523.600        1590.448          23.550  
E27                                                                                                                                  23160022.650    90884729.977         120.033          26.607  
G06                                                                  24003289.069                        1612.474          18.940  
G12  19966051.190   104922306.290         790.760          31.594  
G14  25185671.123                        3476.944          18.920  
G15  24398715.920                       -3497.647          16.538  
G17  24312841.570                       -2843.993          23.830  
G19  22199981.972   116661692.494       -2092.015          37.919  
G24  20204085.203   106173184.182        -773.915          36.059    20204089.700    79285186.813        -577.938          32.284  
G25  21928001.860                        2863.102          21.555    21928012.953    86050063.969        2132.579          30.309  
G32  22863365.421   120147795.995        2524.149          27.676    22863368.120    89720594.826        1884.854          28.504  
R07  21198867.030                       -1504.809          21.174  
R085436784038.293                        2038.796          21.095  
R09  20600602.999   110006069.8881       2438.203          25.494  
R16  19953840.943   106589639.681       -1209.086          29.976  
R175713888795.760                       -2761.309          19.140  
R18  20402876.383   108911705.105         746.208          29.567  
> 2020  2  5 14 55 16.0000000  0 23
C13  39298115.081   204635378.417        1819.061          30.946  
C14  25252722.104                         144.607          22.892  
C26  22751707.121   118474108.993        2227.121          28.025  
C29  22539290.074   117367793.806        1090.797          33.493  
C30  24627593.672                       -1895.629          20.363  
E19                                                                                                                                  25479191.623    99985642.846         455.914          24.104  
E21                                                                                                                                  25632414.948   100587101.033        1590.041          23.317  
E27                                                                                                                                  23159992.671    90884784.978         119.472          26.433  
G06  24002882.250   126135996.7271       2161.279          23.551    24002881.351                        1612.371          19.483  
G12  19965901.594   104921297.389         789.918          31.351  
G14  25185004.684                        3478.939          19.033  
G15  24399372.766                       -3500.691          16.702  
G17  24313384.494                       -2845.185          22.985  
G19  22200379.497   116663566.669       -2093.158          37.390  
G24  20204234.799   106173740.073        -774.874          36.830    20204235.099    79285601.902        -578.616          32.695  
G25  21927453.540                        2858.978          21.048    21927470.328    86048102.480        2131.963          29.467  
G32  22862888.751   120145054.057        2522.955          27.543    22862884.554    89718869.259        1884.041          27.327  
R07  21199127.250                       -1511.376          22.207  
R085436783658.457                        2033.569          22.055  
R09  20600155.109                        2438.071          25.371  
R16  19954069.385   106591056.945       -1209.864          30.164  
R176013681706.445                       -2764.593          18.016  
R18  20402733.981   108911178.957         744.704          28.970  
> 2020  2  5 14 55 17.0000000  0 23
C13  39297765.523   204633776.930        1818.494          31.089  
C14  25252693.624                         144.625          23.634  
C26  22751276.319   118471665.560        2226.440          27.674  
C29  22539083.817   117366923.878        1089.936          35.389  
C30  24627953.722                       -1893.979          22.768  
E19                                                                                                                                  25479073.804    99985358.138         455.182          23.629  
E21                                                                                                                                  25632009.929   100585347.891        1589.616          24.983  
E27                                                                                                                                  23159960.293    90884502.381         119.071          26.860  
G06  24002470.635                        2159.756          23.422    24002475.132                        1610.344          18.621  
G12  19965749.299   104920720.490         788.916          31.386  
G14  25184335.847                        3477.780          17.321  
G15  24400029.911                       -3507.585          15.269  
G17  24313920.823                       -2844.960          23.525  
G19  22200781.219   116665891.789       -2094.103          37.995  
G24  20204381.698   106174741.802        -775.712          36.317    20204383.197    79286338.653        -579.277          31.519  
G25  21926911.515                        2852.919          21.704    21926926.205    86045807.481        2131.473          28.737  
G32  22862402.188   120142733.990        2522.083          28.312    22862405.786    89716822.319        1883.413          28.830  
R07  21199397.962                       -1513.983          21.344  
R086036368199.414                        2032.006          20.758  
R09  20599701.523   110001018.6351       2436.887          26.110  
R16  19954298.127   106592045.042       -1210.696          30.246  
R176313474736.750                       -2763.452          18.365  
R18  20402598.175   108910213.084         743.430          29.208  
> 2020  2  5 14 55 18.0000000  0 24
C08  39475809.266                        1212.417          18.480  
C13  39297417.764   204631743.548        1817.950          31.029  
C14  25252659.148                         144.926          24.340  
C26  22750847.016   118469630.129        2225.999          27.166  
C29  22538875.161   117365619.612        1088.834          34.689  
C30  24628314.073                       -1891.115          23.781  
E19                                                                                                                                  25478957.485    99984741.140         454.647          23.003  
E21                                                                                                                                  25631602.511   100583913.296        1589.245          23.670  
E27                                                                                                                                  23159929.115    90884535.374         118.657          25.932  
G06  24002062.918                        2159.806          24.101    24002063.517                        1619.323          18.211  
G12  19965599.703   104919714.932         788.149          30.933  
G14  25183681.100                        3469.762          18.498  
G15  24400718.234                       -3510.491          17.718  
G17  24314461.349                       -2844.887          24.080  
G19  22201179.343   116667769.343       -2094.962          38.035  
G24  20204528.896   106175301.012        -776.618          36.723    20204530.395    79286756.266        -579.963          31.570  
G25  21926374.287                        2850.518          21.716    21926383.281    86043837.117        2131.013          30.621  
G32  22861926.418   120139995.431        2521.151          27.424    22861925.818    89715107.283        1882.686          30.085  
R07  21199693.258                       -1512.718          20.605  
R086036367831.270                        2034.355          20.641  
R09  20599251.835   109998855.426        2436.288          26.486  
R16  19954526.569   106593498.412       -1211.369          30.848  
R176613267730.180                       -2770.968          16.261  
R18  20402468.065   108909759.191         742.050          29.111  
> 2020  2  5 14 55 19.0000000  0 24
C08  39475577.526                        1208.054          16.841  
C13  39297067.306   204630140.855        1818.139          31.217  
C14  25252634.865                         145.938          24.975  
C26  22750424.609   118467185.421        2226.154          28.101  
C29  22538663.208   117364733.251        1088.807          33.789  
C30  24628675.623                       -1891.169          24.580  
E19                                                                                                                                  25478844.163    99984456.958         454.479          24.452  
E21                                                                                                                                  25631196.892   100582159.129        1589.463          24.073  
E27                                                                                                                                  23159898.836    90884251.877         118.794          26.165  
G06  24001645.906                        2159.423          25.283    24001649.504                        1623.339          17.438  
G12  19965449.507   104919145.248         788.126          30.768  
G14  25183034.748                        3471.634          18.520  
G15  24401382.574                       -3504.767          18.652  
G17  24315004.273                       -2844.906          24.205  
G19  22201576.868   116670073.068       -2095.283          37.663  
G24  20204675.794   106176287.204        -776.752          37.065    20204677.593    79287493.608        -580.045          32.705  
G25  21925827.166                        2854.079          22.466    21925840.057    86041541.332        2131.082          29.371  
G32  22861449.748                        2521.380          27.277    22861446.450    89713059.912        1882.668          29.509  
R07  21199969.966                       -1510.899          18.493  
R086635952338.350                        2031.303          22.134  
R09  20598781.760                        2436.421          26.406  
R16  19954758.908   106594485.554       -1211.343          30.632  
R176913060737.098                       -2768.214          11.358  
R18  20402326.563   108908793.709         741.438          29.623  
