     3.03           OBSERVATION DATA    M: Mixed            RINEX VERSION / TYPE
GNSS-SDRLIB v1.1                        20240331 062644 UTC PGM / RUN BY / DATE 
                                                            MARKER NAME         
                                                            MARKER NUMBER       
                                                            MARKER TYPE         
                                                            OBSERVER / AGENCY   
GNSS-SDRLIB         GNSS-SDRLIB         1.1                 REC # / TYPE / VERS 
                                                            ANT # / TYPE        
        0.0000        0.0000        0.0000                  APPROX POSITION XYZ 
        0.0000        0.0000        0.0000                  ANTENNA: DELTA H/E/N
G    4 C1C L1C D1C S1C                                      SYS / # / OBS TYPES 
R    4 C1C L1C D1C S1C                                      SYS / # / OBS TYPES 
E    4 C1C L1C D1C S1C                                      SYS / # / OBS TYPES 
J    4 C1C L1C D1C S1C                                      SYS / # / OBS TYPES 
S    4 C1C L1C D1C S1C                                      SYS / # / OBS TYPES 
C    4 C1C L1C D1C S1C                                      SYS / # / OBS TYPES 
I    4 C1C L1C D1C S1C                                      SYS / # / OBS TYPES 
  1970    01    01    00    00   00.0000000     GPS         TIME OF FIRST OBS   
  1970    01    01    00    00   00.0000000     GPS         TIME OF LAST OBS    
G L1C                                                       SYS / PHASE SHIFT   
R L1C                                                       SYS / PHASE SHIFT   
E L1C  0.00000                                              SYS / PHASE SHIFT   
J L1C                                                       SYS / PHASE SHIFT   
S L1C                                                       SYS / PHASE SHIFT   
C L1C  0.00000                                              SYS / PHASE SHIFT   
I L1C  0.00000                                              SYS / PHASE SHIFT   
  0                                                         GLONASS SLOT / FRQ #
 C1C    0.000 C1P    0.000 C2C    0.000 C2P    0.000        GLONASS COD/PHS/BIS 
                                                            END OF HEADER       
> 2022 01 01 00 00 36.0688020  0  1                     
G05  20629192.159      -43241.431       -2429.789           0.247  
> 2022 01 01 00 00 36.2688020  0  1                     
G05  20629284.920      -43727.437       -2428.772           0.247  
> 2022 01 01 00 00 36.3688020  0  1                     
G05  20629331.000      -43970.443       -2430.628           0.247  
> 2022 01 01 00 00 36.4688020  0  1                     
G05  20629377.789      -44213.451       -2430.068           0.247  
> 2022 01 01 00 00 36.5688020  0  1                     
G05  20629423.593      -44456.462       -2431.475           0.247  
> 2022 01 01 00 00 36.6688020  0  1                     
G05  20629469.298      -44699.475       -2431.677           0.248  
> 2022 01 01 00 00 36.7688020  0  1                     
G05  20629516.958      -44942.486       -2429.230           0.247  
> 2022 01 01 00 00 36.8688020  0  1                     
G05  20629563.692      -45185.509       -2432.630           0.247  
> 2022 01 01 00 00 36.9688020  0  1                     
G05  20629611.067      -45428.525       -2431.085           0.247  
> 2022 01 01 00 00 37.0688020  0  1                     
G05  20629656.239      -45671.547       -2430.062           0.247  
> 2022 01 01 00 00 37.1688020  0  1                     
G05  20629702.925      -45914.578       -2428.536           0.247  
> 2022 01 01 00 00 37.2688020  0  1                     
G05  20629748.728      -46157.602       -2431.311           0.247  
> 2022 01 01 00 00 37.3688020  0  1                     
G05  20629794.420      -46400.641       -2430.239           0.248  
> 2022 01 01 00 00 37.4688020  0  1                     
G05  20629841.978      -46643.675       -2426.028           0.248  
> 2022 01 01 00 00 37.5688020  0  1                     
G05  20629887.034      -46886.703       -2431.549           0.248  
> 2022 01 01 00 00 37.6688020  0  1                     
G05  20629932.775      -47129.737       -2430.353           0.247  
> 2022 01 01 00 00 37.7688020  0  1                     
G05  20629978.850      -47372.790       -2431.157           0.247  
> 2022 01 01 00 00 37.8688020  0  1                     
G05  20630025.351      -47615.830       -2427.046           0.247  
> 2022 01 01 00 00 37.9688020  0  1                     
G05  20630070.938      -47858.878       -2429.362           0.247  
> 2022 01 01 00 00 38.0688020  0  1                     
G05  20630116.842      -48101.920       -2431.486           0.247  
> 2022 01 01 00 00 38.1688020  0  1                     
G05  20630163.089      -48344.966       -2429.568           0.248  
> 2022 01 01 00 00 38.2688020  0  1                     
G05  20630210.078      -48588.023       -2429.149           0.247  
> 2022 01 01 00 00 38.3688020  0  1                     
G05  20630257.149      -48831.080       -2430.858           0.247  
> 2022 01 01 00 00 38.4688020  0  1                     
G05  20630304.022      -49074.139       -2430.128           0.247  
> 2022 01 01 00 00 38.5688020  0  1                     
G05  20630349.048      -49317.202       -2430.960           0.247  
> 2022 01 01 00 00 38.6688020  0  1                     
G05  20630395.151      -49560.259       -2430.428           0.247  
> 2022 01 01 00 00 38.7688020  0  1                     
G05  20630441.749      -49803.333       -2430.010           0.247  
> 2022 01 01 00 00 38.8688020  0  1                     
G05  20630488.281      -50046.395       -2430.250           0.247  
> 2022 01 01 00 00 38.9688020  0  1                     
G05  20630533.533      -50289.466       -2430.191           0.247  
> 2022 01 01 00 00 39.0688020  0  1                     
G05  20630580.325      -50532.544       -2431.440           0.247  
> 2022 01 01 00 00 39.1688020  0  1                     
G05  20630626.768      -50775.608       -2430.364           0.247  
> 2022 01 01 00 00 39.2688020  0  1                     
G05  20630673.261      -51018.693       -2430.167           0.248  
> 2022 01 01 00 00 39.3688020  0  1                     
G05  20630717.787      -51261.769       -2434.035           0.247  
> 2022 01 01 00 00 39.4688020  0  1                     
G05  20630765.679      -51504.858       -2429.503           0.247  
> 2022 01 01 00 00 39.5688020  0  1                     
G05  20630810.484      -51747.943       -2431.521           0.247  
> 2022 01 01 00 00 39.6688020  0  1                     
G05  20630856.871      -51991.036       -2430.490           0.247  
> 2022 01 01 00 00 39.7688020  0  1                     
G05  20630903.799      -52234.119       -2431.300           0.247  
> 2022 01 01 00 00 39.8688020  0  1                     
G05  20630949.562      -52477.212       -2430.917           0.247  
> 2022 01 01 00 00 39.9688020  0  1                     
G05  20630995.948      -52720.313       -2431.406           0.247  
> 2022 01 01 00 00 40.0688020  0  1                     
G05  20631044.349      -52963.408       -2430.925           0.247  
> 2022 01 01 00 00 40.1688020  0  1                     
G05  20631090.029      -53206.513       -2429.731           0.247  
> 2022 01 01 00 00 40.2688020  0  1                     
G05  20631136.179      -53449.613       -2431.497           0.247  
> 2022 01 01 00 00 40.3688020  0  1                     
G05  20631180.710      -53692.719       -2429.918           0.247  
> 2022 01 01 00 00 40.4688020  0  1                     
G05  20631226.724      -53935.830       -2432.403           0.247  
> 2022 01 01 00 00 40.5688020  0  1                     
G05  20631274.437      -54178.934       -2429.892           0.247  
> 2022 01 01 00 00 40.6688020  0  1                     
G05  20631321.627      -54422.055       -2431.859           0.247  
> 2022 01 01 00 00 40.7688020  0  1                     
G05  20631366.198      -54665.171       -2430.448           0.247  
> 2022 01 01 00 00 40.8688020  0  1                     
G05  20631412.567      -54908.289       -2432.991           0.247  
> 2022 01 01 00 00 40.9688020  0  1                     
G05  20631459.485      -55151.406       -2432.214           0.247  
> 2022 01 01 00 00 41.0688020  0  1                     
G05  20631504.622      -55394.527       -2431.648           0.247  
> 2022 01 01 00 00 41.1688020  0  1                     
G05  20631551.361      -55637.654       -2431.059           0.247  
> 2022 01 01 00 00 41.2688020  0  1                     
G05  20631597.121      -55880.780       -2430.723           0.247  
> 2022 01 01 00 00 41.3688020  0  1                     
G05  20631644.214      -56123.909       -2430.802           0.247  
> 2022 01 01 00 00 41.4688020  0  1                     
G05  20631690.697      -56367.043       -2430.601           0.247  
> 2022 01 01 00 00 41.5688020  0  1                     
G05  20631737.126      -56610.181       -2429.984           0.247  
> 2022 01 01 00 00 41.6688020  0  1                     
G05  20631782.490      -56853.318       -2431.927           0.247  
> 2022 01 01 00 00 41.7688020  0  1                     
G05  20631828.825      -57096.456       -2431.633           0.247  
> 2022 01 01 00 00 41.8688020  0  1                     
G05  20631874.774      -57339.603       -2430.636           0.248  
> 2022 01 01 00 00 41.9688020  0  1                     
G05  20631922.711      -57582.750       -2431.282           0.247  
> 2022 01 01 00 00 42.0688020  0  1                     
G05  20631969.200      -57825.898       -2432.071           0.247  
> 2022 01 01 00 00 42.1688020  0  1                     
G05  20632014.166      -58069.048       -2431.885           0.247  
> 2022 01 01 00 00 42.2688020  0  1                     
G05  20632061.466      -58312.200       -2428.523           0.247  
> 2022 01 01 00 00 42.3688020  0  1                     
G05  20632106.877      -58555.361       -2432.786           0.247  
> 2022 01 01 00 00 42.4688020  0  1                     
G05  20632152.628      -58798.514       -2431.595           0.247  
> 2022 01 01 00 00 42.5688020  0  1                     
G05  20632198.655      -59041.673       -2430.708           0.247  
> 2022 01 01 00 00 42.6688020  0  1                     
G05  20632246.015      -59284.842       -2430.614           0.247  
> 2022 01 01 00 00 42.7688020  0  1                     
G05  20632292.960      -59528.002       -2433.458           0.247  
> 2022 01 01 00 00 42.8688020  0  1                     
G05  20632338.767      -59771.173       -2431.955           0.247  
> 2022 01 01 00 00 42.9688020  0  1                     
G05  20632384.800      -60014.341       -2430.668           0.247  
> 2022 01 01 00 00 43.0688020  0  1                     
G05  20632430.720      -60257.515       -2429.600           0.247  
> 2022 01 01 00 00 43.1688020  0  1                     
G05  20632477.541      -60500.690       -2433.321           0.247  
> 2022 01 01 00 00 43.2688020  0  1                     
G05  20632523.441      -60743.859       -2432.810           0.248  
> 2022 01 01 00 00 43.3688020  0  1                     
G05  20632568.836      -60987.052       -2433.809           0.247  
> 2022 01 01 00 00 43.4688020  0  1                     
G05  20632615.137      -61230.228       -2432.677           0.247  
> 2022 01 01 00 00 43.5688020  0  1                     
G05  20632662.793      -61473.414       -2430.361           0.247  
> 2022 01 01 00 00 43.6688020  0  1                     
G05  20632707.955      -61716.597       -2433.123           0.247  
> 2022 01 01 00 00 43.7688020  0  1                     
G05  20632753.528      -61959.790       -2431.636           0.248  
> 2022 01 01 00 00 43.8688020  0  1                     
G05  20632801.679      -62202.990       -2430.544           0.248  
> 2022 01 01 00 00 43.9688020  0  1                     
G05  20632846.430      -62446.182       -2432.401           0.247  
> 2022 01 01 00 00 44.0688020  0  1                     
G05  20632893.423      -62689.382       -2433.340           0.247  
> 2022 01 01 00 00 44.1688020  0  1                     
G05  20632939.657      -62932.583       -2431.275           0.247  
> 2022 01 01 00 00 44.2688020  0  1                     
G05  20632984.782      -63175.783       -2432.485           0.247  
> 2022 01 01 00 00 44.3688020  0  1                     
G05  20633032.775      -63418.991       -2430.595           0.247  
> 2022 01 01 00 00 44.4688020  0  1                     
G05  20633078.901      -63662.203       -2430.670           0.247  
> 2022 01 01 00 00 44.5688020  0  1                     
G05  20633124.647      -63905.412       -2430.147           0.247  
> 2022 01 01 00 00 44.6688020  0  1                     
G05  20633170.746      -64148.623       -2430.841           0.247  
> 2022 01 01 00 00 44.7688020  0  1                     
G05  20633217.241      -64391.840       -2428.962           0.247  
> 2022 01 01 00 00 44.8688020  0  1                     
G05  20633264.207      -64635.060       -2431.327           0.244  
> 2022 01 01 00 00 44.9688020  0  1                     
G05  20633311.275      -64878.282       -2433.398           0.244  
> 2022 01 01 00 00 45.0688020  0  1                     
G05  20633357.183      -65121.505       -2432.976           0.244  
> 2022 01 01 00 00 45.1688020  0  1                     
G05  20633402.178      -65364.731       -2432.913           0.244  
> 2022 01 01 00 00 45.2688020  0  1                     
G05  20633449.017      -65607.957       -2434.194           0.244  
> 2022 01 01 00 00 45.3688020  0  1                     
G05  20633494.139      -65851.179       -2430.522           0.244  
> 2022 01 01 00 00 45.4688020  0  1                     
G05  20633541.144      -66094.421       -2433.956           0.244  
> 2022 01 01 00 00 45.5688020  0  1                     
G05  20633587.050      -66337.657       -2431.487           0.244  
> 2022 01 01 00 00 45.6688020  0  1                     
G05  20633634.721      -66580.890       -2432.164           0.244  
> 2022 01 01 00 00 45.7688020  0  1                     
G05  20633683.847      -66824.127       -2432.674           0.244  
> 2022 01 01 00 00 45.8688020  0  1                     
G05  20633726.264      -67067.372       -2433.232           0.243  
> 2022 01 01 00 00 45.9688020  0  1                     
G05  20633770.325      -67310.621       -2435.859           0.244  
> 2022 01 01 00 00 46.0688020  0  1                     
G05  20633817.511      -67553.863       -2433.542           0.244  
> 2022 01 01 00 00 46.1688020  0  1                     
G05  20633865.911      -67797.120       -2432.887           0.244  
> 2022 01 01 00 00 46.2688020  0  1                     
G05  20633910.494      -68040.372       -2432.338           0.244  
> 2022 01 01 00 00 46.3688020  0  1                     
G05  20633956.724      -68283.625       -2432.632           0.244  
> 2022 01 01 00 00 46.4688020  0  1                     
G05  20634005.761      -68526.880       -2432.330           0.244  
> 2022 01 01 00 00 46.5688020  0  1                     
G05  20634051.349      -68770.141       -2433.047           0.244  
> 2022 01 01 00 00 46.6688020  0  1                     
G05  20634097.167      -69013.408       -2431.873           0.244  
> 2022 01 01 00 00 46.7688020  0  1                     
G05  20634143.662      -69256.676       -2432.190           0.244  
> 2022 01 01 00 00 46.8688020  0  1                     
G05  20634189.091      -69499.945       -2435.199           0.244  
> 2022 01 01 00 00 46.9688020  0  1                     
G05  20634236.184      -69743.206       -2429.708           0.244  
> 2022 01 01 00 00 47.0688020  0  1                     
G05  20634282.410      -69986.486       -2434.073           0.244  
> 2022 01 01 00 00 47.1688020  0  1                     
G05  20634330.273      -70229.762       -2431.431           0.244  
> 2022 01 01 00 00 47.2688020  0  1                     
G05  20634377.399      -70473.036       -2431.032           0.244  
> 2022 01 01 00 00 47.3688020  0  1                     
G05  20634423.826      -70716.318       -2433.128           0.244  
> 2022 01 01 00 00 47.4688020  0  1                     
G05  20634469.242      -70959.604       -2430.857           0.244  
> 2022 01 01 00 00 47.5688020  0  1                     
G05  20634515.319      -71202.894       -2432.683           0.244  
> 2022 01 01 00 00 47.6688020  0  1                     
G05  20634559.607      -71446.175       -2433.217           0.244  
> 2022 01 01 00 00 47.7688020  0  1                     
G05  20634604.782      -71689.460       -2431.952           0.243  
> 2022 01 01 00 00 47.8688020  0  1                     
G05  20634649.874      -71932.760       -2432.577           0.244  
> 2022 01 01 00 00 47.9688020  0  1                     
G05  20634698.278      -72176.050       -2433.510           0.244  
> 2022 01 01 00 00 48.0688020  0  1                     
G05  20634745.127      -72419.344       -2432.976           0.244  
> 2022 01 01 00 00 48.1688020  0  1                     
G05  20634790.926      -72662.646       -2435.568           0.244  
> 2022 01 01 00 00 48.2688020  0  1                     
G05  20634837.825      -72905.953       -2433.463           0.244  
> 2022 01 01 00 00 48.3688020  0  1                     
G05  20634883.603      -73149.258       -2434.780           0.244  
> 2022 01 01 00 00 48.4688020  0  1                     
G05  20634929.884      -73392.568       -2433.486           0.244  
> 2022 01 01 00 00 48.5688020  0  1                     
G05  20634976.532      -73635.876       -2432.743           0.244  
> 2022 01 01 00 00 48.6688020  0  1                     
G05  20635023.210      -73879.191       -2433.260           0.244  
> 2022 01 01 00 00 48.7688020  0  1                     
G05  20635069.686      -74122.505       -2434.071           0.244  
> 2022 01 01 00 00 48.9688020  0  1                     
G05  20635161.710      -74609.142       -2433.002           0.244  
> 2022 01 01 00 00 49.0688020  0  1                     
G05  20635207.555      -74852.465       -2434.330           0.244  
> 2022 01 01 00 00 49.1688020  0  1                     
G05  20635254.335      -75095.793       -2433.221           0.244  
> 2022 01 01 00 00 49.2688020  0  1                     
G05  20635301.410      -75339.124       -2434.528           0.244  
> 2022 01 01 00 00 49.3688020  0  1                     
G05  20635347.699      -75582.451       -2433.002           0.244  
> 2022 01 01 00 00 49.4688020  0  1                     
G05  20635392.845      -75825.784       -2433.437           0.244  
> 2022 01 01 00 00 49.5688020  0  1                     
G05  20635439.699      -76069.116       -2432.151           0.244  
> 2022 01 01 00 00 49.6688020  0  1                     
G05  20635485.627      -76312.457       -2433.593           0.244  
> 2022 01 01 00 00 49.7688020  0  1                     
G05  20635532.121      -76555.794       -2434.632           0.244  
> 2022 01 01 00 00 49.8688020  0  1                     
G05  20635579.164      -76799.136       -2433.768           0.244  
> 2022 01 01 00 00 49.9688020  0  1                     
G05  20635624.714      -77042.487       -2437.196           0.244  
> 2022 01 01 00 00 50.0688020  0  1                     
G05  20635670.213      -77285.836       -2435.136           0.244  
> 2022 01 01 00 00 50.1688020  0  1                     
G05  20635717.042      -77529.180       -2433.496           0.244  
> 2022 01 01 00 00 50.2688020  0  1                     
G05  20635764.045      -77772.539       -2436.152           0.244  
> 2022 01 01 00 00 50.3688020  0  1                     
G05  20635810.278      -78015.893       -2434.804           0.244  
> 2022 01 01 00 00 50.4688020  0  1                     
G05  20635856.795      -78259.252       -2433.612           0.244  
> 2022 01 01 00 00 50.5688020  0  1                     
G05  20635901.694      -78502.606       -2430.861           0.244  
> 2022 01 01 00 00 50.6688020  0  1                     
G05  20635948.598      -78745.968       -2433.054           0.244  
> 2022 01 01 00 00 50.7688020  0  1                     
G05  20635995.110      -78989.330       -2430.492           0.244  
> 2022 01 01 00 00 50.8688020  0  1                     
G05  20636041.357      -79232.695       -2433.383           0.244  
> 2022 01 01 00 00 50.9688020  0  1                     
G05  20636087.979      -79476.072       -2434.813           0.244  
> 2022 01 01 00 00 51.0688020  0  1                     
G05  20636134.825      -79719.440       -2432.908           0.244  
> 2022 01 01 00 00 51.1688020  0  1                     
G05  20636180.687      -79962.822       -2435.331           0.244  
> 2022 01 01 00 00 51.2688020  0  1                     
G05  20636226.842      -80206.199       -2434.407           0.244  
> 2022 01 01 00 00 51.3688020  0  1                     
G05  20636272.729      -80449.578       -2435.228           0.244  
> 2022 01 01 00 00 51.4688020  0  1                     
G05  20636318.903      -80692.961       -2431.681           0.244  
> 2022 01 01 00 00 51.5688020  0  1                     
G05  20636365.535      -80936.345       -2432.993           0.244  
> 2022 01 01 00 00 51.6688020  0  1                     
G05  20636411.591      -81179.736       -2434.491           0.244  
> 2022 01 01 00 00 51.7688020  0  1                     
G05  20636458.080      -81423.125       -2433.301           0.244  
> 2022 01 01 00 00 51.8688020  0  1                     
G05  20636504.986      -81666.515       -2433.918           0.244  
> 2022 01 01 00 00 51.9688020  0  1                     
G05  20636550.960      -81909.911       -2436.221           0.244  
> 2022 01 01 00 00 52.0688020  0  1                     
G05  20636597.155      -82153.306       -2433.808           0.244  
> 2022 01 01 00 00 52.1688020  0  1                     
G05  20636643.893      -82396.711       -2436.054           0.244  
> 2022 01 01 00 00 52.2688020  0  1                     
G05  20636689.661      -82640.114       -2434.614           0.244  
> 2022 01 01 00 00 52.3688020  0  1                     
G05  20636735.833      -82883.515       -2432.210           0.244  
> 2022 01 01 00 00 52.4688020  0  1                     
G05  20636782.506      -83126.924       -2433.621           0.244  
> 2022 01 01 00 00 52.5688020  0  1                     
G05  20636828.691      -83370.328       -2436.266           0.244  
> 2022 01 01 00 00 52.6688020  0  1                     
G05  20636875.502      -83613.743       -2435.813           0.244  
> 2022 01 01 00 00 52.7688020  0  1                     
G05  20636921.273      -83857.163       -2435.769           0.244  
> 2022 01 01 00 00 52.8688020  0  1                     
G05  20636967.789      -84100.575       -2434.823           0.244  
> 2022 01 01 00 00 52.9688020  0  1                     
G05  20637014.328      -84343.997       -2434.422           0.244  
> 2022 01 01 00 00 53.0688020  0  1                     
G05  20637061.204      -84587.419       -2432.801           0.244  
> 2022 01 01 00 00 53.1688020  0  1                     
G05  20637106.047      -84830.838       -2434.552           0.244  
> 2022 01 01 00 00 53.2688020  0  1                     
G05  20637153.297      -85074.265       -2434.666           0.244  
> 2022 01 01 00 00 53.3688020  0  1                     
G05  20637199.689      -85317.702       -2437.536           0.244  
> 2022 01 01 00 00 53.4688020  0  1                     
G05  20637245.256      -85561.140       -2435.585           0.244  
> 2022 01 01 00 00 53.5688020  0  1                     
G05  20637291.908      -85804.567       -2434.149           0.244  
> 2022 01 01 00 00 53.6688020  0  1                     
G05  20637339.003      -86048.005       -2433.322           0.244  
> 2022 01 01 00 00 53.7688020  0  1                     
G05  20637384.425      -86291.447       -2434.647           0.244  
> 2022 01 01 00 00 53.8688020  0  1                     
G05  20637431.212      -86534.891       -2434.944           0.244  
> 2022 01 01 00 00 53.9688020  0  1                     
G05  20637476.580      -86778.339       -2434.912           0.244  
> 2022 01 01 00 00 54.0688020  0  1                     
G05  20637522.601      -87021.786       -2434.558           0.244  
> 2022 01 01 00 00 54.1688020  0  1                     
G05  20637569.332      -87265.235       -2431.430           0.244  
> 2022 01 01 00 00 54.2688020  0  1                     
G05  20637616.533      -87508.682       -2434.010           0.244  
> 2022 01 01 00 00 54.3688020  0  1                     
G05  20637663.100      -87752.138       -2434.134           0.244  
> 2022 01 01 00 00 54.4688020  0  1                     
G05  20637708.959      -87995.600       -2436.316           0.244  
> 2022 01 01 00 00 54.5688020  0  1                     
G05  20637756.041      -88239.057       -2433.559           0.244  
> 2022 01 01 00 00 54.6688020  0  1                     
G05  20637801.505      -88482.520       -2430.928           0.244  
> 2022 01 01 00 00 54.7688020  0  1                     
G05  20637848.023      -88725.984       -2436.561           0.244  
> 2022 01 01 00 00 54.8688020  0  1                     
G05  20637893.934      -88969.449       -2433.661           0.244  
> 2022 01 01 00 00 54.9688020  0  1                     
G05  20637940.227      -89212.920       -2434.748           0.244  
> 2022 01 01 00 00 55.0688020  0  1                     
G05  20637986.609      -89456.392       -2434.694           0.244  
> 2022 01 01 00 00 55.1688020  0  1                     
G05  20638033.133      -89699.867       -2435.062           0.244  
> 2022 01 01 00 00 55.2688020  0  1                     
G05  20638079.789      -89943.342       -2435.271           0.244  
> 2022 01 01 00 00 55.3688020  0  1                     
G05  20638126.110      -90186.824       -2438.600           0.244  
> 2022 01 01 00 00 55.4688020  0  1                     
G05  20638172.072      -90430.305       -2436.344           0.244  
> 2022 01 01 00 00 55.5688020  0  1                     
G05  20638218.711      -90673.794       -2436.760           0.244  
> 2022 01 01 00 00 55.6688020  0  1                     
G05  20638264.924      -90917.280       -2435.832           0.244  
> 2022 01 01 00 00 55.7688020  0  1                     
G05  20638312.310      -91160.773       -2433.161           0.244  
> 2022 01 01 00 00 55.8688020  0  1                     
G05  20638356.886      -91404.264       -2435.154           0.244  
> 2022 01 01 00 00 55.9688020  0  1                     
G05  20638404.347      -91647.759       -2435.969           0.244  
> 2022 01 01 00 00 56.0688020  0  1                     
G05  20638450.425      -91891.259       -2432.622           0.244  
> 2022 01 01 00 00 56.1688020  0  1                     
G05  20638496.751      -92134.758       -2433.533           0.244  
> 2022 01 01 00 00 56.2688020  0  1                     
G05  20638543.287      -92378.259       -2434.188           0.244  
> 2022 01 01 00 00 56.3688020  0  1                     
G05  20638590.440      -92621.766       -2433.024           0.244  
> 2022 01 01 00 00 56.4688020  0  1                     
G05  20638635.907      -92865.266       -2433.938           0.244  
> 2022 01 01 00 00 56.5688020  0  1                     
G05  20638681.955      -93108.785       -2439.270           0.244  
> 2022 01 01 00 00 56.6688020  0  1                     
G05  20638728.521      -93352.300       -2435.741           0.244  
> 2022 01 01 00 00 56.7688020  0  1                     
G05  20638774.854      -93595.806       -2434.851           0.244  
> 2022 01 01 00 00 56.8688020  0  1                     
G05  20638821.351      -93839.325       -2436.138           0.244  
> 2022 01 01 00 00 56.9688020  0  1                     
G05  20638867.525      -94082.843       -2433.794           0.244  
> 2022 01 01 00 00 57.0688020  0  1                     
G05  20638913.685      -94326.366       -2435.175           0.244  
> 2022 01 01 00 00 57.1688020  0  1                     
G05  20638959.819      -94569.888       -2435.377           0.244  
> 2022 01 01 00 00 57.2688020  0  1                     
G05  20639006.296      -94813.415       -2435.632           0.244  
> 2022 01 01 00 00 57.3688020  0  1                     
G05  20639053.065      -95056.948       -2435.871           0.244  
> 2022 01 01 00 00 57.4688020  0  1                     
G05  20639098.740      -95300.476       -2435.873           0.244  
> 2022 01 01 00 00 57.5688020  0  1                     
G05  20639145.349      -95544.011       -2434.968           0.244  
> 2022 01 01 00 00 57.6688020  0  1                     
G05  20639191.675      -95787.549       -2435.487           0.244  
> 2022 01 01 00 00 57.7688020  0  1                     
G05  20639237.687      -96031.091       -2431.612           0.244  
> 2022 01 01 00 00 57.8688020  0  1                     
G05  20639284.545      -96274.636       -2437.068           0.244  
> 2022 01 01 00 00 57.9688020  0  1                     
G05  20639330.919      -96518.179       -2434.719           0.244  
> 2022 01 01 00 00 58.0688020  0  1                     
G05  20639377.001      -96761.728       -2433.894           0.244  
> 2022 01 01 00 00 58.1688020  0  1                     
G05  20639423.420      -97005.278       -2435.499           0.244  
> 2022 01 01 00 00 58.2688020  0  1                     
G05  20639469.901      -97248.833       -2435.176           0.244  
> 2022 01 01 00 00 58.3688020  0  1                     
G05  20639516.165      -97492.387       -2434.474           0.244  
> 2022 01 01 00 00 58.4688020  0  1                     
G05  20639561.913      -97735.944       -2434.238           0.244  
> 2022 01 01 00 00 58.5688020  0  1                     
G05  20639608.571      -97979.503       -2436.761           0.244  
> 2022 01 01 00 00 58.6688020  0  1                     
G05  20639654.808      -98223.065       -2435.445           0.244  
> 2022 01 01 00 00 58.7688020  0  1                     
G05  20639701.054      -98466.627       -2435.505           0.244  
> 2022 01 01 00 00 58.8688020  0  1                     
G05  20639747.885      -98710.197       -2436.867           0.244  
> 2022 01 01 00 00 58.9688020  0  1                     
G05  20639794.654      -98953.762       -2434.875           0.244  
> 2022 01 01 00 00 59.0688020  0  1                     
G05  20639840.654      -99197.335       -2435.804           0.244  
> 2022 01 01 00 00 59.1688020  0  1                     
G05  20639886.976      -99440.913       -2434.486           0.244  
> 2022 01 01 00 00 59.2688020  0  1                     
G05  20639932.938      -99684.490       -2435.854           0.244  
> 2022 01 01 00 00 59.3688020  0  1                     
G05  20639979.306      -99928.071       -2435.853           0.244  
> 2022 01 01 00 00 59.4688020  0  1                     
G05  20640026.423     -100171.647       -2435.146           0.244  
> 2022 01 01 00 00 59.5688020  0  1                     
G05  20640072.369     -100415.234       -2434.899           0.244  
> 2022 01 01 00 00 59.6688020  0  1                     
G05  20640119.149     -100658.821       -2436.345           0.244  
> 2022 01 01 00 00 59.7688020  0  1                     
G05  20640164.663     -100902.413       -2436.484           0.244  
> 2022 01 01 00 00 59.8688020  0  1                     
G05  20640211.700     -101146.003       -2437.043           0.244  
> 2022 01 01 00 00 59.9688020  0  1                     
G05  20640258.006     -101389.593       -2436.153           0.244  
> 2022 01 01 00 01 00.0688020  0  1                     
G05  20640304.029     -101633.188       -2435.714           0.244  
> 2022 01 01 00 01 00.1688020  0  1                     
G05  20640350.918     -101876.790       -2433.903           0.244  
> 2022 01 01 00 01 00.2688020  0  1                     
G05  20640397.403     -102120.393       -2434.531           0.244  
> 2022 01 01 00 01 00.3688020  0  1                     
G05  20640442.345     -102363.997       -2434.504           0.244  
> 2022 01 01 00 01 00.5688020  0  1                     
G05  20640535.937     -102851.218       -2432.620           0.244  
> 2022 01 01 00 01 00.6688020  0  1                     
G05  20640582.688     -103094.824       -2436.460           0.244  
> 2022 01 01 00 01 00.7688020  0  1                     
G05  20640627.372     -103338.438       -2435.553           0.244  
> 2022 01 01 00 01 00.8688020  0  1                     
G05  20640673.616     -103582.059       -2438.104           0.244  
> 2022 01 01 00 01 00.9688020  0  1                     
G05  20640720.404     -103825.680       -2436.266           0.244  
> 2022 01 01 00 01 01.0688020  0  1                     
G05  20640767.853     -104069.297       -2436.595           0.244  
> 2022 01 01 00 01 01.1688020  0  1                     
G05  20640813.838     -104312.924       -2437.532           0.244  
> 2022 01 01 00 01 01.2688020  0  1                     
G05  20640860.325     -104556.551       -2436.592           0.244  
> 2022 01 01 00 01 01.3688020  0  1                     
G05  20640907.631     -104800.183       -2435.181           0.244  
> 2022 01 01 00 01 01.4688020  0  1                     
G05  20640953.867     -105043.811       -2437.559           0.244  
> 2022 01 01 00 01 01.5688020  0  1                     
G05  20640998.273     -105287.448       -2433.784           0.244  
> 2022 01 01 00 01 01.6688020  0  1                     
G05  20641045.552     -105531.081       -2436.483           0.244  
> 2022 01 01 00 01 01.7688020  0  1                     
G05  20641091.402     -105774.725       -2434.660           0.244  
> 2022 01 01 00 01 01.8688020  0  1                     
G05  20641138.874     -106018.364       -2438.113           0.244  
> 2022 01 01 00 01 01.9688020  0  1                     
G05  20641184.611     -106262.013       -2435.738           0.244  
> 2022 01 01 00 01 02.0688020  0  1                     
G05  20641231.590     -106505.658       -2439.424           0.244  
> 2022 01 01 00 01 02.1688020  0  1                     
G05  20641276.902     -106749.298       -2433.716           0.244  
> 2022 01 01 00 01 02.2688020  0  1                     
G05  20641324.186     -106992.958       -2434.700           0.244  
> 2022 01 01 00 01 02.3688020  0  1                     
G05  20641370.186     -107236.610       -2436.977           0.244  
> 2022 01 01 00 01 02.4688020  0  1                     
G05  20641416.936     -107480.266       -2437.708           0.244  
> 2022 01 01 00 01 02.5688020  0  1                     
G05  20641464.537     -107723.931       -2435.376           0.244  
> 2022 01 01 00 01 02.6688020  0  1                     
G05  20641509.727     -107967.590       -2438.381           0.244  
> 2022 01 01 00 01 02.7688020  0  1                     
G05  20641555.797     -108211.258       -2435.780           0.244  
> 2022 01 01 00 01 02.8688020  0  1                     
G05  20641602.687     -108454.921       -2436.750           0.244  
> 2022 01 01 00 01 02.9688020  0  1                     
G05  20641649.743     -108698.593       -2434.328           0.244  
> 2022 01 01 00 01 03.0688020  0  1                     
G05  20641695.144     -108942.262       -2437.330           0.244  
> 2022 01 01 00 01 03.1688020  0  1                     
G05  20641742.565     -109185.942       -2439.069           0.244  
> 2022 01 01 00 01 03.2688020  0  1                     
G05  20641788.407     -109429.615       -2434.490           0.244  
> 2022 01 01 00 01 03.3688020  0  1                     
G05  20641834.358     -109673.298       -2437.172           0.244  
> 2022 01 01 00 01 03.4688020  0  1                     
G05  20641879.817     -109916.974       -2440.898           0.244  
> 2022 01 01 00 01 03.5688020  0  1                     
G05  20641927.049     -110160.653       -2431.049           0.244  
> 2022 01 01 00 01 03.6688020  0  1                     
G05  20641972.633     -110404.352       -2435.302           0.244  
> 2022 01 01 00 01 03.7688020  0  1                     
G05  20642019.327     -110648.044       -2441.167           0.244  
> 2022 01 01 00 01 03.8688020  0  1                     
G05  20642065.622     -110891.721       -2435.017           0.244  
> 2022 01 01 00 01 03.9688020  0  1                     
G05  20642112.330     -111135.426       -2435.841           0.244  
> 2022 01 01 00 01 04.0688020  0  1                     
G05  20642157.320     -111379.117       -2436.299           0.244  
> 2022 01 01 00 01 04.1688020  0  1                     
G05  20642203.869     -111622.818       -2435.884           0.244  
> 2022 01 01 00 01 04.2688020  0  1                     
G05  20642251.243     -111866.526       -2437.340           0.243  
> 2022 01 01 00 01 04.3688020  0  1                     
G05  20642297.061     -112110.227       -2438.301           0.244  
> 2022 01 01 00 01 04.4688020  0  1                     
G05  20642343.428     -112353.931       -2436.431           0.244  
> 2022 01 01 00 01 04.5688020  0  1                     
G05  20642389.693     -112597.634       -2434.600           0.244  
> 2022 01 01 00 01 04.6688020  0  1                     
G05  20642437.884     -112841.351       -2438.521           0.244  
> 2022 01 01 00 01 04.7688020  0  1                     
G05  20642483.923     -113085.065       -2438.006           0.244  
> 2022 01 01 00 01 04.8688020  0  1                     
G05  20642529.404     -113328.784       -2435.836           0.244  
> 2022 01 01 00 01 04.9688020  0  1                     
G05  20642576.680     -113572.506       -2438.335           0.244  
> 2022 01 01 00 01 05.0688020  0  1                     
G05  20642622.110     -113816.224       -2436.482           0.244  
> 2022 01 01 00 01 05.1688020  0  1                     
G05  20642668.595     -114059.948       -2437.445           0.244  
> 2022 01 01 00 01 05.2688020  0  1                     
G05  20642715.471     -114303.677       -2435.277           0.244  
> 2022 01 01 00 01 05.3688020  0  1                     
G05  20642761.794     -114547.409       -2437.008           0.244  
> 2022 01 01 00 01 05.4688020  0  1                     
G05  20642808.055     -114791.136       -2437.671           0.244  
> 2022 01 01 00 01 05.5688020  0  1                     
G05  20642852.934     -115034.871       -2437.160           0.244  
> 2022 01 01 00 01 05.6688020  0  1                     
G05  20642899.065     -115278.604       -2436.932           0.244  
> 2022 01 01 00 01 05.7688020  0  1                     
G05  20642947.010     -115522.349       -2436.749           0.244  
> 2022 01 01 00 01 05.8688020  0  1                     
G05  20642993.352     -115766.094       -2437.191           0.244  
> 2022 01 01 00 01 05.9688020  0  1                     
G05  20643040.980     -116009.837       -2437.660           0.244  
> 2022 01 01 00 01 06.0688020  0  2                     
G05  23374886.518     -116231.369       -2440.597           0.244  
G18  20626344.905       -5241.604        -514.837           0.255  
> 2022 01 01 00 01 06.0688020  0  3                     
G05  23374886.518     -116231.257       -2417.092           0.244  
G10  24322981.513      108324.366        2901.412           0.239  
G18  20626344.905                                           0.255  
> 2022 01 01 00 01 06.1688020  0  3                     
G05  23375079.299     -116474.735       -1561.508           0.244  
G10  24323073.752      108612.728        2891.204           0.239  
G18  20626500.997       -5293.077        -514.276           0.255  
> 2022 01 01 00 01 06.2688020  0  3                     
G05  23375127.402     -116718.865       -2436.952           0.244  
G10  24323019.576      108901.406        2793.155           0.239  
G18  20626510.757       -5344.554        -515.179           0.255  
> 2022 01 01 00 01 06.3688020  0  3                     
G05  23375173.435     -116962.457       -2356.590           0.244  
G10  24322964.857      109189.664        2360.198           0.239  
G18  20626520.634       -5396.035        -515.382           0.255  
> 2022 01 01 00 01 06.4688020  0  3                     
G05  23375219.637                                           0.244  
G10  24322910.291      109479.225        2886.208           0.239  
G18  20626530.414                                           0.255  
> 2022 01 01 00 01 06.5688020  0  3                     
G05  23375264.854     -117458.415      -13358.940           0.244  
G10  24322854.305      109767.758        2983.644           0.239  
G18  20626540.268       -5499.003        -601.821           0.255  
> 2022 01 01 00 01 06.6688020  0  3                     
G05  23375311.362     -117693.894       -2438.053           0.244  
G10  24322800.062      110056.139        2716.326           0.239  
G18  20626550.394       -5550.547        -522.611           0.255  
> 2022 01 01 00 01 06.7688020  0  3                     
G05  23375358.438     -117937.655       -2435.525           0.244  
G10  24322743.375      110344.875        2734.534           0.239  
G18  20626559.804       -5602.026        -507.380           0.255  
> 2022 01 01 00 01 06.8688020  0  3                     
G05  23375403.557     -118181.316       -2402.161           0.244  
G10  24322689.163      110634.063        2931.067           0.239  
G18  20626569.458                                           0.255  
> 2022 01 01 00 01 06.9688020  0  3                     
G05  23375449.145     -118425.191       -2437.500           0.244  
G10  24322633.411      110921.988        3346.799           0.239  
G18  20626579.828       -5705.077        -515.666           0.255  
> 2022 01 01 00 01 07.0688020  0  3                     
G05  23375494.205     -118668.903       -2431.097           0.244  
G10  24322579.737      111211.512        2921.591           0.239  
G18  20626589.344                                           0.255  
> 2022 01 01 00 01 07.1688020  0  3                     
G05  23375542.577     -118912.654       -2437.275           0.244  
G10  24322524.234      111500.205        2926.651           0.239  
G18  20626598.823                                           0.255  
> 2022 01 01 00 01 07.2688020  0  3                     
G05  23375589.421     -119156.557       -2510.714           0.244  
G10  24322468.378      111788.505        2450.091           0.240  
G18  20626609.039       -5859.690        -515.132           0.255  
> 2022 01 01 00 01 07.3688020  0  3                     
G05  23375637.458     -119400.355       -2647.456           0.244  
G10  24322414.500      112077.224        2853.975           0.239  
G18  20626618.254       -5911.240        -515.725           0.255  
> 2022 01 01 00 01 07.4688020  0  3                     
G05  23375682.958     -119644.090       -2462.728           0.244  
G10  24322359.753      112365.892        2878.083           0.239  
G18  20626628.593       -5962.797        -515.381           0.255  
> 2022 01 01 00 01 07.5688020  0  3                     
G05  23375728.038     -119887.797       -2300.454           0.244  
G10  24322303.804      112654.679        2914.249           0.239  
G18  20626638.533       -6014.330        -469.885           0.255  
> 2022 01 01 00 01 07.6688020  0  3                     
G05  23375774.328     -120131.711       -2524.413           0.244  
G10  24322249.153      112943.368        2881.541           0.239  
G18  20626648.244       -6065.927        -515.955           0.255  
> 2022 01 01 00 01 07.7688020  0  3                     
G05  23375821.032     -120375.371       -2454.545           0.244  
G10  24322194.605      113232.445        2806.435           0.239  
G18  20626658.057                                           0.255  
> 2022 01 01 00 01 07.8688020  0  3                     
G05  23375867.584     -120619.161       -2435.499           0.244  
G10  24322139.415                                           0.239  
G18  20626667.591                                           0.255  
> 2022 01 01 00 01 07.9688020  0  3                     
G05  23375914.270     -120863.322       -2735.775           0.244  
G10  24322084.532      113809.388        2468.718           0.239  
G18  20626677.631       -6220.683        -516.568           0.255  
> 2022 01 01 00 01 08.0688020  0  3                     
G05  23375960.478     -121106.369       -1869.319           0.244  
G10  24322028.515      114098.250        2884.437           0.239  
G18  20626687.305       -6272.300        -554.754           0.255  
> 2022 01 01 00 01 08.1688020  0  3                     
G05  23376005.885                                           0.244  
G10  24321974.743      114398.896        2898.694           0.239  
G18  20626696.587                                           0.255  
> 2022 01 01 00 01 08.2688020  0  3                     
G05  23376053.575     -121594.416       -2441.455           0.244  
G10  24321920.420      114675.834        3110.313           0.239  
G18  20626706.608       -6375.486        -492.570           0.255  
> 2022 01 01 00 01 08.3688020  0  3                     
G05  23376101.024     -121838.256       -2506.278           0.244  
G10  24321865.854      114964.444        2981.397           0.239  
G18  20626716.282       -6427.117        -516.622           0.255  
> 2022 01 01 00 01 08.4688020  0  3                     
G05  23376147.289     -122082.013       -2410.431           0.244  
G10  24321809.786      115253.141        2880.015           0.240  
G18  20626726.436       -6478.741        -516.520           0.255  
> 2022 01 01 00 01 08.5688020  0  3                     
G05  23376193.982     -122325.844       -2436.238           0.244  
G10  24321756.089      115541.862        2897.932           0.238  
G18  20626736.736       -6530.371        -517.174           0.255  
> 2022 01 01 00 01 08.6688020  0  3                     
G05  23376240.108     -122569.590       -2439.168           0.244  
G10  24321700.705                                           0.239  
G18  20626745.917                                           0.255  
> 2022 01 01 00 01 08.7688020  0  3                     
G05  23376285.345     -122812.959       -1362.530           0.244  
G10  24321645.800      116119.281        2869.537           0.239  
G18  20626756.380       -6633.647        -515.788           0.255  
> 2022 01 01 00 01 08.8688020  0  3                     
G05  23376331.723     -123057.215       -2438.127           0.244  
G10  24321590.418                                           0.239  
G18  20626766.300                                           0.255  
> 2022 01 01 00 01 08.9688020  0  3                     
G05  23376378.435     -123300.778       -1991.686           0.244  
G10  24321535.653      116696.691        3135.999           0.239  
G18  20626775.834       -6736.962        -516.543           0.255  
> 2022 01 01 00 01 09.0688020  0  3                     
G05  23376422.761     -123544.834       -2265.122           0.244  
G10  24321479.189      116985.474        2883.264           0.240  
G18  20626785.592       -6788.642        -510.414           0.255  
> 2022 01 01 00 01 09.1688020  0  3                     
G05  23376470.594     -123788.776       -2497.354           0.244  
G10  24321425.672      117274.195        2891.952           0.239  
G18  20626795.548       -6840.297        -510.723           0.255  
> 2022 01 01 00 01 09.2688020  0  3                     
G05  23376517.488     -124032.470       -2270.582           0.244  
G10  24321371.564      117562.940        2895.256           0.239  
G18  20626805.404       -6891.982        -519.533           0.255  
> 2022 01 01 00 01 09.3688020  0  3                     
G05  23376562.620     -124276.667       -2292.760           0.244  
G10  24321316.684      117851.656        2880.339           0.239  
G18  20626815.340       -6943.660        -508.182           0.255  
> 2022 01 01 00 01 09.4688020  0  3                     
G05  23376609.137     -124520.227       -2439.458           0.244  
G10  24321262.085      118140.413        2945.105           0.239  
G18  20626824.907       -6995.356        -522.618           0.255  
> 2022 01 01 00 01 09.5688020  0  3                     
G05  23376656.724     -124764.001       -2438.724           0.244  
G10  24321206.299                                           0.239  
G18  20626834.642                                           0.255  
> 2022 01 01 00 01 09.6688020  0  3                     
G05  23376703.250     -125007.835       -2441.206           0.244  
G10  24321151.115                                           0.239  
G18  20626844.493                                           0.255  
> 2022 01 01 00 01 09.7688020  0  3                     
G05  23376750.771     -125252.118       -3303.041           0.244  
G10  24321097.551      119006.580        2926.891           0.239  
G18  20626854.393       -7150.463        -516.604           0.255  
> 2022 01 01 00 01 09.8688020  0  3                     
G05  23376796.680     -125495.560       -2310.430           0.244  
G10  24321040.725      119295.326        2931.798           0.239  
G18  20626864.145       -7202.177        -516.310           0.255  
> 2022 01 01 00 01 09.9688020  0  3                     
G05  23376842.591     -125739.418       -2438.682           0.244  
G10  24320985.731      119583.944        2773.364           0.239  
G18  20626874.108       -7253.905        -516.070           0.255  
> 2022 01 01 00 01 10.0688020  0  3                     
G05  23376887.852                                           0.244  
G10  24320930.603                                           0.239  
G18  20626884.098                                           0.255  
> 2022 01 01 00 01 10.1688020  0  3                     
G05  23376933.819     -126227.115       -2420.600           0.244  
G10  24320875.601      120161.501        2897.111           0.239  
G18  20626894.020       -7357.377        -517.429           0.255  
> 2022 01 01 00 01 10.2688020  0  3                     
G05  23376981.088     -126470.994       -2442.677           0.244  
G10  24320819.963      120450.201        2831.276           0.239  
G18  20626903.896       -7409.125        -520.039           0.255  
> 2022 01 01 00 01 10.3688020  0  3                     
G05  23377029.240     -126714.206       -1610.767           0.244  
G10  24320763.857      120739.005        3544.259           0.239  
G18  20626914.081       -7460.875        -516.960           0.255  
> 2022 01 01 00 01 10.4688020  0  3                     
G05  23377071.633     -126958.619       -2438.374           0.244  
G10  24320710.297                                           0.239  
G18  20626923.280                                           0.255  
> 2022 01 01 00 01 10.6688020  0  3                     
G05  23377166.032     -127446.391       -2407.404           0.244  
G10  24320600.846      121605.402        3106.892           0.239  
G18  20626942.666       -7616.169        -516.790           0.255  
> 2022 01 01 00 01 10.7688020  0  3                     
G05  23377213.063     -127690.268       -2422.246           0.244  
G10  24320545.285      121893.892        2906.151           0.239  
G18  20626953.062       -7667.944        -517.886           0.255  
> 2022 01 01 00 01 10.8688020  0  3                     
G05  23377260.407     -127934.131       -2434.906           0.244  
G10  24320492.526      122182.619        2879.711           0.239  
G18  20626962.786       -7719.726        -518.922           0.255  
> 2022 01 01 00 01 10.9688020  0  3                     
G05  23377307.061     -128177.986       -2420.768           0.244  
G10  24320437.241      122471.395        2909.396           0.239  
G18  20626972.924       -7771.519        -517.396           0.255  
> 2022 01 01 00 01 11.0688020  0  3                     
G05  23377352.450     -128421.507       -1642.944           0.244  
G10  24320382.515      122760.116        2894.584           0.239  
G18  20626982.618       -7823.371        -575.288           0.255  
> 2022 01 01 00 01 11.1688020  0  3                     
G05  23377399.528     -128665.679       -2436.723           0.244  
G10  24320326.872                                           0.239  
G18  20626992.561                                           0.255  
> 2022 01 01 00 01 11.2688020  0  3                     
G05  23377444.449     -128909.563       -2438.199           0.244  
G10  24320272.153                                           0.238  
G18  20627002.297                                           0.255  
> 2022 01 01 00 01 11.3688020  0  3                     
G05  23377489.993                                           0.244  
G10  24320217.280      123638.234        2886.719           0.239  
G18  20627011.486                                           0.255  
> 2022 01 01 00 01 11.4688020  0  3                     
G05  23377537.257     -129397.334       -2370.008           0.244  
G10  24320162.584      123915.056        2686.196           0.239  
G18  20627021.931       -8030.585        -519.255           0.255  
> 2022 01 01 00 01 11.5688020  0  3                     
G05  23377584.368     -129641.223       -2376.548           0.244  
G10  24320107.437      124203.793        2863.604           0.239  
G18  20627031.620       -8082.410        -508.720           0.255  
> 2022 01 01 00 01 11.6688020  0  3                     
G05  23377631.269     -129885.141       -2437.777           0.244  
G10  24320052.175      124492.571        2923.729           0.239  
G18  20627041.558       -8134.254        -517.420           0.255  
> 2022 01 01 00 01 11.7688020  0  3                     
G05  23377677.613                                           0.244  
G10  24319997.080      124781.671        2917.649           0.239  
G18  20627051.510                                           0.255  
> 2022 01 01 00 01 11.8688020  0  3                     
G05  23377723.928                                           0.244  
G10  24319942.845                                           0.239  
G18  20627061.693                                           0.255  
> 2022 01 01 00 01 12.0688020  0  3                     
G05  23377817.852     -130860.710       -2437.998           0.244  
G10  24319831.656      125647.542        2905.803           0.239  
G18  20627081.391       -8341.669        -517.946           0.255  
> 2022 01 01 00 01 12.1688020  0  3                     
G05  23377863.361     -131104.762       -2642.325           0.244  
G10  24319777.159      125936.308        2904.021           0.239  
G18  20627091.340       -8393.542        -518.819           0.255  
> 2022 01 01 00 01 12.2688020  0  3                     
G05  23377909.539     -131348.506       -2437.787           0.244  
G10  24319722.611      126224.982        2789.661           0.239  
G18  20627101.192       -8445.377        -465.208           0.255  
> 2022 01 01 00 01 12.3688020  0  3                     
G05  23377956.321     -131592.413       -2442.392           0.244  
G10  24319667.862      126513.722        2838.035           0.239  
G18  20627110.992       -8497.288        -517.157           0.255  
> 2022 01 01 00 01 12.4688020  0  3                     
G05  23378002.243     -131836.321       -2436.104           0.244  
G10  24319611.975      126802.512        2876.337           0.239  
G18  20627120.707       -8549.191        -527.451           0.255  
> 2022 01 01 00 01 12.5688020  0  3                     
G05  23378049.534     -132080.179       -2436.500           0.244  
G10  24319556.922                                           0.239  
G18  20627130.503                                           0.255  
> 2022 01 01 00 01 12.6688020  0  3                     
G05  23378095.643                                           0.244  
G10  24319502.817      127380.385        2932.112           0.239  
G18  20627139.861                                           0.255  
> 2022 01 01 00 01 12.7688020  0  3                     
G05  23378141.645     -132568.659       -3380.766           0.244  
G10  24319446.091      127668.761        2867.918           0.239  
G18  20627150.347       -8704.913        -516.796           0.255  
> 2022 01 01 00 01 12.8688020  0  3                     
G05  23378187.434     -132811.628       -1610.875           0.244  
G10  24319391.706      127957.994        3330.913           0.239  
G18  20627160.305       -8756.830        -519.829           0.255  
> 2022 01 01 00 01 12.9688020  0  3                     
G05  23378235.085     -133055.838       -2439.842           0.244  
G10  24319337.392                                           0.239  
G18  20627170.219                                           0.255  
> 2022 01 01 00 01 13.0688020  0  3                     
G05  23378280.984     -133299.812       -2440.914           0.243  
G10  24319282.454      128534.863        2361.267           0.239  
G18  20627180.113       -8860.747        -564.858           0.255  
> 2022 01 01 00 01 13.1688020  0  3                     
G05  23378327.817     -133543.731       -2441.094           0.244  
G10  24319227.063      128823.780        2907.543           0.239  
G18  20627189.833       -8912.629        -519.608           0.255  
> 2022 01 01 00 01 13.2688020  0  3                     
G05  23378374.797     -133787.656       -2436.632           0.244  
G10  24319172.786      129112.521        2907.262           0.239  
G18  20627199.485       -8964.574        -515.513           0.255  
> 2022 01 01 00 01 13.3688020  0  3                     
G05  23378421.021     -134031.537       -2438.665           0.244  
G10  24319116.638      129401.612        2877.875           0.239  
G18  20627209.685                                           0.255  
> 2022 01 01 00 01 13.4688020  0  3                     
G05  23378466.986     -134275.462       -1993.985           0.244  
G10  24319063.250      129690.010        2887.146           0.239  
G18  20627219.427       -9068.479        -512.443           0.255  
> 2022 01 01 00 01 13.6688020  0  3                     
G05  23378559.612     -134763.502       -2413.487           0.244  
G10  24318953.593      130267.534        2848.599           0.239  
G18  20627239.599       -9172.425        -520.140           0.255  
> 2022 01 01 00 01 13.7688020  0  3                     
G05  23378605.868     -135007.324       -2440.524           0.244  
G10  24318897.843      130556.307        2887.364           0.239  
G18  20627249.623       -9224.403        -518.699           0.255  
> 2022 01 01 00 01 13.8688020  0  3                     
G05  23378652.150     -135251.327       -2527.229           0.244  
G10  24318844.472      130845.056        2918.643           0.239  
G18  20627259.471       -9276.387        -519.063           0.255  
> 2022 01 01 00 01 13.9688020  0  3                     
G05  23378698.691     -135495.198       -2424.664           0.244  
G10  24318789.218      131133.779        2824.113           0.239  
G18  20627269.168       -9328.377        -519.826           0.255  
> 2022 01 01 00 01 14.0688020  0  3                     
G05  23378745.666     -135739.114       -2436.572           0.244  
G10  24318732.977      131422.910        2906.793           0.239  
