     3.03           OBSERVATION DATA    M: Mixed            RINEX VERSION / TYPE
GNSS-SDRLIB v1.1                        20230913 063928 UTC PGM / RUN BY / DATE 
                                                            MARKER NAME         
                                                            MARKER NUMBER       
                                                            MARKER TYPE         
                                                            OBSERVER / AGENCY   
GNSS-SDRLIB         GNSS-SDRLIB         1.1                 REC # / TYPE / VERS 
                                                            ANT # / TYPE        
        0.0000        0.0000        0.0000                  APPROX POSITION XYZ 
        0.0000        0.0000        0.0000                  ANTENNA: DELTA H/E/N
G    4 C1C L1C D1C S1C                                      SYS / # / OBS TYPES 
R    4 C1C L1C D1C S1C                                      SYS / # / OBS TYPES 
E    4 C1C L1C D1C S1C                                      SYS / # / OBS TYPES 
J    4 C1C L1C D1C S1C                                      SYS / # / OBS TYPES 
S    4 C1C L1C D1C S1C                                      SYS / # / OBS TYPES 
C    4 C1C L1C D1C S1C                                      SYS / # / OBS TYPES 
I    4 C1C L1C D1C S1C                                      SYS / # / OBS TYPES 
  1970    01    01    00    00   00.0000000     GPS         TIME OF FIRST OBS   
  1970    01    01    00    00   00.0000000     GPS         TIME OF LAST OBS    
G L1C                                                       SYS / PHASE SHIFT   
R L1C                                                       SYS / PHASE SHIFT   
E L1C  0.00000                                              SYS / PHASE SHIFT   
J L1C                                                       SYS / PHASE SHIFT   
S L1C                                                       SYS / PHASE SHIFT   
C L1C  0.00000                                              SYS / PHASE SHIFT   
I L1C  0.00000                                              SYS / PHASE SHIFT   
  0                                                         GLONASS SLOT / FRQ #
 C1C    0.000 C1P    0.000 C2C    0.000 C2P    0.000        GLONASS COD/PHS/BIS 
                                                            END OF HEADER       
> 2017 09 21 00 02 00.0688020  0  1                     
G06  20669906.212     -232930.278       -2246.475           0.147  
> 2017 09 21 00 02 00.1688020  0  1                     
G06  20669981.668     -233155.195       -2265.878           0.131  
> 2017 09 21 00 02 00.2688020  0  1                     
G06  20670058.206     -233379.838       -2254.485           0.145  
> 2017 09 21 00 02 00.3688020  0  1                     
G06  20670135.393     -233604.259       -2263.656           0.134  
> 2017 09 21 00 02 00.4688020  0  1                     
G06  20670187.216     -233829.052       -2258.720           0.126  
> 2017 09 21 00 02 00.5688020  0  1                     
G06  20670249.804     -234054.606       -2248.839           0.126  
> 2017 09 21 00 02 00.6688020  0  1                     
G06  20670281.207     -234279.802       -2220.986           0.131  
> 2017 09 21 00 02 00.7688020  0  1                     
G06  20670312.935     -234504.595       -2244.151           0.144  
> 2017 09 21 00 02 00.8688020  0  1                     
G06  20670382.970     -234729.441       -2261.644           0.152  
> 2017 09 21 00 02 00.9688020  0  1                     
G06  20670472.681     -234954.780       -2239.227           0.139  
> 2017 09 21 00 02 01.0688020  0  1                     
G06  20670537.581     -235179.543       -2261.206           0.140  
> 2017 09 21 00 02 01.1688020  0  1                     
G06  20670611.353     -235403.798       -2247.118           0.126  
> 2017 09 21 00 02 01.2688020  0  1                     
G06  20670650.942     -235626.997       -2202.507           0.126  
> 2017 09 21 00 02 01.3688020  0  1                     
G06  20670680.410     -235848.354       -2192.236           0.124  
> 2017 09 21 00 02 01.4688020  0  1                     
G06  20670720.606     -236068.772       -2198.752           0.119  
> 2017 09 21 00 02 01.5688020  0  1                     
G06  20670718.492     -236288.008       -2177.374           0.107  
> 2017 09 21 00 02 01.6688020  0  1                     
G06  20670773.765     -236507.845       -2179.083           0.124  
> 2017 09 21 00 02 01.7688020  0  1                     
G06  20670860.436     -236727.998       -2220.310           0.118  
> 2017 09 21 00 02 01.8688020  0  1                     
G06  20670930.067     -236946.739       -2186.999           0.114  
> 2017 09 21 00 02 01.9688020  0  1                     
G06  20670980.891     -237166.562       -2177.760           0.104  
> 2017 09 21 00 02 02.0688020  0  1                     
G06  20671036.641     -237387.135       -2184.367           0.120  
> 2017 09 21 00 02 02.1688020  0  1                     
G06  20671074.587     -237606.882       -2198.470           0.131  
> 2017 09 21 00 02 02.2688020  0  1                     
G06  20671142.320     -237826.774       -2206.709           0.125  
> 2017 09 21 00 02 02.3688020  0  1                     
G06  20671179.235     -238046.541       -2193.519           0.136  
> 2017 09 21 00 02 02.4688020  0  1                     
G06  20671251.415     -238266.333       -2181.196           0.136  
> 2017 09 21 00 02 02.5688020  0  1                     
G06  20671298.936     -238486.111       -2177.037           0.124  
> 2017 09 21 00 02 02.6688020  0  1                     
G06  20671353.667     -238705.400       -2212.653           0.101  
> 2017 09 21 00 02 02.7688020  0  1                     
G06  20671441.893     -238925.174       -2191.165           0.108  
> 2017 09 21 00 02 02.8688020  0  1                     
G06  20671453.493     -239146.353       -2246.998           0.119  
> 2017 09 21 00 02 02.9688020  0  1                     
G06  20671538.146     -239368.653       -2246.735           0.137  
> 2017 09 21 00 02 03.0688020  0  1                     
G06  20671598.739     -239592.217       -2227.403           0.121  
> 2017 09 21 00 02 03.1688020  0  1                     
G06  20671663.246     -239817.046       -2238.808           0.151  
> 2017 09 21 00 02 03.2688020  0  1                     
G06  20671751.524     -240041.922       -2249.708           0.157  
> 2017 09 21 00 02 03.3688020  0  1                     
G06  20671845.971     -240266.797       -2246.878           0.136  
> 2017 09 21 00 02 03.4688020  0  1                     
G06  20671870.844     -240490.559       -2219.580           0.136  
> 2017 09 21 00 02 03.5688020  0  1                     
G06  20671891.690     -240713.164       -2241.742           0.132  
> 2017 09 21 00 02 03.6688020  0  1                     
G06  20671920.935     -240935.536       -2237.484           0.136  
> 2017 09 21 00 02 03.7688020  0  1                     
G06  20671996.240     -241158.006       -2235.514           0.133  
> 2017 09 21 00 02 03.8688020  0  1                     
G06  20672055.640     -241380.394       -2237.063           0.133  
> 2017 09 21 00 02 03.9688020  0  1                     
G06  20672156.706     -241602.527       -2213.000           0.132  
> 2017 09 21 00 02 04.0688020  0  1                     
G06  20672176.846     -241824.656       -2249.420           0.124  
> 2017 09 21 00 02 04.1688020  0  1                     
G06  20672200.850     -242047.176       -2244.195           0.133  
> 2017 09 21 00 02 04.2688020  0  1                     
G06  20672292.794     -242269.550       -2239.042           0.135  
> 2017 09 21 00 02 04.3688020  0  1                     
G06  20672337.159     -242492.385       -2239.007           0.126  
> 2017 09 21 00 02 04.4688020  0  1                     
G06  20672414.825     -242714.544       -2208.670           0.133  
> 2017 09 21 00 02 04.5688020  0  1                     
G06  20672450.645     -242934.167       -2196.291           0.116  
> 2017 09 21 00 02 04.6688020  0  1                     
G06  20672494.319     -243154.221       -2191.430           0.125  
> 2017 09 21 00 02 04.7688020  0  1                     
G06  20672573.843     -243373.468       -2201.635           0.114  
> 2017 09 21 00 02 04.8688020  0  1                     
G06  20672622.181     -243593.694       -2220.420           0.127  
> 2017 09 21 00 02 04.9688020  0  1                     
G06  20672672.366     -243813.601       -2218.270           0.125  
> 2017 09 21 00 02 05.0688020  0  1                     
G06  20672758.282     -244034.292       -2199.220           0.120  
> 2017 09 21 00 02 05.1688020  0  1                     
G06  20672805.495     -244254.479       -2203.016           0.130  
> 2017 09 21 00 02 05.2688020  0  1                     
G06  20672861.888     -244473.790       -2203.151           0.122  
> 2017 09 21 00 02 05.3688020  0  1                     
G06  20672914.235     -244693.579       -2188.674           0.129  
> 2017 09 21 00 02 05.4688020  0  1                     
G06  20672962.844     -244915.027       -2239.507           0.119  
> 2017 09 21 00 02 05.5688020  0  1                     
G06  20673031.659     -245137.526       -2252.153           0.133  
> 2017 09 21 00 02 05.6688020  0  1                     
G06  20673072.431     -245359.427       -2212.726           0.135  
> 2017 09 21 00 02 05.7688020  0  1                     
G06  20673130.038     -245582.786       -2215.155           0.117  
> 2017 09 21 00 02 05.8688020  0  1                     
G06  20673220.848     -245807.053       -2249.177           0.133  
> 2017 09 21 00 02 05.9688020  0  1                     
G06  20673273.034     -246031.870       -2245.919           0.146  
> 2017 09 21 00 02 06.0688020  0  1                     
G06  20673368.271     -246256.674       -2240.988           0.154  
> 2017 09 21 00 02 06.1688020  0  1                     
G06  20673450.240     -246481.184       -2247.641           0.135  
> 2017 09 21 00 02 06.2688020  0  1                     
G06  20673544.046     -246707.760       -2286.569           0.127  
> 2017 09 21 00 02 06.3688020  0  1                     
G06  20673628.126     -246934.171       -2283.510           0.125  
> 2017 09 21 00 02 06.4688020  0  1                     
G06  20673713.959     -247160.870       -2284.089           0.127  
> 2017 09 21 00 02 06.5688020  0  1                     
G06  20673766.838     -247388.855       -2290.518           0.112  
> 2017 09 21 00 02 06.6688020  0  1                     
G06  20673819.722     -247617.593       -2317.058           0.123  
> 2017 09 21 00 02 06.7688020  0  1                     
G06  20673855.494     -247845.337       -2280.405           0.114  
> 2017 09 21 00 02 06.8688020  0  1                     
G06  20673898.230     -248071.237       -2273.680           0.141  
> 2017 09 21 00 02 06.9688020  0  1                     
G06  20673931.146     -248296.270       -2253.317           0.130  
> 2017 09 21 00 02 07.0688020  0  1                     
G06  20673991.603     -248521.753       -2245.480           0.103  
> 2017 09 21 00 02 07.1688020  0  1                     
G06  20674045.492     -248748.087       -2259.228           0.141  
> 2017 09 21 00 02 07.2688020  0  1                     
G06  20674104.976     -248975.142       -2268.982           0.127  
> 2017 09 21 00 02 07.3688020  0  1                     
G06  20674151.410     -249199.954       -2241.602           0.120  
> 2017 09 21 00 02 07.4688020  0  1                     
G06  20674206.626     -249426.032       -2241.586           0.129  
> 2017 09 21 00 02 07.5688020  0  1                     
G06  20674254.161     -249652.147       -2237.348           0.082  
> 2017 09 21 00 02 07.6688020  0  1                     
G06  20674306.852     -249877.130       -2251.602           0.138  
> 2017 09 21 00 02 07.7688020  0  1                     
G06  20674364.823     -250102.054       -2261.025           0.132  
> 2017 09 21 00 02 07.8688020  0  1                     
G06  20674375.388     -250327.099       -2252.741           0.143  
> 2017 09 21 00 02 07.9688020  0  1                     
G06  20674423.942     -250551.784       -2230.170           0.147  
> 2017 09 21 00 02 08.0688020  0  1                     
G06  20674483.896     -250776.775       -2225.405           0.135  
> 2017 09 21 00 02 08.1688020  0  1                     
G06  20674504.050     -250999.913       -2255.605           0.122  
> 2017 09 21 00 02 08.2688020  0  1                     
G06  20674536.010     -251222.096       -2249.483           0.128  
> 2017 09 21 00 02 08.3688020  0  1                     
G06  20674606.678     -251444.210       -2212.581           0.129  
> 2017 09 21 00 02 08.4688020  0  1                     
G06  20674660.333     -251666.954       -2235.816           0.125  
> 2017 09 21 00 02 08.5688020  0  1                     
G06  20674707.527     -251888.992       -2197.207           0.131  
> 2017 09 21 00 02 08.6688020  0  1                     
G06  20674807.513     -252113.321       -2224.422           0.125  
> 2017 09 21 00 02 08.7688020  0  1                     
G06  20674877.821     -252335.752       -2251.048           0.126  
> 2017 09 21 00 02 08.8688020  0  1                     
G06  20674985.793     -252560.440       -2224.431           0.125  
> 2017 09 21 00 02 08.9688020  0  1                     
G06  20675066.953     -252785.690       -2258.437           0.132  
> 2017 09 21 00 02 09.0688020  0  1                     
G06  20675132.492     -253010.662       -2277.142           0.126  
> 2017 09 21 00 02 09.1688020  0  1                     
G06  20675201.307     -253233.621       -2248.695           0.115  
> 2017 09 21 00 02 09.2688020  0  1                     
G06  20675258.855     -253458.097       -2255.582           0.114  
> 2017 09 21 00 02 09.3688020  0  1                     
G06  20675328.130     -253682.984       -2237.461           0.131  
> 2017 09 21 00 02 09.4688020  0  1                     
G06  20675380.458     -253907.781       -2248.083           0.116  
> 2017 09 21 00 02 09.5688020  0  1                     
G06  20675449.819     -254134.585       -2260.493           0.129  
> 2017 09 21 00 02 09.6688020  0  1                     
G06  20675509.421     -254361.588       -2284.050           0.114  
> 2017 09 21 00 02 09.7688020  0  1                     
G06  20675551.596     -254588.942       -2246.068           0.146  
> 2017 09 21 00 02 09.8688020  0  1                     
G06  20675612.198     -254813.322       -2252.774           0.109  
> 2017 09 21 00 02 09.9688020  0  1                     
G06  20675658.172     -255040.778       -2287.297           0.129  
> 2017 09 21 00 02 10.0688020  0  1                     
G06  20675738.112     -255266.987       -2243.591           0.094  
> 2017 09 21 00 02 10.1688020  0  1                     
G06  20675775.672     -255492.362       -2252.590           0.122  
> 2017 09 21 00 02 10.2688020  0  1                     
G06  20675814.100     -255716.486       -2258.963           0.114  
> 2017 09 21 00 02 10.3688020  0  1                     
G06  20675841.480     -255941.279       -2223.628           0.141  
> 2017 09 21 00 02 10.4688020  0  1                     
G06  20675831.903     -256163.777       -2252.402           0.113  
> 2017 09 21 00 02 10.5688020  0  1                     
G06  20675863.905     -256385.840       -2196.109           0.129  
> 2017 09 21 00 02 10.6688020  0  1                     
G06  20675952.220     -256606.703       -2192.274           0.129  
> 2017 09 21 00 02 10.7688020  0  1                     
G06  20675978.698     -256826.787       -2220.426           0.137  
> 2017 09 21 00 02 10.8688020  0  1                     
G06  20676046.188     -257046.002       -2179.469           0.132  
> 2017 09 21 00 02 10.9688020  0  1                     
G06  20676100.237     -257265.726       -2178.016           0.126  
> 2017 09 21 00 02 11.0688020  0  1                     
G06  20676153.051     -257486.018       -2216.077           0.122  
> 2017 09 21 00 02 11.1688020  0  1                     
G06  20676235.473     -257709.263       -2230.791           0.120  
> 2017 09 21 00 02 11.2688020  0  1                     
G06  20676282.881     -257936.335       -2259.262           0.120  
> 2017 09 21 00 02 11.3688020  0  1                     
G06  20676375.838     -258163.989       -2279.704           0.112  
> 2017 09 21 00 02 11.4688020  0  1                     
G06  20676439.569     -258389.612       -2234.559           0.129  
> 2017 09 21 00 02 11.5688020  0  1                     
G06  20676493.330     -258614.641       -2265.431           0.131  
> 2017 09 21 00 02 11.6688020  0  1                     
G06  20676566.823     -258839.177       -2241.607           0.146  
> 2017 09 21 00 02 11.7688020  0  1                     
G06  20676594.808     -259064.428       -2267.273           0.142  
> 2017 09 21 00 02 11.8688020  0  1                     
G06  20676652.493     -259290.403       -2232.422           0.111  
> 2017 09 21 00 02 11.9688020  0  1                     
G06  20676702.512     -259514.546       -2255.917           0.116  
> 2017 09 21 00 02 12.0688020  0  1                     
G06  20676717.218     -259738.231       -2253.028           0.129  
> 2017 09 21 00 02 12.1688020  0  1                     
G06  20676795.954     -259963.083       -2246.832           0.157  
> 2017 09 21 00 02 12.2688020  0  1                     
G06  20676883.247     -260187.970       -2244.774           0.155  
> 2017 09 21 00 02 12.3688020  0  1                     
G06  20676956.767     -260412.778       -2245.481           0.139  
> 2017 09 21 00 02 12.4688020  0  1                     
G06  20677018.231     -260639.493       -2239.516           0.130  
> 2017 09 21 00 02 12.5688020  0  1                     
G06  20677036.716     -260865.200       -2266.856           0.123  
> 2017 09 21 00 02 12.6688020  0  1                     
G06  20677077.421     -261091.877       -2256.531           0.119  
> 2017 09 21 00 02 12.7688020  0  1                     
G06  20677141.482     -261319.266       -2261.956           0.139  
> 2017 09 21 00 02 12.8688020  0  1                     
G06  20677166.423     -261546.676       -2262.235           0.139  
> 2017 09 21 00 02 12.9688020  0  1                     
G06  20677250.720     -261773.952       -2252.989           0.134  
> 2017 09 21 00 02 13.0688020  0  1                     
G06  20677402.905     -262002.113       -2304.872           0.060  
> 2017 09 21 00 02 13.1688020  0  1                     
G06  20677587.953     -262229.419       -2266.851           0.104  
> 2017 09 21 00 02 13.2688020  0  1                     
G06  20677663.952     -262456.795       -2267.246           0.132  
> 2017 09 21 00 02 13.3688020  0  1                     
G06  20677736.556     -262684.114       -2259.757           0.135  
> 2017 09 21 00 02 13.4688020  0  1                     
G06  20677763.860     -262911.517       -2261.102           0.140  
> 2017 09 21 00 02 13.5688020  0  1                     
G06  20677805.729     -263139.021       -2263.935           0.141  
> 2017 09 21 00 02 13.6688020  0  1                     
G06  20677867.210     -263366.446       -2258.013           0.138  
> 2017 09 21 00 02 13.7688020  0  1                     
G06  20677920.444     -263593.874       -2253.603           0.142  
> 2017 09 21 00 02 13.8688020  0  1                     
G06  20677989.907     -263821.363       -2254.351           0.136  
> 2017 09 21 00 02 13.9688020  0  1                     
G06  20678068.120     -264048.909       -2263.789           0.137  
> 2017 09 21 00 02 14.0688020  0  1                     
G06  20678089.936     -264276.417       -2265.031           0.138  
> 2017 09 21 00 02 14.1688020  0  1                     
G06  20678165.890     -264503.780       -2256.795           0.138  
> 2017 09 21 00 02 14.2688020  0  1                     
G06  20678213.368     -264731.245       -2264.668           0.136  
> 2017 09 21 00 02 14.3688020  0  1                     
G06  20678251.326     -264958.700       -2252.409           0.137  
> 2017 09 21 00 02 14.4688020  0  1                     
G06  20678321.990     -265186.310       -2255.970           0.140  
> 2017 09 21 00 02 14.5688020  0  1                     
G06  20678362.630     -265413.881       -2257.785           0.140  
> 2017 09 21 00 02 14.6688020  0  1                     
G06  20678424.932     -265641.471       -2262.165           0.142  
> 2017 09 21 00 02 14.7688020  0  1                     
G06  20678503.379     -265868.936       -2257.717           0.131  
> 2017 09 21 00 02 14.8688020  0  1                     
G06  20678572.571     -266096.447       -2254.420           0.137  
> 2017 09 21 00 02 14.9688020  0  1                     
G06  20678605.796     -266323.997       -2261.665           0.139  
> 2017 09 21 00 02 15.0688020  0  1                     
G06  20678652.502     -266551.481       -2263.153           0.128  
> 2017 09 21 00 02 15.1688020  0  1                     
G06  20678724.608     -266778.954       -2256.189           0.130  
> 2017 09 21 00 02 15.2688020  0  1                     
G06  20678768.077     -267006.451       -2260.809           0.139  
> 2017 09 21 00 02 15.3688020  0  1                     
G06  20678826.445     -267233.912       -2263.527           0.141  
> 2017 09 21 00 02 15.4688020  0  1                     
G06  20678889.559     -267461.300       -2258.348           0.144  
> 2017 09 21 00 02 15.5688020  0  1                     
G06  20678932.026     -267688.770       -2256.530           0.140  
> 2017 09 21 00 02 15.6688020  0  1                     
G06  20679013.048     -267916.211       -2259.073           0.140  
> 2017 09 21 00 02 15.7688020  0  1                     
G06  20679091.776     -268143.684       -2271.530           0.134  
> 2017 09 21 00 02 15.8688020  0  1                     
G06  20679131.848     -268371.078       -2268.404           0.134  
> 2017 09 21 00 02 15.9688020  0  1                     
G06  20679196.445     -268598.539       -2263.117           0.136  
> 2017 09 21 00 02 16.0688020  0  1                     
G06  20679223.985     -268825.986       -2257.834           0.130  
> 2017 09 21 00 02 16.1688020  0  1                     
G06  20679279.049     -269053.531       -2252.590           0.136  
> 2017 09 21 00 02 16.2688020  0  1                     
G06  20679342.880     -269281.039       -2254.458           0.142  
> 2017 09 21 00 02 16.3688020  0  1                     
G06  20679383.631     -269508.516       -2260.077           0.136  
> 2017 09 21 00 02 16.4688020  0  1                     
G06  20679441.862     -269735.847       -2259.766           0.145  
> 2017 09 21 00 02 16.5688020  0  1                     
G06  20679522.401     -269963.367       -2261.571           0.137  
> 2017 09 21 00 02 16.6688020  0  1                     
G06  20679595.137     -270190.837       -2262.615           0.138  
> 2017 09 21 00 02 16.7688020  0  1                     
G06  20679642.939     -270418.252       -2259.829           0.137  
> 2017 09 21 00 02 16.8688020  0  1                     
G06  20679687.860     -270645.714       -2257.166           0.132  
> 2017 09 21 00 02 16.9688020  0  1                     
G06  20679761.418     -270873.291       -2270.264           0.135  
> 2017 09 21 00 02 17.0688020  0  1                     
G06  20679808.986     -271100.729       -2258.778           0.140  
> 2017 09 21 00 02 17.1688020  0  1                     
G06  20679858.244     -271328.303       -2262.958           0.142  
> 2017 09 21 00 02 17.2688020  0  1                     
G06  20679925.155     -271555.834       -2257.561           0.143  
> 2017 09 21 00 02 17.3688020  0  1                     
G06  20679951.369     -271783.436       -2262.469           0.140  
> 2017 09 21 00 02 17.4688020  0  1                     
G06  20680034.249     -272010.873       -2257.267           0.138  
> 2017 09 21 00 02 17.5688020  0  1                     
G06  20680115.477     -272238.384       -2261.970           0.135  
> 2017 09 21 00 02 17.6688020  0  1                     
G06  20680163.332     -272465.859       -2265.460           0.136  
> 2017 09 21 00 02 17.7688020  0  1                     
G06  20680224.573     -272693.339       -2267.448           0.136  
> 2017 09 21 00 02 17.8688020  0  1                     
G06  20680249.245     -272920.792       -2259.973           0.128  
> 2017 09 21 00 02 17.9688020  0  1                     
G06  20680311.659     -273148.279       -2257.716           0.136  
> 2017 09 21 00 02 18.0688020  0  1                     
G06  20680372.157     -273375.776       -2259.289           0.144  
> 2017 09 21 00 02 18.1688020  0  1                     
G06  20680413.264     -273603.313       -2262.408           0.136  
> 2017 09 21 00 02 18.2688020  0  1                     
G06  20680467.491     -273830.751       -2263.672           0.141  
> 2017 09 21 00 02 18.3688020  0  1                     
G06  20680552.324     -274058.239       -2254.926           0.136  
> 2017 09 21 00 02 18.4688020  0  1                     
G06  20680623.790     -274285.735       -2263.945           0.141  
> 2017 09 21 00 02 18.5688020  0  1                     
G06  20680669.826     -274513.224       -2259.345           0.137  
> 2017 09 21 00 02 18.6688020  0  1                     
G06  20680718.859     -274740.710       -2260.502           0.133  
> 2017 09 21 00 02 18.7688020  0  1                     
G06  20680782.202     -274968.305       -2259.052           0.130  
> 2017 09 21 00 02 18.8688020  0  1                     
G06  20680831.756     -275195.721       -2257.103           0.136  
> 2017 09 21 00 02 18.9688020  0  1                     
G06  20680880.578     -275423.269       -2254.680           0.140  
> 2017 09 21 00 02 19.0688020  0  1                     
G06  20680952.892     -275650.756       -2258.430           0.141  
> 2017 09 21 00 02 19.1688020  0  1                     
G06  20680970.167     -275878.264       -2263.563           0.140  
> 2017 09 21 00 02 19.2688020  0  1                     
G06  20681050.435     -276105.600       -2252.529           0.138  
> 2017 09 21 00 02 19.3688020  0  1                     
G06  20681117.761     -276333.244       -2259.478           0.133  
> 2017 09 21 00 02 19.4688020  0  1                     
G06  20681180.088     -276560.663       -2260.745           0.137  
> 2017 09 21 00 02 19.5688020  0  1                     
G06  20681248.299     -276788.120       -2259.796           0.135  
> 2017 09 21 00 02 19.6688020  0  1                     
G06  20681293.862     -277015.639       -2257.394           0.127  
> 2017 09 21 00 02 19.7688020  0  1                     
G06  20681343.787     -277243.017       -2259.728           0.138  
> 2017 09 21 00 02 19.8688020  0  1                     
G06  20681403.332     -277470.375       -2256.321           0.142  
> 2017 09 21 00 02 19.9688020  0  1                     
G06  20681439.785     -277697.828       -2260.038           0.143  
> 2017 09 21 00 02 20.0688020  0  1                     
G06  20681495.731     -277925.294       -2262.712           0.142  
> 2017 09 21 00 02 20.1688020  0  1                     
G06  20681579.720     -278152.756       -2264.219           0.137  
> 2017 09 21 00 02 20.2688020  0  1                     
G06  20681651.125     -278380.094       -2261.619           0.135  
> 2017 09 21 00 02 20.3688020  0  1                     
G06  20681696.828     -278607.546       -2254.026           0.133  
> 2017 09 21 00 02 20.4688020  0  1                     
G06  20681742.212     -278835.095       -2258.612           0.134  
> 2017 09 21 00 02 20.5688020  0  1                     
G06  20681817.210     -279062.589       -2264.285           0.140  
> 2017 09 21 00 02 20.6688020  0  1                     
G06  20681855.107     -279290.094       -2263.785           0.138  
> 2017 09 21 00 02 20.7688020  0  1                     
G06  20681903.401     -279517.666       -2264.918           0.143  
> 2017 09 21 00 02 20.8688020  0  1                     
G06  20681977.971     -279745.171       -2261.356           0.144  
> 2017 09 21 00 02 20.9688020  0  1                     
G06  20682007.375     -279972.724       -2255.866           0.140  
> 2017 09 21 00 02 21.0688020  0  1                     
G06  20682081.839     -280200.317       -2258.729           0.141  
> 2017 09 21 00 02 21.1688020  0  1                     
G06  20682143.742     -280427.805       -2254.877           0.135  
> 2017 09 21 00 02 21.2688020  0  1                     
G06  20682224.969     -280655.289       -2257.175           0.137  
> 2017 09 21 00 02 21.3688020  0  1                     
G06  20682272.302     -280882.914       -2263.078           0.137  
> 2017 09 21 00 02 21.4688020  0  1                     
G06  20682314.824     -281110.331       -2256.769           0.132  
> 2017 09 21 00 02 21.5688020  0  1                     
G06  20682373.925     -281337.802       -2248.645           0.133  
> 2017 09 21 00 02 21.6688020  0  1                     
G06  20682423.336     -281565.309       -2248.031           0.137  
> 2017 09 21 00 02 21.7688020  0  1                     
G06  20682468.134     -281792.831       -2261.857           0.139  
> 2017 09 21 00 02 21.8688020  0  1                     
G06  20682522.817     -282020.369       -2270.804           0.142  
> 2017 09 21 00 02 21.9688020  0  1                     
G06  20682602.102     -282247.829       -2263.969           0.139  
> 2017 09 21 00 02 22.0688020  0  1                     
G06  20682675.306     -282475.413       -2267.237           0.134  
> 2017 09 21 00 02 22.1688020  0  1                     
G06  20682727.357     -282702.864       -2267.215           0.132  
> 2017 09 21 00 02 22.2688020  0  1                     
G06  20682775.068     -282930.273       -2262.994           0.135  
> 2017 09 21 00 02 22.3688020  0  1                     
G06  20682843.022     -283157.956       -2272.138           0.136  
> 2017 09 21 00 02 22.4688020  0  1                     
G06  20682897.109     -283385.369       -2263.726           0.134  
> 2017 09 21 00 02 22.5688020  0  1                     
G06  20682935.409     -283612.910       -2263.866           0.142  
> 2017 09 21 00 02 22.6688020  0  1                     
G06  20682999.802     -283840.476       -2260.167           0.142  
> 2017 09 21 00 02 22.7688020  0  1                     
G06  20683039.757     -284067.880       -2254.709           0.138  
> 2017 09 21 00 02 22.8688020  0  1                     
G06  20683101.431     -284295.410       -2266.854           0.140  
> 2017 09 21 00 02 22.9688020  0  1                     
G06  20683180.605     -284522.934       -2269.110           0.135  
> 2017 09 21 00 02 23.0688020  0  1                     
G06  20683253.056     -284750.331       -2249.875           0.135  
> 2017 09 21 00 02 23.1688020  0  1                     
G06  20683316.300     -284978.042       -2261.876           0.137  
> 2017 09 21 00 02 23.2688020  0  1                     
G06  20683339.244     -285205.487       -2258.125           0.132  
> 2017 09 21 00 02 23.3688020  0  1                     
G06  20683398.026     -285433.063       -2256.805           0.134  
> 2017 09 21 00 02 23.4688020  0  1                     
G06  20683451.818     -285660.590       -2265.772           0.141  
> 2017 09 21 00 02 23.5688020  0  1                     
G06  20683500.955     -285888.163       -2262.131           0.139  
> 2017 09 21 00 02 23.6688020  0  1                     
G06  20683556.070     -286115.638       -2263.659           0.143  
> 2017 09 21 00 02 23.7688020  0  1                     
G06  20683626.629     -286343.149       -2258.545           0.141  
> 2017 09 21 00 02 23.8688020  0  1                     
G06  20683703.192     -286570.656       -2253.500           0.138  
> 2017 09 21 00 02 23.9688020  0  1                     
G06  20683772.537     -286798.197       -2258.625           0.136  
> 2019 07 18 00 02 24.0688020  0  1                     
G06  20683820.241     -287025.710       -2258.711           0.136  
> 2019 07 18 00 02 24.1688020  0  1                     
G06  20683878.003     -287253.238       -2259.924           0.139  
> 2019 07 18 00 02 24.2688020  0  1                     
G06  20683913.316     -287480.744       -2265.124           0.135  
> 2019 07 18 00 02 24.3688020  0  1                     
G06  20683965.616     -287708.238       -2261.662           0.140  
> 2019 07 18 00 02 24.4688020  0  1                     
G06  20684028.030     -287935.827       -2263.993           0.142  
> 2019 07 18 00 02 24.5688020  0  1                     
G06  20684069.418     -288163.441       -2264.623           0.141  
> 2019 07 18 00 02 24.6688020  0  1                     
G06  20684128.125     -288391.020       -2261.452           0.137  
> 2019 07 18 00 02 24.7688020  0  1                     
G06  20684198.372     -288618.588       -2263.700           0.138  
> 2019 07 18 00 02 24.8688020  0  1                     
G06  20684278.122     -288846.180       -2264.453           0.138  
> 2019 07 18 00 02 24.9688020  0  1                     
G06  20684334.241     -289073.841       -2270.302           0.139  
> 2019 07 18 00 02 25.0688020  0  1                     
G06  20684361.102     -289301.436       -2260.167           0.126  
> 2019 07 18 00 02 25.1688020  0  1                     
G06  20684419.486     -289528.895       -2263.855           0.137  
> 2019 07 18 00 02 25.2688020  0  1                     
G06  20684478.092     -289756.314       -2263.547           0.140  
> 2019 07 18 00 02 25.3688020  0  1                     
G06  20684486.302     -289984.093       -2254.572           0.121  
> 2019 07 18 00 02 25.4688020  0  1                     
G06  20684541.299     -290209.466       -2274.110           0.098  
> 2019 07 18 00 02 25.5688020  0  1                     
G06  20684588.186     -290434.507       -2225.128           0.126  
> 2019 07 18 00 02 25.6688020  0  1                     
G06  20684636.502     -290659.380       -2265.178           0.139  
> 2019 07 18 00 02 25.7688020  0  1                     
G06  20684690.110     -290884.303       -2257.212           0.146  
> 2019 07 18 00 02 25.8688020  0  1                     
G06  20684736.070     -291109.168       -2248.282           0.142  
> 2019 07 18 00 02 25.9688020  0  1                     
G06  20684798.403     -291334.033       -2234.764           0.143  
> 2019 07 18 00 02 26.0688020  0  1                     
G06  20684847.845     -291559.266       -2248.100           0.129  
> 2019 07 18 00 02 26.1688020  0  1                     
G06  20684909.912     -291784.233       -2254.179           0.141  
> 2019 07 18 00 02 26.2688020  0  1                     
G06  20684969.791     -292009.026       -2268.551           0.137  
> 2019 07 18 00 02 26.3688020  0  1                     
G06  20685023.318     -292234.082       -2254.708           0.155  
> 2019 07 18 00 02 26.4688020  0  1                     
G06  20685092.335     -292459.084       -2250.749           0.162  
> 2019 07 18 00 02 26.5688020  0  1                     
G06  20685157.627     -292684.153       -2254.441           0.157  
> 2019 07 18 00 02 26.6688020  0  1                     
G06  20685220.385     -292909.113       -2249.281           0.165  
> 2019 07 18 00 02 26.7688020  0  1                     
G06  20685283.811     -293134.019       -2247.001           0.159  
> 2019 07 18 00 02 26.8688020  0  1                     
G06  20685329.520     -293359.072       -2250.475           0.157  
> 2019 07 18 00 02 26.9688020  0  1                     
G06  20685384.823     -293584.092       -2245.922           0.165  
> 2019 07 18 00 02 27.0688020  0  1                     
G06  20685431.508     -293809.104       -2248.097           0.161  
> 2019 07 18 00 02 27.1688020  0  1                     
G06  20685491.414     -294034.157       -2253.068           0.163  
> 2019 07 18 00 02 27.2688020  0  1                     
G06  20685562.991     -294259.139       -2251.682           0.169  
> 2019 07 18 00 02 27.3688020  0  1                     
G06  20685619.244     -294484.168       -2248.538           0.151  
> 2019 07 18 00 02 27.4688020  0  1                     
G06  20685688.186     -294709.249       -2256.070           0.166  
> 2019 07 18 00 02 27.5688020  0  1                     
G06  20685746.505     -294934.353       -2250.947           0.159  
> 2019 07 18 00 02 27.6688020  0  1                     
G06  20685798.412     -295159.489       -2248.940           0.164  
> 2019 07 18 00 02 27.7688020  0  1                     
G06  20685858.685     -295384.569       -2250.328           0.163  
> 2019 07 18 00 02 27.8688020  0  1                     
G06  20685910.911     -295609.695       -2254.054           0.153  
> 2019 07 18 00 02 27.9688020  0  1                     
G06  20685964.143     -295834.758       -2248.315           0.169  
> 2019 07 18 00 02 28.0688020  0  1                     
G06  20686015.054     -296059.847       -2251.635           0.161  
> 2019 07 18 00 02 28.1688020  0  1                     
G06  20686065.976     -296284.968       -2248.146           0.162  
> 2019 07 18 00 02 28.2688020  0  1                     
G06  20686135.297     -296510.069       -2252.431           0.165  
> 2019 07 18 00 02 28.3688020  0  1                     
G06  20686195.369     -296735.181       -2251.997           0.153  
> 2019 07 18 00 02 28.4688020  0  1                     
G06  20686261.566     -296960.225       -2251.896           0.166  
> 2019 07 18 00 02 28.5688020  0  1                     
G06  20686316.249     -297185.225       -2248.951           0.158  
> 2019 07 18 00 02 28.6688020  0  1                     
G06  20686362.349     -297410.355       -2252.146           0.160  
> 2019 07 18 00 02 28.7688020  0  1                     
G06  20686421.481     -297635.428       -2252.058           0.164  
> 2019 07 18 00 02 28.8688020  0  1                     
G06  20686465.301     -297860.526       -2245.750           0.159  
> 2019 07 18 00 02 28.9688020  0  1                     
G06  20686520.763     -298085.712       -2254.419           0.164  
> 2019 07 18 00 02 29.0688020  0  1                     
G06  20686584.093     -298310.710       -2249.547           0.168  
> 2019 07 18 00 02 29.1688020  0  1                     
G06  20686638.332     -298535.743       -2246.864           0.150  
> 2019 07 18 00 02 29.2688020  0  1                     
G06  20686707.172     -298760.835       -2249.567           0.164  
> 2019 07 18 00 02 29.3688020  0  1                     
G06  20686763.223     -298985.929       -2248.512           0.159  
> 2019 07 18 00 02 29.4688020  0  1                     
G06  20686815.218     -299210.998       -2248.241           0.160  
> 2019 07 18 00 02 29.5688020  0  1                     
G06  20686875.983     -299436.136       -2249.497           0.164  
> 2019 07 18 00 02 29.6688020  0  1                     
G06  20686930.382     -299661.258       -2248.494           0.151  
> 2019 07 18 00 02 29.7688020  0  1                     
G06  20686986.870     -299886.382       -2256.401           0.167  
> 2019 07 18 00 02 29.8688020  0  1                     
G06  20687037.845     -300111.461       -2252.467           0.161  
> 2019 07 18 00 02 29.9688020  0  1                     
G06  20687092.791     -300336.596       -2249.886           0.161  
> 2019 07 18 00 02 30.0688020  0  1                     
G06  20687166.544     -300561.843       -2252.801           0.165  
> 2019 07 18 00 02 30.1688020  0  1                     
G06  20687225.448     -300786.951       -2251.928           0.152  
> 2019 07 18 00 02 30.2688020  0  1                     
G06  20687285.005     -301012.077       -2251.948           0.168  
> 2019 07 18 00 02 30.3688020  0  1                     
G06  20687343.051     -301237.224       -2250.570           0.158  
> 2019 07 18 00 02 30.4688020  0  1                     
G06  20687393.292     -301462.459       -2242.310           0.125  
> 2019 07 18 00 02 30.5688020  0  1                     
G06  20687449.477     -301687.552       -2255.282           0.140  
> 2019 07 18 00 02 30.6688020  0  1                     
G06  20687499.574     -301912.680       -2261.463           0.134  
> 2019 07 18 00 02 30.7688020  0  1                     
G06  20687555.169     -302137.569       -2256.169           0.159  
> 2019 07 18 00 02 30.8688020  0  1                     
G06  20687617.503     -302362.557       -2251.354           0.165  
> 2019 07 18 00 02 30.9688020  0  1                     
G06  20687667.359     -302587.688       -2253.196           0.153  
> 2019 07 18 00 02 31.0688020  0  1                     
G06  20687737.072     -302812.717       -2254.760           0.158  
> 2019 07 18 00 02 31.1688020  0  1                     
G06  20687784.844     -303037.861       -2264.479           0.144  
> 2019 07 18 00 02 31.2688020  0  1                     
G06  20687834.184     -303262.915       -2252.584           0.158  
> 2019 07 18 00 02 31.3688020  0  1                     
G06  20687885.040     -303488.028       -2253.476           0.153  
> 2019 07 18 00 02 31.4688020  0  1                     
G06  20687941.730     -303713.094       -2255.027           0.143  
> 2019 07 18 00 02 31.5688020  0  1                     
G06  20687993.359     -303938.272       -2261.407           0.159  
> 2019 07 18 00 02 31.6688020  0  1                     
G06  20688051.387     -304163.368       -2254.660           0.149  
> 2019 07 18 00 02 31.7688020  0  1                     
G06  20688096.901     -304388.471       -2254.059           0.153  
> 2019 07 18 00 02 31.8688020  0  1                     
G06  20688173.985     -304613.662       -2251.553           0.148  
> 2019 07 18 00 02 31.9688020  0  1                     
G06  20688241.216     -304838.910       -2244.407           0.141  
> 2019 07 18 00 02 32.0688020  0  1                     
G06  20688304.404     -305064.181       -2250.826           0.164  
> 2019 07 18 00 02 32.1688020  0  1                     
G06  20688360.500     -305289.475       -2251.779           0.159  
> 2019 07 18 00 02 32.2688020  0  1                     
G06  20688416.299     -305514.823       -2252.277           0.151  
> 2019 07 18 00 02 32.3688020  0  1                     
G06  20688478.057     -305740.009       -2247.407           0.158  
> 2019 07 18 00 02 32.4688020  0  1                     
G06  20688535.661     -305965.153       -2251.016           0.157  
> 2019 07 18 00 02 32.5688020  0  1                     
G06  20688594.337     -306190.347       -2249.344           0.169  
> 2019 07 18 00 02 32.6688020  0  1                     
G06  20688651.600     -306415.611       -2253.156           0.162  
> 2019 07 18 00 02 32.7688020  0  1                     
G06  20688697.033     -306640.798       -2249.319           0.155  
> 2019 07 18 00 02 32.8688020  0  1                     
G06  20688773.907     -306865.888       -2253.401           0.151  
> 2019 07 18 00 02 32.9688020  0  1                     
G06  20688828.663     -307091.154       -2256.834           0.154  
> 2019 07 18 00 02 33.0688020  0  1                     
G06  20688886.762     -307316.282       -2251.050           0.164  
> 2019 07 18 00 02 33.1688020  0  1                     
G06  20688942.991     -307541.473       -2251.797           0.159  
> 2019 07 18 00 02 33.2688020  0  1                     
G06  20688990.859     -307766.638       -2251.380           0.155  
> 2019 07 18 00 02 33.3688020  0  1                     
G06  20689039.998     -307991.878       -2254.917           0.167  
> 2019 07 18 00 02 33.4688020  0  1                     
G06  20689091.100     -308217.173       -2258.725           0.145  
> 2019 07 18 00 02 33.5688020  0  1                     
G06  20689143.964     -308442.397       -2258.648           0.157  
> 2019 07 18 00 02 33.6688020  0  1                     
G06  20689216.469     -308667.557       -2250.866           0.164  
> 2019 07 18 00 02 33.7688020  0  1                     
G06  20689274.319     -308892.769       -2253.015           0.149  
> 2019 07 18 00 02 33.8688020  0  1                     
G06  20689338.053     -309117.928       -2254.000           0.167  
> 2019 07 18 00 02 33.9688020  0  1                     
G06  20689389.051     -309343.129       -2258.979           0.157  
> 2019 07 18 00 02 34.0688020  0  1                     
G06  20689443.603     -309568.272       -2261.017           0.144  
> 2019 07 18 00 02 34.1688020  0  1                     
G06  20689506.219     -309793.645       -2250.734           0.154  
> 2019 07 18 00 02 34.2688020  0  1                     
G06  20689556.963     -310018.959       -2254.740           0.156  
> 2019 07 18 00 02 34.3688020  0  1                     
G06  20689616.828     -310244.221       -2254.592           0.168  
> 2019 07 18 00 02 34.4688020  0  1                     
G06  20689680.524     -310469.504       -2252.942           0.164  
> 2019 07 18 00 02 34.5688020  0  1                     
G06  20689727.861     -310694.829       -2262.267           0.142  
> 2019 07 18 00 02 34.6688020  0  1                     
G06  20689802.518     -310919.994       -2260.802           0.151  
> 2019 07 18 00 02 34.7688020  0  1                     
G06  20689856.307     -311145.192       -2255.744           0.151  
> 2019 07 18 00 02 34.8688020  0  1                     
G06  20689919.221     -311370.307       -2251.009           0.151  
> 2019 07 18 00 02 34.9688020  0  1                     
G06  20689977.063     -311595.532       -2259.823           0.145  
> 2019 07 18 00 02 35.0688020  0  1                     
G06  20690022.546     -311820.734       -2254.044           0.150  
> 2019 07 18 00 02 35.1688020  0  1                     
G06  20690077.135     -312045.923       -2248.498           0.165  
> 2019 07 18 00 02 35.2688020  0  1                     
G06  20690117.105     -312271.097       -2247.317           0.153  
> 2019 07 18 00 02 35.3688020  0  1                     
G06  20690173.724     -312496.200       -2252.204           0.162  
> 2019 07 18 00 02 35.4688020  0  1                     
G06  20690250.139     -312721.377       -2245.287           0.165  
> 2019 07 18 00 02 35.5688020  0  1                     
G06  20690308.666     -312946.642       -2248.609           0.148  
> 2019 07 18 00 02 35.6688020  0  1                     
G06  20690375.041     -313171.749       -2248.342           0.166  
> 2019 07 18 00 02 35.7688020  0  1                     
G06  20690431.566     -313396.889       -2250.683           0.150  
> 2019 07 18 00 02 35.8688020  0  1                     
G06  20690480.900     -313621.826       -2248.326           0.156  
> 2019 07 18 00 02 35.9688020  0  1                     
G06  20690550.543     -313846.932       -2254.969           0.164  
> 2019 07 18 00 02 36.0688020  0  1                     
G06  20690596.744     -314071.965       -2253.857           0.157  
> 2019 07 18 00 02 36.1688020  0  1                     
G06  20690653.522     -314297.153       -2251.368           0.161  
> 2019 07 18 00 02 36.2688020  0  1                     
G06  20690697.345     -314522.205       -2252.334           0.160  
> 2019 07 18 00 02 36.3688020  0  1                     
G06  20690754.111     -314747.289       -2252.366           0.144  
> 2019 07 18 00 02 36.4688020  0  1                     
G06  20690825.818     -314972.380       -2249.135           0.153  
> 2019 07 18 00 02 36.5688020  0  1                     
G06  20690887.616     -315197.546       -2245.795           0.147  
> 2019 07 18 00 02 36.6688020  0  1                     
G06  20690955.295     -315422.593       -2244.565           0.154  
> 2019 07 18 00 02 36.7688020  0  1                     
G06  20691003.658     -315647.825       -2245.625           0.151  
> 2019 07 18 00 02 36.8688020  0  1                     
G06  20691049.924     -315873.059       -2251.591           0.161  
> 2019 07 18 00 02 36.9688020  0  1                     
G06  20691104.955     -316098.221       -2253.693           0.168  
> 2019 07 18 00 02 37.0688020  0  1                     
G06  20691145.770     -316323.407       -2255.682           0.151  
> 2019 07 18 00 02 37.1688020  0  1                     
G06  20691200.023     -316548.603       -2252.026           0.158  
> 2019 07 18 00 02 37.2688020  0  1                     
G06  20691259.900     -316773.795       -2252.460           0.161  
> 2019 07 18 00 02 37.3688020  0  1                     
G06  20691327.946     -316998.956       -2259.782           0.134  
> 2019 07 18 00 02 37.4688020  0  1                     
G06  20691397.960     -317224.128       -2267.238           0.154  
> 2019 07 18 00 02 37.5688020  0  1                     
G06  20691457.695     -317449.252       -2243.317           0.148  
> 2019 07 18 00 02 37.6688020  0  1                     
G06  20691507.539     -317674.558       -2251.941           0.165  
> 2019 07 18 00 02 37.7688020  0  1                     
G06  20691570.433     -317899.731       -2239.966           0.162  
> 2019 07 18 00 02 37.8688020  0  1                     
G06  20691627.276     -318125.113       -2252.277           0.146  
> 2019 07 18 00 02 37.9688020  0  1                     
G06  20691689.502     -318350.271       -2248.253           0.168  
> 2019 07 18 00 02 38.0688020  0  1                     
G06  20691744.596     -318575.586       -2251.981           0.160  
> 2019 07 18 00 02 38.1688020  0  1                     
G06  20691806.362     -318800.812       -2261.785           0.151  
> 2019 07 18 00 02 38.2688020  0  1                     
G06  20691870.869     -319025.945       -2248.721           0.135  
> 2019 07 18 00 02 38.3688020  0  1                     
G06  20691911.290     -319251.282       -2246.227           0.154  
> 2019 07 18 00 02 38.4688020  0  1                     
G06  20691970.107     -319476.439       -2240.419           0.150  
> 2019 07 18 00 02 38.5688020  0  1                     
G06  20692015.126     -319701.749       -2241.876           0.136  
> 2019 07 18 00 02 38.6688020  0  1                     
G06  20692069.632     -319927.009       -2251.547           0.149  
> 2019 07 18 00 02 38.7688020  0  1                     
G06  20692124.820     -320152.392       -2261.651           0.155  
> 2019 07 18 00 02 38.8688020  0  1                     
G06  20692168.797     -320377.663       -2253.202           0.150  
> 2019 07 18 00 02 38.9688020  0  1                     
G06  20692224.027     -320603.006       -2261.541           0.158  
> 2019 07 18 00 02 39.0688020  0  1                     
G06  20692297.642     -320828.161       -2264.815           0.151  
> 2019 07 18 00 02 39.1688020  0  1                     
G06  20692351.259     -321053.462       -2259.412           0.138  
> 2019 07 18 00 02 39.2688020  0  1                     
G06  20692410.952     -321278.693       -2238.809           0.144  
> 2019 07 18 00 02 39.3688020  0  1                     
G06  20692470.080     -321504.040       -2268.338           0.120  
> 2019 07 18 00 02 39.4688020  0  1                     
G06  20692530.811     -321729.397       -2249.590           0.154  
> 2019 07 18 00 02 39.5688020  0  1                     
G06  20692597.648     -321954.702       -2245.765           0.154  
> 2019 07 18 00 02 39.6688020  0  1                     
G06  20692654.500     -322180.061       -2250.498           0.161  
> 2019 07 18 00 02 39.7688020  0  1                     
G06  20692715.448     -322405.388       -2250.872           0.163  
> 2019 07 18 00 02 39.8688020  0  1                     
G06  20692762.511     -322630.705       -2250.017           0.154  
> 2019 07 18 00 02 39.9688020  0  1                     
G06  20692811.244     -322855.956       -2255.263           0.155  
> 2019 07 18 00 02 40.0688020  0  1                     
G06  20692882.453     -323081.273       -2253.638           0.153  
> 2019 07 18 00 02 40.1688020  0  1                     
G06  20692941.089     -323306.725       -2252.728           0.151  
> 2019 07 18 00 02 40.2688020  0  1                     
G06  20693009.285     -323531.834       -2245.515           0.157  
> 2019 07 18 00 02 40.3688020  0  1                     
G06  20693056.027     -323756.097       -2230.271           0.139  
> 2019 07 18 00 02 40.4688020  0  1                     
G06  20693105.125     -323981.739       -2250.593           0.150  
> 2019 07 18 00 02 40.5688020  0  1                     
G06  20693158.709     -324207.115       -2260.408           0.152  
> 2019 07 18 00 02 40.6688020  0  1                     
G06  20693194.169     -324432.413       -2270.742           0.134  
> 2019 07 18 00 02 40.7688020  0  1                     
G06  20693256.376     -324658.336       -2255.121           0.140  
> 2019 07 18 00 02 40.8688020  0  1                     
G06  20693327.296     -324883.613       -2261.769           0.161  
> 2019 07 18 00 02 40.9688020  0  1                     
G06  20693379.748     -325108.955       -2273.457           0.129  
> 2019 07 18 00 02 41.0688020  0  1                     
G06  20693443.537     -325334.248       -2267.566           0.152  
> 2019 07 18 00 02 41.1688020  0  1                     
G06  20693494.154     -325559.580       -2253.690           0.147  
> 2019 07 18 00 02 41.2688020  0  1                     
G06  20693550.982     -325784.861       -2261.781           0.151  
> 2019 07 18 00 02 41.3688020  0  1                     
G06  20693613.139     -326010.249       -2258.965           0.159  
> 2019 07 18 00 02 41.4688020  0  1                     
G06  20693672.492     -326235.599       -2257.952           0.149  
> 2019 07 18 00 02 41.5688020  0  1                     
G06  20693730.440     -326460.963       -2252.073           0.162  
> 2019 07 18 00 02 41.6688020  0  1                     
G06  20693793.549     -326686.313       -2260.380           0.149  
> 2019 07 18 00 02 41.7688020  0  1                     
G06  20693862.929     -326911.509       -2264.991           0.142  
> 2019 07 18 00 02 41.8688020  0  1                     
G06  20693936.505     -327136.260       -2255.729           0.113  
> 2019 07 18 00 02 41.9688020  0  1                     
G06  20693990.774     -327361.699       -2241.264           0.136  
> 2019 07 18 00 02 42.0688020  0  1                     
G06  20694050.210     -327587.315       -2254.719           0.144  
> 2019 07 18 00 02 42.1688020  0  1                     
G06  20694099.224     -327812.641       -2254.248           0.150  
> 2019 07 18 00 02 42.2688020  0  1                     
G06  20694147.748     -328038.109       -2257.896           0.168  
> 2019 07 18 00 02 42.3688020  0  1                     
G06  20694199.230     -328263.456       -2255.537           0.165  
> 2019 07 18 00 02 42.4688020  0  1                     
G06  20694243.761     -328488.916       -2250.311           0.154  
> 2019 07 18 00 02 42.5688020  0  1                     
G06  20694307.995     -328714.239       -2255.948           0.162  
> 2019 07 18 00 02 42.6688020  0  1                     
G06  20694377.194     -328939.636       -2254.138           0.152  
> 2019 07 18 00 02 42.7688020  0  1                     
G06  20694429.896     -329165.085       -2248.067           0.152  
> 2019 07 18 00 02 42.8688020  0  1                     
G06  20694492.520     -329390.613       -2260.723           0.166  
> 2019 07 18 00 02 42.9688020  0  1                     
G06  20694542.234     -329616.066       -2256.966           0.152  
> 2019 07 18 00 02 43.0688020  0  1                     
G06  20694600.040     -329841.477       -2257.579           0.157  
> 2019 07 18 00 02 43.1688020  0  1                     
G06  20694651.291     -330066.852       -2253.574           0.147  
> 2019 07 18 00 02 43.2688020  0  1                     
G06  20694704.585     -330292.270       -2252.292           0.154  
> 2019 07 18 00 02 43.3688020  0  1                     
G06  20694763.457     -330517.521       -2245.710           0.153  
> 2019 07 18 00 02 43.4688020  0  1                     
G06  20694815.245     -330742.826       -2249.096           0.151  
> 2019 07 18 00 02 43.5688020  0  1                     
G06  20694877.061     -330968.243       -2257.508           0.149  
> 2019 07 18 00 02 43.6688020  0  1                     
G06  20694946.453     -331193.549       -2251.068           0.151  
> 2019 07 18 00 02 43.7688020  0  1                     
G06  20695001.149     -331418.893       -2254.650           0.152  
> 2019 07 18 00 02 43.8688020  0  1                     
G06  20695067.416     -331644.300       -2255.787           0.161  
> 2019 07 18 00 02 43.9688020  0  1                     
G06  20695112.007     -331869.673       -2260.987           0.145  
> 2019 07 18 00 02 44.0688020  0  1                     
G06  20695165.481     -332094.967       -2253.998           0.155  
> 2019 07 18 00 02 44.1688020  0  1                     
G06  20695213.164     -332320.259       -2256.893           0.146  
> 2019 07 18 00 02 44.2688020  0  1                     
G06  20695251.754     -332545.714       -2259.556           0.135  
> 2019 07 18 00 02 44.3688020  0  1                     
G06  20695313.126     -332771.034       -2258.329           0.154  
> 2019 07 18 00 02 44.4688020  0  1                     
G06  20695392.181     -332996.259       -2264.135           0.145  
> 2019 07 18 00 02 44.5688020  0  1                     
G06  20695447.878     -333221.688       -2250.102           0.135  
> 2019 07 18 00 02 44.6688020  0  1                     
G06  20695511.455     -333447.056       -2241.031           0.148  
> 2019 07 18 00 02 44.7688020  0  1                     
G06  20695571.365     -333672.313       -2255.115           0.137  
> 2019 07 18 00 02 44.8688020  0  1                     
G06  20695630.355     -333897.663       -2250.143           0.157  
> 2019 07 18 00 02 44.9688020  0  1                     
G06  20695685.816     -334122.926       -2248.911           0.140  
> 2019 07 18 00 02 45.0688020  0  1                     
G06  20695741.010     -334348.341       -2251.472           0.155  
> 2019 07 18 00 02 45.1688020  0  1                     
G06  20695802.820     -334573.730       -2251.919           0.152  
> 2019 07 18 00 02 45.2688020  0  1                     
G06  20695852.927     -334798.969       -2253.647           0.148  
> 2019 07 18 00 02 45.3688020  0  1                     
G06  20695910.110     -335024.266       -2252.396           0.149  
> 2019 07 18 00 02 45.4688020  0  1                     
G06  20695979.289     -335249.545       -2259.992           0.142  
> 2019 07 18 00 02 45.5688020  0  1                     
G06  20696037.066     -335474.714       -2248.303           0.158  
> 2019 07 18 00 02 45.6688020  0  1                     
G06  20696093.614     -335700.064       -2252.640           0.151  
> 2019 07 18 00 02 45.7688020  0  1                     
G06  20696140.715     -335925.293       -2280.055           0.126  
> 2019 07 18 00 02 45.8688020  0  1                     
G06  20696187.992     -336150.601       -2269.260           0.122  
> 2019 07 18 00 02 45.9688020  0  1                     
G06  20696253.896     -336376.542       -2260.773           0.094  
> 2019 07 18 00 02 46.0688020  0  1                     
G06  20696304.554     -336599.484       -2231.318           0.056  
