     3.03           OBSERVATION DATA    M: Mixed            RINEX VERSION / TYPE
GNSS-SDRLIB v1.1                        20231114 050933 UTC PGM / RUN BY / DATE 
                                                            MARKER NAME         
                                                            MARKER NUMBER       
                                                            MARKER TYPE         
                                                            OBSERVER / AGENCY   
GNSS-SDRLIB         GNSS-SDRLIB         1.1                 REC # / TYPE / VERS 
                                                            ANT # / TYPE        
        0.0000        0.0000        0.0000                  APPROX POSITION XYZ 
        0.0000        0.0000        0.0000                  ANTENNA: DELTA H/E/N
G    4 C1C L1C D1C S1C                                      SYS / # / OBS TYPES 
R    4 C1C L1C D1C S1C                                      SYS / # / OBS TYPES 
E    4 C1C L1C D1C S1C                                      SYS / # / OBS TYPES 
J    4 C1C L1C D1C S1C                                      SYS / # / OBS TYPES 
S    4 C1C L1C D1C S1C                                      SYS / # / OBS TYPES 
C    4 C1C L1C D1C S1C                                      SYS / # / OBS TYPES 
I    4 C1C L1C D1C S1C                                      SYS / # / OBS TYPES 
  1970    01    01    00    00   00.0000000     GPS         TIME OF FIRST OBS   
  1970    01    01    00    00   00.0000000     GPS         TIME OF LAST OBS    
G L1C                                                       SYS / PHASE SHIFT   
R L1C                                                       SYS / PHASE SHIFT   
E L1C  0.00000                                              SYS / PHASE SHIFT   
J L1C                                                       SYS / PHASE SHIFT   
S L1C                                                       SYS / PHASE SHIFT   
C L1C  0.00000                                              SYS / PHASE SHIFT   
I L1C  0.00000                                              SYS / PHASE SHIFT   
  0                                                         GLONASS SLOT / FRQ #
 C1C    0.000 C1P    0.000 C2C    0.000 C2P    0.000        GLONASS COD/PHS/BIS 
                                                            END OF HEADER       
> 2023 05 18 00 00 36.0688020  0  1                     
G06  20627217.155       -6142.798        -481.636           0.255  
> 2023 05 18 00 00 36.0688020  0  4                     
G03  22335982.509      -11095.556        -500.357           0.255  
G04  23581332.634      -41602.799       -2118.069           0.244  
G06  20627217.155       -6142.798        -481.636           0.255  
G07  23384795.999      -13494.126       -1293.644           0.248  
> 2023 05 18 00 00 36.0688020  0  5                     
G02  24268754.110       87200.957        2906.941           0.239  
G03  22335982.509      -11095.556        -500.357           0.255  
G04  23581332.634      -41602.799       -2118.069           0.244  
G06  20627217.155       -6142.798        -481.636           0.255  
G07  23384795.999      -13494.126       -1293.644           0.248  
> 2023 05 18 00 00 36.0688020  0  6                     
G02  24268754.110       87200.957        2906.941           0.239  
G03  22335982.509      -11095.556        -500.357           0.255  
G04  23581332.634      -41602.799       -2118.069           0.244  
G05  22536033.830       42881.265        2003.691           0.255  
G06  20627217.155       -6142.798        -481.636           0.255  
G07  23384795.999      -13494.126       -1293.644           0.248  
> 2023 05 18 00 00 36.1688020  0  6                     
G02  24268680.368       87491.573        2907.522           0.239  
G03  22335997.238      -11145.627        -500.816           0.255  
G04  23581386.209      -41814.508       -2117.396           0.244  
G05  22535981.648       43086.278        2048.031           0.255  
G06  20627228.231       -6190.966        -481.835           0.255  
G07  23384829.596      -13623.505       -1293.946           0.248  
> 2023 05 18 00 00 36.2688020  0  6                     
G02  24268606.988       87782.160        2904.657           0.239  
G03  22336010.310      -11195.696        -500.332           0.255  
G04  23581440.790      -42026.011       -2105.018           0.244  
G05  22535929.220       43291.081        2048.299           0.255  
G06  20627240.410       -6239.144        -481.537           0.255  
G07  23384862.660      -13752.876       -1293.812           0.248  
> 2023 05 18 00 00 36.3688020  0  6                     
G02  24268533.707       88072.752        2905.727           0.239  
G03  22336023.776      -11245.771        -500.109           0.255  
G04  23581493.589      -42237.901       -2116.529           0.244  
G05  22535876.960       43495.881        2048.527           0.255  
G06  20627252.137       -6287.320        -481.979           0.255  
G07  23384895.483      -13882.259       -1293.683           0.248  
> 2023 05 18 00 00 36.4688020  0  6                     
G02  24268458.223       88363.357        2906.892           0.239  
G03  22336036.940      -11295.857        -501.438           0.255  
G04  23581547.930      -42449.622       -2117.959           0.244  
G05  22535825.019       43700.675        2048.126           0.255  
G06  20627264.303       -6335.499        -481.444           0.255  
G07  23384928.456      -14011.642       -1293.800           0.248  
> 2023 05 18 00 00 36.5688020  0  6                     
G02  24268384.170       88653.969        2825.707           0.239  
G03  22336049.972      -11345.942        -500.956           0.255  
G04  23581601.506      -42661.693       -2137.675           0.244  
G05  22535772.670       43905.475        2047.693           0.255  
G06  20627276.697       -6383.682        -481.903           0.255  
G07  23384961.322      -14141.032       -1293.901           0.248  
> 2023 05 18 00 00 36.6688020  0  6                     
G02  24268309.740       88944.576        2905.946           0.239  
G03  22336062.471      -11396.196        -522.378           0.255  
G04  23581656.421      -42873.054       -2116.160           0.244  
G05  22535720.504       44110.475        2079.699           0.255  
G06  20627288.840       -6431.868        -481.705           0.255  
G07  23384994.522      -14270.417       -1293.921           0.248  
> 2023 05 18 00 00 36.7688020  0  6                     
G02  24268236.951       89235.162        2904.444           0.239  
G03  22336074.512      -11446.128        -500.410           0.255  
G04  23581708.514      -43084.775       -2116.159           0.244  
G05  22535668.779       44315.060        2048.230           0.255  
G06  20627301.591       -6480.064        -482.049           0.255  
G07  23385027.217      -14399.816       -1294.094           0.248  
> 2023 05 18 00 00 36.8688020  0  6                     
G02  24268162.162       89525.741        2905.244           0.239  
G03  22336087.542      -11496.214        -500.052           0.255  
G04  23581763.837      -43296.479       -2117.032           0.244  
G05  22535616.497       44519.841        2048.259           0.255  
G06  20627313.600       -6528.262        -482.393           0.255  
G07  23385060.329      -14529.208       -1293.873           0.248  
> 2023 05 18 00 00 36.9688020  0  6                     
G02  24268088.320       89816.352        2908.663           0.239  
G03  22336100.643      -11546.335        -501.208           0.255  
G04  23581817.739      -43508.197       -2119.288           0.244  
G05  22535564.139       44724.624        2047.630           0.255  
G06  20627326.227       -6576.456        -481.896           0.255  
G07  23385093.096      -14658.611       -1293.925           0.248  
> 2023 05 18 00 00 37.0688020  0  6                     
G02  24268013.982       90106.979        2907.398           0.239  
G03  22336112.974      -11596.446        -500.877           0.255  
G04  23581871.605      -43720.145       -2095.205           0.244  
G05  22535512.250       44929.406        2047.079           0.255  
G06  20627338.419       -6624.656        -482.140           0.255  
G07  23385125.925      -14788.011       -1294.104           0.248  
> 2023 05 18 00 00 37.1688020  0  6                     
G02  24267940.672       90397.557        2905.197           0.239  
G03  22336125.269      -11646.558        -501.021           0.255  
G04  23581926.113      -43931.633       -2116.430           0.244  
G05  22535460.076       45134.187        2048.255           0.255  
G06  20627350.690       -6672.862        -481.872           0.255  
G07  23385158.844      -14917.421       -1294.141           0.248  
> 2023 05 18 00 00 37.2688020  0  6                     
G02  24267865.831       90688.173        2906.660           0.239  
G03  22336136.581      -11696.680        -501.795           0.255  
G04  23581980.519      -44143.360       -2117.779           0.244  
G05  22535407.308       45338.967        2048.379           0.255  
G06  20627363.645       -6721.066        -481.644           0.255  
G07  23385191.904      -15046.829       -1294.639           0.248  
> 2023 05 18 00 00 37.3688020  0  6                     
G02  24267793.293       90978.763        2905.493           0.239  
G03  22336150.968      -11746.811        -502.432           0.255  
G04  23582033.206      -44355.378       -2161.750           0.244  
G05  22535355.198       45543.727        2048.547           0.255  
G06  20627375.625       -6769.275        -481.565           0.255  
G07  23385224.884      -15176.238       -1294.176           0.248  
> 2023 05 18 00 00 37.4688020  0  6                     
G02  24267719.537       91269.121        2880.385           0.239  
G03  22336164.731      -11796.967        -519.850           0.255  
G04  23582085.951      -44566.793       -2117.378           0.244  
G05  22535303.078       45748.508        2047.310           0.255  
G06  20627387.099       -6817.490        -481.836           0.255  
G07  23385258.050      -15305.627       -1286.083           0.248  
> 2023 05 18 00 00 37.5688020  0  6                     
G02  24267644.194       91559.957        2906.215           0.239  
G03  22336177.990      -11847.069        -501.822           0.255  
G04  23582141.168      -44778.510       -2117.769           0.244  
G05  22535250.926       45953.276        2047.236           0.255  
G06  20627399.050       -6865.708        -481.822           0.255  
G07  23385291.048      -15435.070       -1294.108           0.248  
> 2023 05 18 00 00 37.6688020  0  6                     
G02  24267570.333       91850.562        2905.070           0.239  
G03  22336189.630      -11897.201        -501.554           0.255  
G04  23582194.254      -44990.238       -2116.837           0.244  
G05  22535198.925       46158.051        2047.709           0.255  
G06  20627412.032       -6913.932        -482.053           0.255  
G07  23385324.168      -15564.456       -1282.777           0.248  
> 2023 05 18 00 00 37.7688020  0  6                     
G02  24267496.703       92141.168        2906.105           0.239  
G03  22336202.151      -11947.341        -501.710           0.255  
G04  23582247.606      -45201.959       -2118.025           0.244  
G05  22535146.316       46362.718        2037.032           0.255  
G06  20627424.521       -6962.157        -482.259           0.255  
G07  23385357.486      -15693.914       -1293.943           0.248  
> 2023 05 18 00 00 37.8688020  0  6                     
G02  24267422.144       92431.759        2906.329           0.240  
G03  22336213.500      -11997.487        -501.469           0.255  
G04  23582302.222      -45413.677       -2117.377           0.244  
G05  22535094.590       46567.584        2047.418           0.255  
G06  20627437.681       -7010.389        -482.563           0.255  
G07  23385389.679      -15823.337       -1294.097           0.248  
> 2023 05 18 00 00 37.9688020  0  6                     
G02  24267345.582       92722.370        2907.114           0.239  
G03  22336227.775      -12047.640        -501.627           0.255  
G04  23582357.668      -45625.414       -2118.510           0.244  
G05  22535042.511       46772.349        2047.110           0.255  
G06  20627449.639       -7058.615        -482.238           0.255  
G07  23385422.817      -15952.771       -1294.307           0.248  
> 2023 05 18 00 00 38.0688020  0  6                     
G02  24267273.022       93012.980        2906.717           0.239  
G03  22336240.634      -12097.792        -502.074           0.255  
G04  23582411.128      -45837.143       -2117.867           0.244  
G05  22534990.440       46977.116        2047.747           0.255  
G06  20627461.538       -7106.854        -481.875           0.255  
G07  23385455.729      -16082.198       -1293.818           0.248  
> 2023 05 18 00 00 38.1688020  0  6                     
G02  24267199.812       93303.577        2907.575           0.239  
G03  22336251.954      -12147.948        -501.495           0.255  
G04  23582464.941      -46048.875       -2118.713           0.244  
G05  22534937.934       47181.875        2048.072           0.255  
G06  20627474.515       -7155.092        -482.280           0.255  
G07  23385489.125      -16211.634       -1293.906           0.248  
> 2023 05 18 00 00 38.2688020  0  6                     
G02  24267124.718       93594.176        2905.972           0.239  
G03  22336267.040      -12198.121        -501.871           0.255  
G04  23582519.262      -46260.596       -2117.315           0.244  
G05  22534886.075       47386.637        2047.591           0.255  
G06  20627485.493       -7203.333        -482.472           0.255  
G07  23385522.143      -16341.077       -1294.204           0.248  
> 2023 05 18 00 00 38.3688020  0  6                     
G02  24267051.892       93884.746        2933.823           0.239  
G03  22336278.045      -12248.280        -501.546           0.255  
G04  23582571.900      -46472.325       -2116.656           0.244  
G05  22534833.883       47591.389        2046.939           0.255  
G06  20627498.467       -7251.585        -482.710           0.255  
G07  23385554.560      -16470.519       -1294.289           0.248  
> 2023 05 18 00 00 38.4688020  0  6                     
G02  24266977.501       94175.377        2905.910           0.239  
G03  22336294.463      -12298.455        -501.387           0.255  
G04  23582626.835      -46684.146       -2112.638           0.244  
G05  22534781.590       47796.149        2047.477           0.255  
G06  20627509.419       -7299.831        -482.400           0.255  
G07  23385587.307      -16599.752       -1275.026           0.248  
> 2023 05 18 00 00 38.5688020  0  6                     
G02  24266903.139       94465.981        2905.414           0.239  
G03  22336305.194      -12348.634        -501.804           0.255  
G04  23582681.219      -46895.802       -2117.582           0.244  
G05  22534729.458       48000.903        2048.209           0.255  
G06  20627522.115       -7348.081        -482.237           0.255  
G07  23385620.785      -16729.411       -1294.819           0.248  
> 2023 05 18 00 00 38.6688020  0  6                     
G02  24266829.585       94756.556        2905.305           0.239  
G03  22336318.733      -12398.817        -502.254           0.255  
G04  23582734.724      -47107.533       -2116.899           0.244  
G05  22534676.991       48205.649        2047.833           0.255  
G06  20627534.269       -7396.341        -482.719           0.255  
G07  23385654.009      -16858.863       -1294.539           0.248  
> 2023 05 18 00 00 38.7688020  0  6                     
G02  24266756.513       95047.171        2906.107           0.239  
G03  22336331.415      -12448.999        -501.756           0.255  
G04  23582786.241      -47319.279       -2117.718           0.244  
G05  22534624.768       48410.396        2047.219           0.255  
G06  20627546.952       -7444.598        -482.178           0.255  
G07  23385687.268      -16988.319       -1294.473           0.248  
> 2023 05 18 00 00 38.8688020  0  6                     
G02  24266682.416       95337.772        2906.545           0.238  
G03  22336344.463      -12499.189        -501.953           0.255  
G04  23582840.946      -47531.013       -2117.668           0.244  
G05  22534572.705       48615.147        2047.103           0.255  
G06  20627559.275       -7492.861        -482.484           0.255  
G07  23385719.934      -17117.778       -1294.887           0.248  
> 2023 05 18 00 00 38.9688020  0  6                     
G02  24266608.191       95628.372        2906.286           0.239  
G03  22336354.867      -12549.381        -501.610           0.255  
G04  23582895.387      -47742.749       -2117.667           0.243  
G05  22534520.417       48819.891        2047.917           0.255  
G06  20627572.221       -7541.128        -482.584           0.255  
G07  23385752.797      -17247.227       -1294.187           0.248  
> 2023 05 18 00 00 39.0688020  0  6                     
G02  24266532.384       95918.978        2906.595           0.239  
G03  22336367.780      -12599.582        -501.650           0.255  
G04  23582950.919      -47954.521       -2129.360           0.244  
G05  22534468.087       49024.311        1982.366           0.255  
G06  20627585.155       -7589.396        -482.680           0.255  
G07  23385785.938      -17376.735       -1315.820           0.248  
> 2023 05 18 00 00 39.1688020  0  6                     
G02  24266457.687       96209.561        2906.100           0.239  
G03  22336381.995      -12649.789        -501.973           0.255  
G04  23583005.280      -48166.217       -2117.252           0.244  
G05  22534416.436       49229.362        2046.740           0.255  
G06  20627596.925       -7637.666        -482.669           0.255  
G07  23385818.761      -17506.155       -1295.062           0.248  
> 2023 05 18 00 00 39.2688020  0  6                     
G02  24266384.532       96500.161        2905.727           0.239  
G03  22336395.472      -12699.998        -502.265           0.255  
G04  23583058.885      -48377.965       -2117.391           0.244  
G05  22534363.971       49434.102        2047.190           0.255  
G06  20627608.600       -7685.945        -482.556           0.255  
G07  23385851.135      -17635.619       -1294.666           0.248  
> 2023 05 18 00 00 39.3688020  0  6                     
G02  24266311.224       96790.770        2906.450           0.239  
G03  22336404.370      -12750.210        -502.432           0.255  
G04  23583112.648      -48589.712       -2117.800           0.244  
G05  22534312.436       49638.747        2032.511           0.255  
G06  20627622.161       -7734.226        -482.709           0.255  
G07  23385885.222      -17765.090       -1294.697           0.248  
> 2023 05 18 00 00 39.4688020  0  6                     
G02  24266237.276       97081.373        2905.535           0.239  
G03  22336418.781      -12800.524        -504.483           0.255  
G04  23583165.879      -48801.453       -2116.657           0.244  
G05  22534259.785       49843.427        2006.410           0.255  
G06  20627633.693       -7782.514        -483.029           0.255  
G07  23385917.965      -17894.564       -1294.820           0.248  
> 2023 05 18 00 00 39.5688020  0  6                     
G02  24266162.824       97371.982        2906.946           0.239  
G03  22336432.000      -12850.649        -502.209           0.255  
G04  23583219.839      -49013.207       -2118.123           0.244  
G05  22534207.761       50048.301        2046.743           0.255  
G06  20627645.990       -7830.795        -482.782           0.255  
G07  23385951.098      -18024.039       -1295.090           0.248  
> 2023 05 18 00 00 39.6688020  0  6                     
G02  24266088.527       97662.570        2906.805           0.239  
G03  22336443.468      -12900.877        -502.326           0.255  
G04  23583273.943      -49224.929       -2117.673           0.244  
G05  22534155.576       50253.039        2047.573           0.255  
G06  20627658.837       -7879.088        -482.938           0.255  
G07  23385984.296      -18153.516       -1294.574           0.248  
> 2023 05 18 00 00 39.7688020  0  6                     
G02  24266014.184       97953.179        2904.776           0.239  
G03  22336457.501      -12951.108        -502.145           0.255  
G04  23583329.856      -49436.688       -2115.817           0.244  
G05  22534103.229       50457.759        2047.282           0.255  
G06  20627670.178       -7927.379        -482.957           0.255  
G07  23386016.240      -18282.998       -1294.598           0.248  
> 2023 05 18 00 00 39.8688020  0  6                     
G02  24265940.411       98243.784        2906.611           0.239  
G03  22336470.938      -13001.347        -502.612           0.255  
G04  23583382.691      -49648.533       -2120.820           0.244  
G05  22534050.996       50662.295        2008.150           0.255  
G06  20627682.415       -7975.677        -482.925           0.255  
G07  23386050.041      -18412.488       -1295.046           0.248  
> 2023 05 18 00 00 39.9688020  0  6                     
G02  24265865.931       98534.376        2905.952           0.239  
G03  22336483.516      -13051.582        -502.067           0.255  
G04  23583436.903      -49860.180       -2116.500           0.244  
G05  22533998.679       50867.207        2047.402           0.255  
G06  20627695.479       -8023.982        -483.206           0.255  
G07  23386083.642      -18541.967       -1294.391           0.248  
> 2023 05 18 00 00 40.0688020  0  6                     
G02  24265792.030       98824.979        2905.342           0.239  
G03  22336496.387      -13101.829        -502.268           0.255  
G04  23583490.062      -50071.935       -2116.443           0.244  
G05  22533946.920       51071.929        2047.912           0.255  
G06  20627707.344       -8072.285        -483.299           0.255  
G07  23386115.695      -18671.456       -1294.366           0.248  
> 2023 05 18 00 00 40.1688020  0  6                     
G02  24265718.338       99115.581        2905.344           0.239  
G03  22336508.570      -13152.080        -502.455           0.255  
G04  23583544.542      -50283.683       -2117.227           0.244  
G05  22533894.344       51276.642        2047.267           0.255  
G06  20627719.644       -8120.594        -482.757           0.255  
G07  23386149.138      -18800.956       -1295.367           0.248  
> 2023 05 18 00 00 40.2688020  0  6                     
G02  24265643.388       99406.174        2905.394           0.239  
G03  22336521.647      -13202.335        -502.460           0.255  
G04  23583599.208      -50495.445       -2117.571           0.244  
G05  22533841.686       51481.358        2046.881           0.255  
G06  20627733.439       -8168.907        -483.185           0.255  
G07  23386181.671      -18930.446       -1294.050           0.248  
> 2023 05 18 00 00 40.3688020  0  6                     
G02  24265571.272       99696.776        2906.354           0.239  
G03  22336533.151      -13252.593        -502.627           0.255  
G04  23583651.956      -50707.206       -2118.182           0.244  
G05  22533789.783       51686.074        2047.341           0.255  
G06  20627745.582       -8217.223        -483.392           0.255  
G07  23386214.591      -19059.950       -1294.994           0.248  
> 2023 05 18 00 00 40.4688020  0  6                     
G02  24265496.435       99987.376        2906.652           0.239  
G03  22336546.933      -13302.855        -502.572           0.255  
G04  23583705.912      -50918.956       -2117.949           0.244  
G05  22533737.715       51890.788        2047.340           0.255  
G06  20627757.084       -8265.538        -483.218           0.255  
G07  23386247.817      -19189.455       -1294.896           0.248  
> 2023 05 18 00 00 40.5688020  0  6                     
G02  24265422.898      100277.975        2904.998           0.239  
G03  22336562.743      -13353.127        -503.073           0.255  
G04  23583760.561      -51130.707       -2117.111           0.244  
G05  22533685.740       52095.496        2046.639           0.255  
G06  20627767.784       -8313.863        -483.713           0.255  
G07  23386280.487      -19318.962       -1295.428           0.248  
> 2023 05 18 00 00 40.6688020  0  6                     
G02  24265348.314      100568.569        2903.313           0.239  
G03  22336574.679      -13403.396        -502.991           0.255  
G04  23583813.827      -51342.646       -2067.718           0.244  
G05  22533634.242       52300.569        2107.093           0.255  
G06  20627780.237       -8362.183        -483.830           0.255  
G07  23386313.105      -19448.469       -1294.642           0.248  
> 2023 05 18 00 00 40.7688020  0  6                     
G02  24265274.576      100859.167        2903.622           0.239  
G03  22336587.407      -13453.669        -502.498           0.255  
G04  23583867.897      -51554.206       -2115.486           0.244  
G05  22533581.825       52504.911        2047.467           0.255  
G06  20627792.677       -8410.507        -482.992           0.255  
G07  23386346.616      -19577.985       -1294.557           0.248  
> 2023 05 18 00 00 40.8688020  0  6                     
G02  24265200.142      101149.775        2906.217           0.239  
G03  22336598.717      -13503.950        -502.866           0.255  
G04  23583921.905      -51765.973       -2117.481           0.244  
G05  22533529.561       52709.610        2047.178           0.255  
G06  20627805.891       -8458.844        -483.314           0.255  
G07  23386380.369      -19707.509       -1295.170           0.248  
> 2023 05 18 00 00 40.9688020  0  6                     
G02  24265126.088      101440.370        2906.053           0.239  
G03  22336613.147      -13554.242        -503.228           0.255  
G04  23583976.181      -51977.734       -2117.584           0.244  
G05  22533477.078       52914.307        2046.520           0.255  
G06  20627817.195       -8507.174        -483.183           0.255  
G07  23386413.065      -19836.994       -1307.319           0.248  
> 2023 05 18 00 00 41.0688020  0  6                     
G02  24265052.357      101730.989        2907.844           0.239  
G03  22336626.273      -13604.525        -503.043           0.255  
G04  23584029.418      -52189.515       -2119.843           0.244  
G05  22533425.218       53119.009        2047.224           0.255  
G06  20627829.570       -8555.515        -482.945           0.255  
G07  23386445.814      -19966.542       -1295.184           0.248  
> 2023 05 18 00 00 41.1688020  0  6                     
G02  24264977.388      102021.573        2907.002           0.239  
G03  22336637.749      -13654.822        -503.371           0.255  
G04  23584084.057      -52401.267       -2118.774           0.244  
G05  22533372.984       53323.705        2047.432           0.255  
G06  20627842.722       -8603.858        -484.010           0.255  
G07  23386479.283      -20096.068       -1295.361           0.248  
> 2023 05 18 00 00 41.2688020  0  6                     
G02  24264904.373      102312.172        2907.169           0.239  
G03  22336650.474      -13705.118        -503.036           0.255  
G04  23584137.918      -52613.022       -2118.180           0.244  
G05  22533320.383       53528.389        2045.934           0.255  
G06  20627854.850       -8652.200        -483.285           0.255  
G07  23386511.743      -20225.599       -1295.973           0.248  
> 2023 05 18 00 00 41.3688020  0  6                     
G02  24264830.938      102602.762        2905.441           0.239  
G03  22336662.607      -13755.423        -502.829           0.255  
G04  23584191.220      -52824.784       -2117.379           0.244  
G05  22533268.105       53733.087        2046.613           0.255  
G06  20627867.679       -8700.552        -483.503           0.255  
G07  23386545.018      -20355.122       -1294.995           0.248  
> 2023 05 18 00 00 41.4688020  0  6                     
G02  24264757.013      102893.370        2905.143           0.239  
G03  22336674.893      -13805.730        -503.031           0.255  
G04  23584244.920      -53036.556       -2117.100           0.244  
G05  22533216.554       53937.777        2047.259           0.255  
G06  20627880.195       -8748.902        -483.976           0.255  
G07  23386578.431      -20484.656       -1294.538           0.248  
> 2023 05 18 00 00 41.5688020  0  6                     
G02  24264682.156      103183.965        2905.699           0.239  
G03  22336689.215      -13856.041        -502.998           0.255  
G04  23584298.454      -53248.324       -2117.838           0.244  
G05  22533164.382       54142.468        2047.146           0.255  
G06  20627891.941       -8797.253        -483.693           0.255  
G07  23386610.311      -20614.195       -1295.171           0.248  
> 2023 05 18 00 00 41.6688020  0  6                     
G02  24264608.117      103474.572        2906.262           0.239  
G03  22336702.237      -13906.363        -503.006           0.255  
G04  23584352.624      -53460.087       -2116.747           0.244  
G05  22533112.254       54347.562        2121.240           0.255  
G06  20627904.447       -8845.612        -483.829           0.255  
G07  23386643.012      -20743.731       -1295.328           0.248  
> 2023 05 18 00 00 41.7688020  0  6                     
G02  24264533.798      103765.158        2904.327           0.239  
G03  22336714.255      -13956.686        -503.115           0.255  
G04  23584407.507      -53671.840       -2115.930           0.244  
G05  22533059.953       54551.827        2047.094           0.255  
G06  20627916.783       -8893.979        -484.012           0.255  
G07  23386676.923      -20873.277       -1295.427           0.248  
> 2023 05 18 00 00 41.8688020  0  6                     
G02  24264460.041      104055.781        2908.118           0.239  
G03  22336727.333      -14007.000        -502.914           0.255  
G04  23584461.237      -53883.629       -2119.217           0.244  
G05  22533007.728       54756.505        2046.806           0.255  
G06  20627929.098       -8942.345        -483.775           0.255  
G07  23386709.873      -21002.827       -1295.609           0.248  
> 2023 05 18 00 00 41.9688020  0  6                     
G02  24264385.497      104346.382        2905.718           0.239  
G03  22336739.788      -14057.337        -503.174           0.255  
G04  23584515.227      -54095.401       -2117.493           0.244  
G05  22532955.819       54961.175        2046.676           0.255  
G06  20627941.426       -8990.710        -483.658           0.255  
G07  23386743.146      -21132.370       -1295.262           0.248  
> 2023 05 18 00 00 42.0688020  0  6                     
G02  24264310.490      104636.982        2906.460           0.240  
G03  22336751.756      -14107.668        -503.009           0.255  
G04  23584569.478      -54307.173       -2117.720           0.244  
G05  22532903.840       55165.852        2047.121           0.255  
G06  20627954.058       -9039.084        -483.924           0.255  
G07  23386776.206      -21261.920       -1295.300           0.248  
> 2023 05 18 00 00 42.1688020  0  6                     
G02  24264236.850      104927.575        2906.188           0.239  
G03  22336765.127      -14158.018        -503.274           0.255  
G04  23584622.655      -54518.945       -2118.435           0.244  
G05  22532851.633       55370.526        2046.224           0.255  
G06  20627966.395       -9087.458        -484.180           0.255  
G07  23386809.353      -21391.468       -1295.159           0.248  
> 2023 05 18 00 00 42.2688020  0  6                     
G02  24264163.902      105217.881        2851.452           0.239  
G03  22336777.865      -14208.365        -503.666           0.255  
G04  23584676.667      -54730.976       -2096.467           0.244  
G05  22532799.327       55575.206        2046.365           0.255  
G06  20627978.552       -9135.831        -483.984           0.255  
G07  23386841.802      -21521.020       -1295.597           0.248  
> 2023 05 18 00 00 42.3688020  0  6                     
G02  24264089.485      105508.774        2905.227           0.239  
G03  22336791.208      -14258.709        -503.431           0.255  
G04  23584731.218      -54942.485       -2116.028           0.244  
G05  22532747.072       55779.877        2047.404           0.255  
G06  20627990.578       -9184.219        -483.793           0.255  
G07  23386874.910      -21650.585       -1296.085           0.248  
> 2023 05 18 00 00 42.4688020  0  6                     
G02  24264015.191      105799.397        2906.858           0.239  
G03  22336804.206      -14309.146        -497.369           0.255  
G04  23584785.275      -55154.284       -2118.446           0.244  
G05  22532694.816       55984.544        2046.948           0.255  
G06  20628002.753       -9232.608        -483.928           0.255  
G07  23386908.060      -21780.146       -1295.891           0.248  
> 2023 05 18 00 00 42.5688020  0  6                     
G02  24263941.176      106089.985        2903.935           0.239  
G03  22336817.281      -14359.413        -502.621           0.255  
G04  23584839.210      -55366.051       -2116.429           0.244  
G05  22532642.635       56189.206        2046.761           0.255  
G06  20628015.201       -9280.999        -484.329           0.255  
G07  23386941.098      -21909.668       -1282.151           0.248  
> 2023 05 18 00 00 42.6688020  0  6                     
G02  24263867.895      106380.576        2905.457           0.239  
G03  22336829.789      -14409.775        -502.392           0.255  
G04  23584892.801      -55577.794       -2115.281           0.244  
G05  22532590.869       56393.871        2047.397           0.255  
G06  20628027.678       -9329.390        -483.897           0.255  
G07  23386973.272      -22039.270       -1295.315           0.248  
> 2023 05 18 00 00 42.7688020  0  6                     
G02  24263793.650      106671.187        2905.511           0.239  
G03  22336842.484      -14460.145        -503.057           0.255  
G04  23584946.772      -55789.614       -2117.786           0.244  
G05  22532538.501       56598.533        2046.255           0.255  
G06  20628040.611       -9377.786        -484.460           0.255  
G07  23387006.820      -22168.841       -1295.253           0.248  
> 2023 05 18 00 00 42.8688020  0  6                     
G02  24263718.819      106961.789        2905.726           0.239  
G03  22336855.519      -14510.519        -503.685           0.255  
G04  23585001.151      -56001.387       -2117.155           0.244  
G05  22532485.973       56803.186        2046.095           0.255  
G06  20628052.277       -9426.189        -484.204           0.255  
G07  23387040.267      -22298.417       -1295.871           0.248  
> 2023 05 18 00 00 42.9688020  0  6                     
G02  24263644.935      107252.392        2906.551           0.239  
G03  22336867.824      -14560.896        -503.485           0.255  
G04  23585055.372      -56213.242       -2118.774           0.244  
G05  22532433.858       57007.702        2015.837           0.255  
G06  20628064.687       -9474.588        -484.500           0.255  
G07  23387073.333      -22428.090       -1298.329           0.248  
> 2023 05 18 00 00 43.0688020  0  6                     
G02  24263570.821      107542.993        2905.541           0.239  
G03  22336880.919      -14611.275        -503.991           0.255  
G04  23585109.476      -56424.954       -2117.438           0.244  
G05  22532381.750       57212.502        2046.323           0.255  
G06  20628077.144       -9522.994        -484.229           0.255  
G07  23387106.399      -22557.573       -1295.526           0.248  
> 2023 05 18 00 00 43.1688020  0  6                     
G02  24263497.199      107833.594        2905.866           0.239  
G03  22336894.809      -14661.654        -504.359           0.255  
G04  23585163.183      -56636.756       -2118.109           0.244  
G05  22532329.756       57417.154        2046.561           0.255  
G06  20628088.739       -9571.403        -483.366           0.255  
G07  23387139.277      -22687.155       -1295.737           0.248  
> 2023 05 18 00 00 43.2688020  0  6                     
G02  24263422.985      108124.183        2905.983           0.239  
G03  22336907.466      -14712.047        -503.477           0.255  
G04  23585217.143      -56848.534       -2117.236           0.244  
G05  22532277.653       57621.809        2046.750           0.255  
G06  20628101.338       -9619.819        -484.302           0.255  
G07  23387172.309      -22816.739       -1295.686           0.248  
> 2023 05 18 00 00 43.3688020  0  6                     
G02  24263348.818      108414.775        2904.784           0.239  
G03  22336920.190      -14762.438        -503.708           0.255  
G04  23585271.289      -57060.206       -2097.605           0.244  
G05  22532225.557       57826.456        2046.080           0.255  
G06  20628113.704       -9668.239        -484.798           0.255  
G07  23387205.072      -22946.328       -1295.676           0.248  
> 2023 05 18 00 00 43.4688020  0  6                     
G02  24263274.294      108705.366        2905.440           0.239  
G03  22336931.909      -14812.830        -503.812           0.255  
G04  23585325.083      -57272.104       -2117.660           0.244  
G05  22532173.336       58031.103        2046.629           0.255  
G06  20628126.612       -9716.659        -484.362           0.255  
G07  23387237.955      -23075.923       -1296.198           0.248  
> 2023 05 18 00 00 43.5688020  0  6                     
G02  24263200.593      108995.949        2904.877           0.239  
G03  22336945.552      -14863.237        -504.052           0.255  
G04  23585378.716      -57483.895       -2117.188           0.244  
G05  22532121.035       58235.747        2046.391           0.255  
G06  20628138.894       -9765.079        -484.154           0.255  
G07  23387271.072      -23205.515       -1295.698           0.248  
> 2023 05 18 00 00 43.6688020  0  6                     
G02  24263127.056      109286.548        2905.888           0.239  
G03  22336960.236      -14913.651        -504.465           0.255  
G04  23585433.132      -57695.692       -2117.659           0.244  
G05  22532069.117       58440.390        2045.574           0.255  
G06  20628150.307       -9813.512        -484.121           0.255  
G07  23387304.155      -23335.111       -1295.842           0.248  
> 2023 05 18 00 00 43.7688020  0  6                     
G02  24263051.704      109577.147        2906.150           0.239  
G03  22336972.348      -14964.060        -504.227           0.255  
G04  23585487.982      -57907.482       -2117.903           0.244  
G05  22532016.797       58645.029        2046.223           0.255  
G06  20628162.363       -9861.936        -484.248           0.255  
G07  23387336.900      -23464.716       -1295.839           0.248  
> 2023 05 18 00 00 43.8688020  0  6                     
G02  24262977.602      109867.875        2927.885           0.239  
G03  22336984.061      -15014.474        -504.158           0.255  
G04  23585541.609      -58119.275       -2117.712           0.244  
G05  22531964.502       58849.668        2046.039           0.255  
G06  20628174.955       -9910.370        -484.060           0.255  
G07  23387370.686      -23594.316       -1295.991           0.248  
> 2023 05 18 00 00 43.9688020  0  6                     
G02  24262903.104      110158.017        2891.045           0.239  
G03  22336997.135      -15064.896        -504.182           0.255  
G04  23585596.170      -58331.074       -2119.313           0.244  
G05  22531912.382       59054.299        2045.872           0.255  
G06  20628186.642       -9958.808        -484.295           0.255  
G07  23387404.170      -23723.923       -1295.807           0.248  
> 2023 05 18 00 00 44.0688020  0  6                     
G02  24262829.116      110448.924        2906.290           0.239  
G03  22337008.570      -15115.315        -495.157           0.255  
G04  23585650.334      -58542.855       -2118.404           0.244  
G05  22531860.331       59258.970        2054.698           0.255  
G06  20628199.825      -10007.252        -483.802           0.255  
G07  23387436.997      -23853.537       -1296.010           0.248  
> 2023 05 18 00 00 44.1688020  0  6                     
G02  24262757.465      110739.523        2905.240           0.239  
G03  22337022.682      -15165.745        -504.235           0.255  
G04  23585701.976      -58754.658       -2117.806           0.244  
G05  22531808.257       59463.570        2046.305           0.255  
G06  20628212.248      -10055.699        -484.282           0.255  
G07  23387469.932      -23983.152       -1296.492           0.248  
> 2023 05 18 00 00 44.2688020  0  6                     
G02  24262683.225      111030.114        2905.334           0.239  
G03  22337035.228      -15216.181        -504.086           0.255  
G04  23585756.256      -58966.344       -2074.578           0.244  
G05  22531756.031       59668.195        2046.344           0.255  
G06  20628225.005      -10104.148        -484.667           0.255  
G07  23387502.320      -24112.760       -1296.036           0.248  
> 2023 05 18 00 00 44.3688020  0  6                     
G02  24262610.686      111320.706        2903.979           0.239  
G03  22337050.509      -15266.624        -504.205           0.255  
G04  23585808.169      -59178.249       -2117.160           0.244  
G05  22531703.652       59872.823        2047.211           0.255  
G06  20628236.751      -10152.595        -484.543           0.255  
G07  23387535.502      -24242.381       -1296.213           0.248  
> 2023 05 18 00 00 44.4688020  0  6                     
G02  24262533.195      111611.305        2905.680           0.239  
G03  22337062.033      -15317.063        -503.447           0.255  
G04  23585865.885      -59390.044       -2117.718           0.244  
G05  22531651.634       60077.445        2045.952           0.255  
G06  20628249.314      -10201.054        -485.022           0.255  
G07  23387568.469      -24372.006       -1296.231           0.248  
> 2023 05 18 00 00 44.5688020  0  6                     
G02  24262460.029      111901.462        2893.245           0.239  
G03  22337074.232      -15367.515        -504.248           0.255  
G04  23585919.303      -59601.837       -2116.002           0.244  
G05  22531599.563       60281.740        1987.093           0.255  
G06  20628261.904      -10249.507        -484.418           0.255  
G07  23387601.584      -24501.632       -1295.901           0.248  
> 2023 05 18 00 00 44.6688020  0  6                     
G02  24262385.952      112192.496        2906.858           0.239  
G03  22337088.438      -15417.975        -505.331           0.255  
G04  23585972.223      -59813.651       -2119.039           0.244  
G05  22531547.562       60486.293        1961.193           0.255  
G06  20628273.944      -10297.967        -484.173           0.255  
G07  23387634.398      -24631.256       -1295.994           0.248  
> 2023 05 18 00 00 44.7688020  0  6                     
G02  24262312.540      112483.108        2908.139           0.239  
G03  22337101.442      -15468.428        -505.138           0.255  
G04  23586026.248      -60025.466       -2119.891           0.244  
G05  22531495.498       60691.306        2045.786           0.255  
G06  20628286.377      -10346.432        -484.530           0.255  
G07  23387667.552      -24760.890       -1296.814           0.248  
> 2023 05 18 00 00 44.8688020  0  6                     
G02  24262237.926      112773.697        2906.087           0.239  
G03  22337113.340      -15518.895        -505.010           0.255  
G04  23586080.495      -60237.265       -2118.226           0.244  
G05  22531443.339       60895.814        2035.636           0.255  
G06  20628298.966      -10394.898        -484.273           0.255  
G07  23387700.501      -24890.483       -1285.179           0.248  
> 2023 05 18 00 00 44.9688020  0  6                     
G02  24262164.901      113064.286        2906.381           0.239  
G03  22337125.802      -15569.358        -505.030           0.255  
G04  23586133.768      -60449.059       -2118.094           0.244  
G05  22531390.929       61100.535        2045.983           0.255  
G06  20628311.876      -10443.373        -484.565           0.255  
G07  23387733.429      -25020.162       -1296.182           0.248  
> 2023 05 18 00 00 45.0688020  0  6                     
G02  24262089.959      113354.899        2907.912           0.239  
G03  22337140.435      -15619.729        -485.933           0.255  
G04  23586188.069      -60660.879       -2119.022           0.244  
G05  22531338.689       61305.448        2114.252           0.255  
G06  20628323.409      -10491.846        -484.391           0.255  
G07  23387767.009      -25149.807       -1311.391           0.248  
> 2023 05 18 00 00 45.1688020  0  6                     
G02  24262015.567      113645.480        2906.465           0.239  
G03  22337150.577      -15670.300        -504.741           0.255  
G04  23586242.466      -60872.677       -2118.155           0.244  
G05  22531286.688       61509.759        2046.109           0.255  
G06  20628336.924      -10540.328        -484.746           0.255  
G07  23387799.922      -25279.438       -1296.584           0.248  
> 2023 05 18 00 00 45.2688020  0  6                     
G02  24261942.283      113936.065        2905.505           0.239  
G03  22337164.784      -15720.773        -503.894           0.255  
G04  23586295.571      -61084.475       -2118.047           0.244  
G05  22531234.717       61714.367        2045.550           0.255  
G06  20628348.170      -10588.809        -484.697           0.255  
G07  23387832.948      -25409.084       -1296.446           0.248  
> 2023 05 18 00 00 45.3688020  0  6                     
G02  24261869.637      114226.665        2906.437           0.239  
G03  22337177.120      -15771.260        -504.237           0.255  
G04  23586348.798      -61296.287       -2118.330           0.244  
G05  22531182.447       61918.979        2046.475           0.255  
G06  20628360.904      -10637.298        -485.179           0.255  
G07  23387865.891      -25538.769       -1307.828           0.248  
> 2023 05 18 00 00 45.4688020  0  6                     
G02  24261794.618      114517.259        2905.006           0.239  
G03  22337189.766      -15821.748        -504.950           0.255  
G04  23586402.472      -61508.042       -2095.059           0.244  
G05  22531130.621       62123.577        2045.816           0.255  
G06  20628373.938      -10685.783        -484.999           0.255  
G07  23387898.619      -25668.384       -1296.992           0.248  
> 2023 05 18 00 00 45.5688020  0  6                     
G02  24261720.270      114807.856        2905.498           0.239  
G03  22337203.256      -15872.242        -504.749           0.255  
G04  23586458.029      -61719.911       -2117.732           0.244  
G05  22531078.493       62327.824        1964.610           0.255  
G06  20628385.980      -10734.275        -485.091           0.255  
G07  23387931.824      -25798.085       -1307.059           0.248  
> 2023 05 18 00 00 45.6688020  0  6                     
G02  24261644.498      115098.439        2905.281           0.239  
G03  22337214.573      -15922.737        -504.891           0.255  
G04  23586512.706      -61931.710       -2117.498           0.244  
G05  22531025.871       62532.448        1986.236           0.255  
G06  20628398.395      -10782.771        -484.991           0.255  
G07  23387965.679      -25927.596       -1291.882           0.248  
> 2023 05 18 00 00 45.7688020  0  6                     
G02  24261570.179      115389.042        2904.935           0.239  
G03  22337228.097      -15973.245        -505.804           0.255  
G04  23586566.667      -62143.778       -2144.573           0.244  
G05  22530973.861       62737.357        2045.155           0.255  
G06  20628410.578      -10831.268        -484.741           0.255  
G07  23387998.243      -26057.341       -1296.327           0.248  
> 2023 05 18 00 00 45.8688020  0  6                     
G02  24261497.359      115679.646        2905.880           0.239  
G03  22337240.603      -16023.729        -502.553           0.255  
G04  23586620.222      -62355.210       -2077.215           0.244  
G05  22530922.045       62941.952        2046.177           0.255  
G06  20628422.929      -10879.776        -485.211           0.255  
G07  23388031.049      -26187.007       -1296.870           0.248  
> 2023 05 18 00 00 45.9688020  0  6                     
G02  24261422.865      115970.237        2905.387           0.240  
G03  22337253.414      -16074.258        -505.033           0.255  
G04  23586674.876      -62567.159       -2117.779           0.244  
G05  22530870.145       63146.540        2045.469           0.255  
G06  20628435.671      -10928.280        -485.140           0.255  
G07  23388063.866      -26316.673       -1296.691           0.248  
> 2023 05 18 00 00 46.0688020  0  6                     
G02  24261348.031      116260.833        2905.596           0.239  
G03  22337267.478      -16124.772        -505.482           0.255  
G04  23586729.741      -62778.976       -2117.536           0.244  
G05  22530818.258       63351.129        2046.044           0.255  
G06  20628446.947      -10976.789        -485.395           0.255  
G07  23388096.742      -26446.338       -1296.968           0.248  
> 2023 05 18 00 00 46.1688020  0  6                     
G02  24261274.662      116551.426        2906.300           0.239  
G03  22337279.872      -16175.291        -504.567           0.255  
G04  23586783.003      -62990.791       -2117.885           0.244  
G05  22530765.869       63555.328        1977.453           0.255  
G06  20628459.720      -11025.301        -485.387           0.255  
G07  23388130.109      -26576.293       -1322.384           0.248  
> 2023 05 18 00 00 46.2688020  0  6                     
G02  24261201.024      116842.019        2905.852           0.239  
G03  22337291.169      -16225.788        -500.908           0.255  
G04  23586837.276      -63202.611       -2118.423           0.244  
G05  22530712.926       63760.434        2071.863           0.255  
G06  20628472.630      -11073.819        -485.512           0.255  
G07  23388163.067      -26705.687       -1296.738           0.248  
> 2023 05 18 00 00 46.3688020  0  6                     
G02  24261127.711      117132.610        2904.888           0.239  
G03  22337304.005      -16276.347        -505.114           0.255  
G04  23586890.745      -63414.431       -2117.523           0.244  
G05  22530661.180       63964.889        2046.164           0.255  
G06  20628485.072      -11122.334        -485.332           0.255  
G07  23388195.709      -26835.362       -1296.644           0.248  
> 2023 05 18 00 00 46.4688020  0  6                     
G02  24261053.789      117423.228        2907.163           0.239  
G03  22337317.897      -16326.874        -504.542           0.255  
G04  23586944.647      -63626.265       -2118.874           0.244  
G05  22530609.280       64169.468        2045.143           0.255  
G06  20628497.434      -11170.858        -485.240           0.255  
G07  23388229.273      -26964.935       -1292.624           0.248  
> 2023 05 18 00 00 46.5688020  0  6                     
G02  24260981.320      117713.812        2905.781           0.239  
G03  22337329.457      -16377.418        -505.599           0.255  
G04  23586997.717      -63838.083       -2118.030           0.244  
G05  22530557.363       64374.050        2045.670           0.255  
G06  20628509.813      -11219.384        -484.914           0.255  
G07  23388262.534      -27094.712       -1297.839           0.248  
> 2023 05 18 00 00 46.6688020  0  6                     
G02  24260906.484      118004.404        2906.125           0.239  
G03  22337342.987      -16427.957        -505.187           0.255  
G04  23587051.609      -64049.903       -2118.578           0.244  
G05  22530504.854       64578.628        2045.750           0.255  
G06  20628521.861      -11267.916        -485.203           0.255  
G07  23388295.072      -27224.410       -1296.787           0.248  
> 2023 05 18 00 00 46.7688020  0  6                     
G02  24260831.102      118294.996        2905.578           0.240  
G03  22337355.830      -16478.513        -505.623           0.255  
G04  23587105.102      -64261.721       -2117.945           0.244  
G05  22530452.656       64783.203        2045.249           0.255  
G06  20628535.253      -11316.450        -485.149           0.255  
G07  23388328.422      -27354.098       -1296.570           0.248  
> 2023 05 18 00 00 46.8688020  0  6                     
G02  24260758.917      118585.612        2907.252           0.239  
G03  22337368.812      -16529.062        -505.752           0.255  
G04  23587158.331      -64473.556       -2118.940           0.244  
G05  22530400.678       64987.780        2046.320           0.255  
G06  20628547.080      -11364.986        -485.260           0.255  
G07  23388361.601      -27483.792       -1296.610           0.248  
> 2023 05 18 00 00 46.9688020  0  6                     
G02  24260683.155      118876.185        2904.751           0.239  
G03  22337382.921      -16579.612        -505.468           0.255  
G04  23587213.589      -64685.368       -2118.028           0.244  
G05  22530348.214       65192.344        2045.195           0.255  
G06  20628558.789      -11413.528        -485.217           0.255  
G07  23388394.365      -27613.483       -1296.672           0.248  
> 2023 05 18 00 00 47.0688020  0  6                     
G02  24260608.262      119166.766        2906.793           0.239  
G03  22337395.282      -16630.171        -505.356           0.255  
G04  23587267.786      -64897.181       -2118.625           0.243  
G05  22530296.166       65396.918        2046.172           0.255  
G06  20628571.475      -11462.073        -485.633           0.255  
G07  23388427.468      -27743.210       -1307.930           0.248  
> 2023 05 18 00 00 47.1688020  0  6                     
G02  24260533.423      119457.398        2908.156           0.239  
G03  22337409.325      -16680.739        -505.108           0.255  
G04  23587322.438      -65109.043       -2120.380           0.244  
G05  22530244.228       65601.479        2045.408           0.255  
G06  20628583.349      -11510.615        -485.532           0.255  
G07  23388460.669      -27872.884       -1296.893           0.248  
> 2023 05 18 00 00 47.2688020  0  6                     
G02  24260458.579      119747.969        2906.211           0.239  
G03  22337422.044      -16731.310        -504.720           0.255  
G04  23587377.119      -65320.866       -2118.506           0.244  
G05  22530192.302       65806.048        2045.936           0.255  
G06  20628595.802      -11559.163        -485.539           0.255  
G07  23388493.694      -28002.589       -1297.219           0.248  
> 2023 05 18 00 00 47.3688020  0  6                     
G02  24260385.313      120038.570        2905.776           0.240  
G03  22337435.920      -16781.884        -505.079           0.255  
G04  23587430.685      -65532.695       -2117.807           0.244  
G05  22530140.386       66010.607        2045.708           0.255  
G06  20628608.114      -11607.719        -485.892           0.255  
G07  23388526.893      -28132.292       -1296.996           0.248  
> 2023 05 18 00 00 47.4688020  0  6                     
G02  24260311.781      120329.163        2904.989           0.239  
G03  22337447.699      -16832.472        -505.637           0.255  
G04  23587483.968      -65744.536       -2118.036           0.244  
G05  22530088.093       66215.165        2045.953           0.255  
G06  20628620.224      -11656.275        -485.478           0.255  
G07  23388559.828      -28262.006       -1297.125           0.248  
> 2023 05 18 00 00 47.5688020  0  6                     
G02  24260240.173      120619.773        2905.470           0.239  
G03  22337460.433      -16883.057        -505.592           0.255  
G04  23587537.446      -65956.379       -2118.703           0.244  
G05  22530035.908       66419.725        2045.999           0.255  
G06  20628633.136      -11704.833        -485.496           0.255  
G07  23388593.087      -28391.718       -1297.252           0.248  
> 2023 05 18 00 00 47.6688020  0  6                     
G02  24260166.098      120910.363        2906.920           0.239  
G03  22337474.115      -16933.631        -505.511           0.255  
G04  23587590.612      -66168.206       -2119.020           0.244  
G05  22529983.516       66624.275        2045.460           0.255  
G06  20628645.008      -11753.404        -485.516           0.255  
G07  23388626.059      -28521.439       -1296.990           0.248  
> 2023 05 18 00 00 47.7688020  0  6                     
G02  24260090.472      121200.957        2907.529           0.239  
G03  22337484.021      -16984.219        -506.508           0.255  
G04  23587645.696      -66380.033       -2119.579           0.244  
G05  22529931.877       66828.829        2045.896           0.255  
G06  20628658.989      -11801.975        -485.843           0.255  
G07  23388659.278      -28651.159       -1297.376           0.248  
> 2023 05 18 00 00 47.8688020  0  6                     
G02  24260016.706      121491.541        2906.443           0.239  
G03  22337498.764      -17034.823        -505.755           0.255  
G04  23587699.259      -66591.873       -2119.236           0.244  
G05  22529879.280       67033.381        2044.857           0.255  
G06  20628670.333      -11850.538        -485.404           0.255  
G07  23388692.101      -28780.885       -1297.263           0.248  
> 2023 05 18 00 00 47.9688020  0  6                     
G02  24259941.980      121782.139        2921.709           0.239  
G03  22337508.089      -17085.423        -506.159           0.255  
G04  23587753.837      -66803.700       -2118.847           0.244  
G05  22529827.086       67237.931        2045.743           0.255  
G06  20628683.803      -11899.115        -485.745           0.255  
G07  23388725.212      -28910.697       -1298.038           0.248  
> 2023 05 18 00 00 48.0688020  0  6                     
G02  24259869.495      122072.736        2905.970           0.239  
G03  22337523.394      -17136.028        -505.828           0.255  
G04  23587806.477      -67015.748       -2147.280           0.244  
G05  22529774.812       67442.477        2045.586           0.255  
G06  20628695.265      -11947.690        -485.753           0.255  
G07  23388758.346      -29040.324       -1296.531           0.248  
> 2023 05 18 00 00 48.1688020  0  6                     
G02  24259795.136      122363.340        2905.782           0.239  
G03  22337537.734      -17186.643        -506.898           0.255  
G04  23587861.044      -67227.544       -2110.075           0.244  
G05  22529722.743       67647.030        2046.507           0.255  
G06  20628707.212      -11996.273        -485.136           0.255  
G07  23388791.650      -29170.062       -1297.360           0.248  
> 2023 05 18 00 00 48.2688020  0  6                     
