     3.03           OBSERVATION DATA    M: Mixed            RINEX VERSION / TYPE
GNSS-SDRLIB v1.1                        20230627 092825 UTC PGM / RUN BY / DATE 
                                                            MARKER NAME         
                                                            MARKER NUMBER       
                                                            MARKER TYPE         
                                                            OBSERVER / AGENCY   
GNSS-SDRLIB         GNSS-SDRLIB         1.1                 REC # / TYPE / VERS 
                                                            ANT # / TYPE        
        0.0000        0.0000        0.0000                  APPROX POSITION XYZ 
        0.0000        0.0000        0.0000                  ANTENNA: DELTA H/E/N
G    4 C5A L5A D5A S5A                                      SYS / # / OBS TYPES 
R    4 C5A L5A D5A S5A                                      SYS / # / OBS TYPES 
E    4 C5A L5A D5A S5A                                      SYS / # / OBS TYPES 
J    4 C5A L5A D5A S5A                                      SYS / # / OBS TYPES 
S    4 C5A L5A D5A S5A                                      SYS / # / OBS TYPES 
C    4 C5A L5A D5A S5A                                      SYS / # / OBS TYPES 
I    4 C5A L5A D5A S5A                                      SYS / # / OBS TYPES 
  1970    01    01    00    00   00.0000000     GPS         TIME OF FIRST OBS   
  1970    01    01    00    00   00.0000000     GPS         TIME OF LAST OBS    
G L5A  0.00000                                              SYS / PHASE SHIFT   
R L5A  0.00000                                              SYS / PHASE SHIFT   
E L5A  0.00000                                              SYS / PHASE SHIFT   
J L5A  0.00000                                              SYS / PHASE SHIFT   
S L5A  0.00000                                              SYS / PHASE SHIFT   
C L5A  0.00000                                              SYS / PHASE SHIFT   
I L5A                                                       SYS / PHASE SHIFT   
  0                                                         GLONASS SLOT / FRQ #
 C1C    0.000 C1P    0.000 C2C    0.000 C2P    0.000        GLONASS COD/PHS/BIS 
                                                            END OF HEADER       
> 2019 05 08 04 25 48.0688020  0  1                     
I03  20626540.770        -795.590         -20.607           0.255  
> 2019 05 08 04 25 48.0688020  0  2                     
I03  20626540.770        -795.590         -20.607           0.255  
I06  22337076.013        1461.881          36.793           0.255  
> 2019 05 08 04 25 48.0688020  0  4                     
I02  20905947.919         224.055           4.125           0.255  
I03  20626540.770        -795.590         -20.607           0.255  
I04  21950118.836        -355.902         -12.160           0.255  
I06  22337076.013        1461.881          36.793           0.255  
> 2019 05 08 04 25 48.0688020  0  6                     
I02  20905947.919         224.055           4.125           0.255  
I03  20626540.770        -795.590         -20.607           0.255  
I04  21950118.836        -355.902         -12.160           0.255  
I05  23740849.065        8964.097         216.992           0.255  
I06  22337076.013        1461.881          36.793           0.255  
I07  23673411.202        -925.507         -18.944           0.255  
> 2019 05 08 04 25 48.1688020  0  6                     
I02  20905948.580         224.643           6.460           0.255  
I03  20626544.332        -797.503         -17.391           0.255  
I04  21950129.071        -356.714         -12.525           0.255  
I05  23740843.083        8986.091         221.342           0.255  
I06  22337082.837        1465.625          37.410           0.255  
I07  23673407.063        -927.186         -13.888           0.255  
> 2019 05 08 04 25 48.2688020  0  6                     
I02  20905949.885         225.184           5.135           0.255  
I03  20626536.594        -799.513         -22.819           0.255  
I04  21950120.432        -357.589         -10.506           0.255  
I05  23740836.534        9008.008         218.284           0.255  
I06  22337084.886        1469.331          37.806           0.255  
I07  23673412.440        -929.021         -20.490           0.255  
> 2019 05 08 04 25 48.3688020  0  6                     
I02  20905950.796         225.731           8.908           0.255  
I03  20626538.791        -801.477         -14.393           0.255  
I04  21950128.038        -358.532          -8.848           0.255  
I05  23740833.864        9029.920         223.455           0.255  
I06  22337082.441        1473.021          40.546           0.255  
I07  23673406.374        -930.746          -4.800           0.255  
> 2019 05 08 04 25 48.4688020  0  6                     
I02  20905950.278         226.187           3.950           0.255  
I03  20626545.155        -803.543         -25.225           0.255  
I04  21950120.688        -359.447          -6.332           0.255  
I05  23740826.497        9051.775         215.452           0.255  
I06  22337080.200        1476.629          32.064           0.255  
I07  23673410.840        -932.654         -18.212           0.255  
> 2019 05 08 04 25 48.5688020  0  6                     
I02  20905944.537         226.715           6.512           0.255  
I03  20626538.213        -805.493         -17.268           0.255  
I04  21950127.914        -360.311          -6.727           0.255  
I05  23740817.436        9073.727         220.846           0.255  
I06  22337079.954        1480.409          38.338           0.255  
I07  23673407.168        -934.428         -19.756           0.255  
> 2019 05 08 04 25 48.6688020  0  6                     
I02  20905948.550         227.286           8.950           0.255  
I03  20626544.095        -807.466         -18.911           0.255  
I04  21950122.845        -361.221          -5.612           0.255  
I05  23740815.457        9095.671         219.845           0.255  
I06  22337076.320        1484.097          33.587           0.255  
I07  23673411.518        -936.103         -18.202           0.255  
> 2019 05 08 04 25 48.7688020  0  6                     
I02  20905945.146         227.777           0.577           0.255  
I03  20626536.375        -809.430         -17.176           0.255  
I04  21950133.106        -362.061          -9.203           0.255  
I05  23740808.322        9117.589         218.295           0.255  
I06  22337073.868        1487.823          40.059           0.255  
I07  23673407.482        -937.950         -20.097           0.255  
> 2019 05 08 04 25 48.8688020  0  6                     
I02  20905949.672         228.431          11.600           0.255  
I03  20626543.066        -811.399         -16.088           0.255  
I04  21950128.802        -362.948          -7.831           0.255  
I05  23740805.478        9139.542         222.039           0.255  
I06  22337072.965        1491.542          38.273           0.255  
I07  23673408.415        -939.693         -14.569           0.255  
> 2019 05 08 04 25 48.9688020  0  6                     
I02  20905948.584         228.955           3.533           0.255  
I03  20626536.622        -813.375         -18.358           0.255  
I04  21950122.381        -363.828          -9.519           0.255  
I05  23740797.178        9161.480         217.927           0.255  
I06  22337073.261        1495.264          36.496           0.255  
I07  23673403.936        -941.525         -30.652           0.255  
> 2019 05 08 04 25 49.0688020  0  6                     
I02  20905946.488         229.504           5.597           0.255  
I03  20626544.330        -815.315         -14.468           0.255  
I04  21950119.230        -364.706         -11.995           0.255  
I05  23740792.613        9183.428         220.590           0.255  
I06  22337077.037        1498.966          38.240           0.255  
I07  23673411.947        -943.224         -20.422           0.255  
> 2019 05 08 04 25 49.1688020  0  6                     
I02  20905946.217         230.048           5.096           0.255  
I03  20626541.079        -817.298         -18.408           0.255  
I04  21950118.563        -365.562          -7.154           0.255  
I05  23740786.430        9205.317         217.823           0.255  
I06  22337074.226        1502.687          35.030           0.255  
I07  23673411.473        -945.002         -10.341           0.255  
> 2019 05 08 04 25 49.2688020  0  6                     
I02  20905947.976         230.620           8.222           0.255  
I03  20626537.878        -819.273         -16.402           0.255  
I04  21950127.825        -366.418          -4.176           0.255  
I05  23740782.424        9227.299         223.127           0.255  
I06  22337073.737        1506.395          34.169           0.255  
I07  23673410.337        -946.731         -15.095           0.255  
> 2019 05 08 04 25 49.3688020  0  6                     
I02  20905946.284         230.383         -55.104           0.255  
I03  20626547.796        -821.272         -21.654           0.255  
I04  21950122.752        -368.131        -215.805           0.255  
I05  23740776.662        9249.216         220.030           0.255  
I06  22337071.313        1510.099          38.158           0.255  
I07  23673413.053        -948.507          -9.693           0.255  
> 2019 05 08 04 25 49.4688020  0  6                     
I02  20905948.906         231.625           9.757           0.255  
I03  20626535.741        -823.315         -22.435           0.255  
I04  21950131.210        -368.237          -8.599           0.255  
I05  23740769.416        9271.091         218.988           0.255  
I06  22337066.109        1513.747          36.828           0.255  
I07  23673411.435        -950.365         -16.250           0.255  
> 2019 05 08 04 25 49.5688020  0  6                     
I02  20905949.122         232.187           8.881           0.255  
I03  20626545.452        -825.271         -18.555           0.255  
I04  21950128.142        -369.123         -12.804           0.255  
I05  23740763.622        9293.043         218.758           0.255  
I06  22337067.615        1517.495          34.080           0.255  
I07  23673408.636        -952.147         -20.279           0.255  
> 2019 05 08 04 25 49.6688020  0  6                     
I02  20905947.726         232.713           9.526           0.255  
I03  20626541.981        -827.237         -19.456           0.255  
I04  21950128.054        -370.031          -8.907           0.255  
I05  23740757.023        9314.978         221.553           0.255  
I06  22337072.333        1521.199          36.040           0.255  
I07  23673406.764        -953.897         -22.608           0.255  
> 2019 05 08 04 25 49.7688020  0  6                     
I02  20905947.919         233.320          11.659           0.255  
I03  20626537.565        -829.176         -22.603           0.255  
I04  21950123.581        -370.780          -1.984           0.255  
I05  23740754.077        9336.980         222.247           0.255  
I06  22337066.624        1524.985          39.368           0.255  
I07  23673406.471        -955.630         -15.123           0.255  
> 2019 05 08 04 25 49.8688020  0  6                     
I02  20905948.686         233.867           8.940           0.255  
I03  20626536.586        -831.126         -19.268           0.255  
I04  21950124.364        -371.665          -3.088           0.255  
I05  23740744.071        9358.919         221.859           0.255  
I06  22337064.188        1528.715          40.190           0.255  
I07  23673406.168        -957.463         -20.371           0.255  
> 2019 05 08 04 25 49.9688020  0  6                     
I02  20905947.602         234.488          11.122           0.255  
I03  20626537.121        -833.051         -17.575           0.255  
I04  21950119.026        -372.471          -6.239           0.255  
I05  23740742.829        9380.888         221.767           0.255  
I06  22337061.943        1532.455          38.297           0.255  
I07  23673406.359        -959.101         -14.047           0.255  
> 2019 05 08 04 25 50.0688020  0  6                     
I02  20905947.186         235.039           1.151           0.255  
I03  20626536.201        -835.003         -19.456           0.255  
I04  21950130.918        -373.421         -13.097           0.255  
I05  23740734.139        9402.849         219.625           0.255  
I06  22337063.207        1536.191          36.603           0.255  
I07  23673407.748        -960.826         -20.225           0.255  
> 2019 05 08 04 25 50.1688020  0  6                     
I02  20905947.286         235.657          10.244           0.255  
I03  20626536.894        -836.948         -19.693           0.255  
I04  21950122.817        -374.167          -6.734           0.255  
I05  23740726.888        9424.867         224.063           0.255  
I06  22337062.192        1539.960          37.541           0.255  
I07  23673409.281        -962.564         -12.790           0.255  
> 2019 05 08 04 25 50.2688020  0  6                     
I02  20905947.185         236.238           3.218           0.255  
I03  20626538.510        -838.876         -18.388           0.255  
I04  21950119.169        -375.013          -8.481           0.255  
I05  23740724.839        9446.817         219.715           0.255  
I06  22337065.066        1543.700          36.508           0.255  
I07  23673408.213        -964.281         -14.145           0.255  
> 2019 05 08 04 25 50.3688020  0  6                     
I02  20905947.998         236.688           5.810           0.255  
I03  20626538.865        -840.853         -16.367           0.255  
I04  21950130.068        -375.896          -1.941           0.255  
I05  23740717.548        9468.744         221.790           0.255  
I06  22337061.792        1547.415          40.628           0.255  
I07  23673408.829        -966.171         -19.208           0.255  
> 2019 05 08 04 25 50.4688020  0  6                     
I02  20905948.623         237.284           1.563           0.255  
I03  20626537.594        -842.856         -21.296           0.255  
I04  21950127.992        -376.806          -7.215           0.255  
I05  23740712.031        9490.671         216.669           0.255  
I06  22337057.662        1551.074          36.200           0.255  
I07  23673408.679        -967.892         -15.976           0.255  
> 2019 05 08 04 25 50.5688020  0  6                     
I02  20905947.241         237.889           7.282           0.255  
I03  20626539.481        -844.794         -20.980           0.255  
I04  21950121.106        -377.667          -8.251           0.255  
I05  23740711.151        9512.631         218.727           0.255  
I06  22337059.166        1554.870          40.323           0.255  
I07  23673403.596        -969.592         -15.771           0.255  
> 2019 05 08 04 25 50.6688020  0  6                     
I02  20905946.388         238.473           2.520           0.255  
I03  20626539.160        -846.654         -15.535           0.255  
I04  21950122.766        -378.413          -0.697           0.255  
I05  23740705.931        9534.651         222.732           0.255  
I06  22337059.580        1558.607          38.444           0.255  
I07  23673401.617        -971.345         -11.714           0.255  
> 2019 05 08 04 25 50.7688020  0  6                     
I02  20905944.270         239.089           7.055           0.255  
I03  20626542.873        -848.658         -20.161           0.255  
I04  21950124.723        -379.351         -14.496           0.255  
I05  23740697.612        9556.619         220.358           0.255  
I06  22337060.003        1562.383          39.004           0.255  
I07  23673403.777        -973.043         -15.782           0.255  
> 2019 05 08 04 25 50.8688020  0  6                     
I02  20905946.258         239.685          11.979           0.255  
I03  20626545.540        -850.577         -15.337           0.255  
I04  21950120.420        -380.127          -3.353           0.255  
I05  23740693.024        9578.609         227.731           0.255  
I06  22337054.056        1566.116          42.888           0.255  
I07  23673404.419        -974.786          -8.996           0.255  
> 2019 05 08 04 25 50.9688020  0  6                     
I02  20905949.942         240.266           3.393           0.255  
I03  20626546.923        -852.530         -18.795           0.255  
I04  21950130.430        -381.014         -13.219           0.255  
I05  23740689.400        9600.585         220.072           0.255  
I06  22337054.262        1569.855          38.580           0.255  
I07  23673404.460        -976.535         -15.609           0.255  
> 2019 05 08 04 25 51.0688020  0  6                     
I02  20905945.264         241.825          66.610           0.255  
I03  20626537.985        -854.437         -16.485           0.255  
I04  21950128.824        -382.132        -240.495           0.255  
I05  23740681.810        9622.583         223.316           0.255  
I06  22337056.806        1573.614          35.157           0.255  
I07  23673404.519        -978.243         -11.659           0.255  
> 2019 05 08 04 25 51.1688020  0  6                     
I02  20905945.058         241.481           1.046           0.255  
I03  20626539.043        -856.368         -17.636           0.255  
I04  21950127.163        -382.648         -10.183           0.255  
I05  23740676.118        9644.546         215.382           0.255  
I06  22337056.689        1577.383          36.274           0.255  
I07  23673402.830        -980.036         -24.622           0.255  
> 2019 05 08 04 25 51.2688020  0  6                     
I02  20905944.906         242.092           8.037           0.255  
I03  20626542.183        -858.301         -17.346           0.255  
I04  21950127.430        -383.454          -3.726           0.255  
I05  23740670.942        9666.568         224.801           0.255  
I06  22337054.562        1581.115          35.994           0.255  
I07  23673405.297        -981.739         -17.990           0.255  
> 2019 05 08 04 25 51.3688020  0  6                     
I02  20905944.765         242.677          14.082           0.255  
I03  20626537.916        -860.239         -13.309           0.255  
I04  21950125.785        -384.238           1.053           0.255  
I05  23740667.436        9688.548         225.543           0.255  
I06  22337054.777        1584.909          40.751           0.255  
I07  23673407.617        -983.471         -15.013           0.255  
> 2019 05 08 04 25 51.4688020  0  6                     
I02  20905944.352         243.229           5.085           0.255  
I03  20626542.068        -862.188         -19.242           0.255  
I04  21950124.212        -385.207         -10.322           0.255  
I05  23740661.132        9710.514         219.868           0.255  
I06  22337054.953        1588.610          36.134           0.255  
I07  23673410.174        -985.215         -15.321           0.255  
> 2019 05 08 04 25 51.5688020  0  6                     
I02  20905945.927         243.845           2.530           0.255  
I03  20626548.268        -864.111         -19.141           0.255  
I04  21950120.469        -385.938          -9.964           0.255  
I05  23740655.299        9732.527         217.618           0.255  
I06  22337049.528        1592.401          34.609           0.255  
I07  23673414.530        -986.955         -26.828           0.255  
> 2019 05 08 04 25 51.6688020  0  6                     
I02  20905946.429         244.410           1.362           0.255  
I03  20626541.488        -866.108         -16.268           0.255  
I04  21950121.370        -386.835          -9.966           0.255  
I05  23740648.161        9754.436         217.860           0.255  
I06  22337047.947        1596.085          39.149           0.255  
I07  23673403.978        -988.678         -23.605           0.255  
> 2019 05 08 04 25 51.7688020  0  6                     
I02  20905945.571         245.000           6.529           0.255  
I03  20626536.394        -868.078         -17.342           0.255  
I04  21950119.500        -387.702         -12.064           0.255  
I05  23740645.770        9776.416         219.425           0.255  
I06  22337047.443        1599.835          38.930           0.255  
I07  23673410.876        -990.424         -15.906           0.255  
> 2019 05 08 04 25 51.8688020  0  6                     
I02  20905944.304         245.496           6.320           0.255  
I03  20626540.987        -870.090         -21.464           0.255  
I04  21950133.660        -388.670         -10.008           0.255  
I05  23740636.696        9798.277         217.868           0.255  
I06  22337049.726        1603.506          40.549           0.255  
I07  23673406.581        -992.277          -9.133           0.255  
> 2019 05 08 04 25 51.9688020  0  6                     
I02  20905944.944         246.072           5.692           0.255  
I03  20626548.127        -872.041         -17.162           0.255  
I04  21950130.429        -389.539          -7.854           0.255  
I05  23740633.459        9820.272         219.393           0.255  
I06  22337047.976        1607.231          40.343           0.255  
I07  23673403.179        -994.046         -14.297           0.255  
> 2019 05 08 04 25 52.0688020  0  6                     
I02  20905944.290         246.645           7.593           0.255  
I03  20626543.877        -874.008         -18.478           0.255  
I04  21950128.141        -390.378         -13.227           0.255  
I05  23740628.863        9842.246         218.297           0.255  
I06  22337046.153        1610.946          36.475           0.255  
I07  23673402.917        -995.856         -25.559           0.255  
> 2019 05 08 04 25 52.1688020  0  6                     
I02  20905943.595         247.182           6.938           0.255  
I03  20626539.407        -875.973         -17.450           0.255  
I04  21950132.435        -391.189          -3.625           0.255  
I05  23740622.668        9864.205         222.298           0.255  
I06  22337043.905        1614.667          39.793           0.255  
I07  23673403.443        -997.591         -20.348           0.255  
> 2019 05 08 04 25 52.2688020  0  6                     
I02  20905946.967         247.726           0.522           0.255  
I03  20626547.411        -877.952         -18.632           0.255  
I04  21950132.732        -392.024          -2.392           0.255  
I05  23740616.683        9886.132         217.553           0.255  
I06  22337041.852        1618.400          -8.120           0.255  
I07  23673406.507        -999.336         -22.724           0.255  
> 2019 05 08 04 25 52.3688020  0  6                     
I02  20905943.819         248.296           9.859           0.255  
I03  20626542.709        -879.963         -19.243           0.255  
I04  21950119.234        -393.032         106.262           0.255  
I05  23740608.895        9908.045         223.829           0.255  
I06  22337043.278        1622.044          39.824           0.255  
I07  23673415.176       -1001.228         -11.447           0.255  
> 2019 05 08 04 25 52.4688020  0  6                     
I02  20905945.823         248.822           5.410           0.255  
I03  20626538.567        -881.999         -21.946           0.255  
I04  21950131.693        -393.901          -6.638           0.255  
I05  23740602.231        9929.991         222.650           0.255  
I06  22337043.094        1625.700          36.127           0.255  
I07  23673408.615       -1002.958         -18.375           0.255  
> 2019 05 08 04 25 52.5688020  0  6                     
I02  20905945.147         249.365           5.886           0.255  
I03  20626547.763        -883.976         -20.916           0.255  
I04  21950129.223        -394.785         -14.396           0.255  
I05  23740595.406        9951.890         219.374           0.255  
I06  22337040.693        1629.393          34.753           0.255  
I07  23673407.124       -1004.775         -22.613           0.255  
> 2019 05 08 04 25 52.6688020  0  6                     
I02  20905946.511         249.918           8.016           0.255  
I03  20626544.286        -885.955         -17.678           0.255  
I04  21950123.636        -395.607          -8.757           0.255  
I05  23740590.388        9973.849         223.427           0.255  
I06  22337039.512        1633.110          38.611           0.255  
I07  23673408.646       -1006.525         -19.559           0.255  
> 2019 05 08 04 25 52.7688020  0  6                     
I02  20905947.478         250.453           7.762           0.255  
I03  20626540.860        -887.962         -22.055           0.255  
I04  21950120.038        -396.522         -11.533           0.255  
I05  23740586.977        9995.766         218.610           0.255  
I06  22337039.141        1636.806          36.383           0.255  
I07  23673403.896       -1008.305         -15.151           0.255  
> 2019 05 08 04 25 52.8688020  0  6                     
I02  20905944.388         250.998           9.283           0.255  
I03  20626539.154        -889.939         -13.966           0.255  
I04  21950121.650        -397.444          -8.102           0.255  
I05  23740582.254       10017.701         223.677           0.255  
I06  22337035.594        1640.500          39.818           0.255  
I07  23673402.154       -1010.014          -4.441           0.255  
> 2019 05 08 04 25 52.9688020  0  6                     
I02  20905943.063         251.532           6.435           0.255  
I03  20626547.167        -891.880         -20.485           0.255  
I04  21950121.052        -400.068        -202.255           0.255  
I05  23740574.865       10039.694         220.947           0.255  
I06  22337037.513        1644.781         110.422           0.255  
I07  23673411.067       -1011.822         -13.178           0.255  
> 2019 05 08 04 25 53.0688020  0  6                     
I02  20905943.161         252.124           7.719           0.255  
I03  20626546.338        -893.838         -19.994           0.255  
I04  21950119.259        -399.155          -2.424           0.255  
I05  23740572.248       10061.635         221.331           0.255  
I06  22337034.717        1647.962          37.875           0.255  
I07  23673408.464       -1013.610         -15.260           0.255  
> 2019 05 08 04 25 53.1688020  0  6                     
I02  20905945.189         252.723           5.091           0.255  
I03  20626545.431        -895.782         -17.786           0.255  
I04  21950120.601        -399.967          -9.607           0.255  
I05  23740565.761       10083.625         222.109           0.255  
I06  22337034.506        1651.700          34.345           0.255  
I07  23673404.820       -1015.294         -16.577           0.255  
> 2019 05 08 04 25 53.2688020  0  6                     
I02  20905945.684         253.239           1.540           0.255  
I03  20626544.397        -897.798         -20.702           0.255  
I04  21950119.737        -400.800          -8.815           0.255  
I05  23740557.543       10105.567         218.654           0.255  
I06  22337034.828        1655.419          40.222           0.255  
I07  23673405.685       -1017.091         -12.155           0.255  
> 2019 05 08 04 25 53.3688020  0  6                     
I02  20905942.333         253.818           8.787           0.255  
I03  20626544.277        -899.747         -14.281           0.255  
I04  21950125.609        -401.722          -5.861           0.255  
I05  23740549.216       10127.519         222.492           0.255  
I06  22337035.163        1659.140          40.173           0.255  
I07  23673402.603       -1018.889         -21.151           0.255  
> 2019 05 08 04 25 53.4688020  0  6                     
I02  20905941.621         254.343           4.086           0.255  
I03  20626542.804        -901.779         -22.585           0.255  
I04  21950124.815        -402.606         -11.680           0.255  
I05  23740546.443       10149.427         213.621           0.255  
I06  22337031.096        1662.834          37.259           0.255  
I07  23673411.634       -1020.689         -18.119           0.255  
> 2019 05 08 04 25 53.5688020  0  6                     
I02  20905943.336         254.993           8.619           0.255  
I03  20626541.330        -903.690         -21.217           0.255  
I04  21950125.035        -403.434          -8.751           0.255  
I05  23740539.797       10171.466         220.135           0.255  
I06  22337029.810        1666.582          35.646           0.255  
I07  23673403.808       -1022.407         -19.710           0.255  
> 2019 05 08 04 25 53.6688020  0  6                     
I02  20905941.887         255.518           5.627           0.255  
I03  20626543.168        -905.696         -19.932           0.255  
I04  21950123.691        -404.350          -9.486           0.255  
I05  23740536.975       10193.391         216.379           0.255  
I06  22337032.795        1670.275          35.926           0.255  
I07  23673406.571       -1024.190         -24.763           0.255  
> 2019 05 08 04 25 53.7688020  0  6                     
I02  20905944.592         256.060           8.821           0.255  
I03  20626541.467        -907.628         -16.315           0.255  
I04  21950121.452        -405.180          -2.860           0.255  
I05  23740529.718       10215.388         222.530           0.255  
I06  22337028.172        1674.019          40.336           0.255  
I07  23673404.914       -1025.987         -23.494           0.255  
> 2019 05 08 04 25 53.8688020  0  6                     
I02  20905941.985         256.618           7.700           0.255  
I03  20626541.679        -909.606         -18.515           0.255  
I04  21950125.651        -406.057          -4.813           0.255  
I05  23740523.529       10237.348         222.851           0.255  
I06  22337031.708        1677.715          38.647           0.255  
I07  23673404.893       -1027.733         -18.367           0.255  
> 2019 05 08 04 25 53.9688020  0  6                     
I02  20905942.016         257.142           4.909           0.255  
I03  20626544.676        -911.538         -15.632           0.255  
I04  21950122.845        -406.901          -7.930           0.255  
I05  23740518.750       10259.329         223.253           0.255  
I06  22337027.527        1681.437          37.649           0.255  
I07  23673402.976       -1029.486         -17.677           0.255  
> 2019 05 08 04 25 54.0688020  0  6                     
I02  20905941.078         257.768           8.222           0.255  
I03  20626545.795        -913.516         -20.784           0.255  
I04  21950124.145        -407.775         -12.395           0.255  
I05  23740511.046       10281.257         217.802           0.255  
I06  22337029.182        1685.174          34.143           0.255  
I07  23673405.165       -1031.140         -10.860           0.255  
> 2019 05 08 04 25 54.1688020  0  6                     
I02  20905939.350         258.364          11.440           0.255  
I03  20626536.608        -915.479         -18.697           0.255  
I04  21950121.583        -408.584          -9.211           0.255  
I05  23740506.652       10303.268         221.180           0.255  
I06  22337026.689        1688.915          38.728           0.255  
I07  23673405.909       -1032.976         -13.785           0.255  
> 2019 05 08 04 25 54.2688020  0  6                     
I02  20905938.720         258.979          11.912           0.255  
I03  20626539.694        -917.417         -21.503           0.255  
I04  21950123.602        -409.436         -12.797           0.255  
I05  23740500.266       10325.291         221.806           0.255  
I06  22337025.692        1692.687          38.846           0.255  
I07  23673406.626       -1034.606          -8.371           0.255  
> 2019 05 08 04 25 54.3688020  0  6                     
I02  20905940.958         259.495           5.726           0.255  
I03  20626543.051        -919.417         -21.971           0.255  
I04  21950121.323        -410.259          -3.656           0.255  
I05  23740497.076       10347.199         220.477           0.255  
I06  22337025.659        1696.385          39.192           0.255  
I07  23673410.034       -1036.449          -8.474           0.255  
> 2019 05 08 04 25 54.4688020  0  6                     
I02  20905938.772         260.051           4.603           0.255  
I03  20626548.012        -921.365         -18.998           0.255  
I04  21950132.047        -411.232         -12.317           0.255  
I05  23740491.166       10369.138         215.779           0.255  
I06  22337030.225        1700.075          35.557           0.255  
I07  23673414.138       -1038.204         -10.778           0.255  
> 2019 05 08 04 25 54.5688020  0  6                     
I02  20905939.575         260.615           5.928           0.255  
I03  20626541.363        -923.310         -18.416           0.255  
I04  21950119.025        -412.060         -13.555           0.255  
I05  23740485.994       10391.145         217.889           0.255  
I06  22337026.342        1703.804          35.032           0.255  
I07  23673403.789       -1040.055         -23.481           0.255  
> 2019 05 08 04 25 54.6688020  0  6                     
I02  20905939.503         261.189          10.605           0.255  
I03  20626544.259        -925.243         -15.635           0.255  
I04  21950123.374        -412.844          -8.516           0.255  
I05  23740481.560       10413.126         220.787           0.255  
I06  22337022.530        1707.570          40.788           0.255  
I07  23673403.140       -1041.770         -14.676           0.255  
> 2019 05 08 04 25 54.7688020  0  6                     
I02  20905940.740         261.819           4.564           0.255  
I03  20626549.797        -927.216         -21.269           0.255  
I04  21950122.709        -413.684          -6.648           0.255  
I05  23740476.269       10435.129         217.564           0.255  
I06  22337020.296        1711.289          34.486           0.255  
I07  23673403.984       -1043.528         -18.377           0.255  
> 2019 05 08 04 25 54.8688020  0  6                     
I02  20905940.421         262.388           6.654           0.255  
I03  20626539.821        -929.169         -14.306           0.255  
I04  21950130.668        -414.533          -4.056           0.255  
I05  23740467.484       10457.122         226.181           0.255  
I06  22337018.747        1715.013          41.192           0.255  
I07  23673408.377       -1045.265         -10.540           0.255  
> 2019 05 08 04 25 54.9688020  0  6                     
I02  20905943.753         262.991           4.552           0.255  
I03  20626543.129        -931.093         -18.868           0.255  
I04  21950129.553        -415.329          -1.770           0.255  
I05  23740461.549       10479.098         218.763           0.255  
I06  22337015.297        1718.754          35.972           0.255  
I07  23673414.891       -1046.976         -13.055           0.255  
> 2019 05 08 04 25 55.0688020  0  6                     
I02  20905941.274         263.553           2.540           0.255  
I03  20626548.366        -933.054         -20.210           0.255  
I04  21950122.641        -416.197          -3.225           0.255  
I05  23740458.943       10501.105         221.242           0.255  
I06  22337016.673        1722.492          36.222           0.255  
I07  23673401.995       -1048.749         -24.328           0.255  
> 2019 05 08 04 25 55.1688020  0  6                     
I02  20905942.784         264.187           5.136           0.255  
I03  20626539.412        -934.940         -16.387           0.255  
I04  21950124.583        -417.043          -6.742           0.255  
I05  23740451.031       10523.130         220.824           0.255  
I06  22337016.609        1726.283          37.630           0.255  
I07  23673408.105       -1050.428         -16.012           0.255  
> 2019 05 08 04 25 55.2688020  0  6                     
I02  20905941.613         264.773           3.018           0.255  
I03  20626547.833        -936.942         -22.186           0.255  
I04  21950125.980        -417.885          -6.241           0.255  
I05  23740444.671       10545.077         217.992           0.255  
I06  22337015.802        1729.997          33.636           0.255  
I07  23673414.678       -1052.186         -12.394           0.255  
> 2019 05 08 04 25 55.3688020  0  6                     
I02  20905939.120         265.317           7.971           0.255  
I03  20626540.721        -938.928         -18.831           0.255  
I04  21950132.979        -418.748          -3.520           0.255  
I05  23740437.185       10567.023         222.432           0.255  
I06  22337013.240        1733.697          42.320           0.255  
I07  23673406.176       -1053.990          -6.856           0.255  
> 2019 05 08 04 25 55.4688020  0  6                     
I02  20905943.497         265.803           3.983           0.255  
I03  20626547.394        -940.975         -23.742           0.255  
I04  21950119.239        -419.721         -12.908           0.255  
I05  23740434.761       10588.933         219.192           0.255  
I06  22337001.213        1737.312          31.395           0.255  
I07  23673408.187       -1055.910         -20.266           0.255  
> 2019 05 08 04 25 55.5688020  0  6                     
I02  20905942.269         266.330           6.072           0.255  
I03  20626541.918        -942.978         -18.528           0.255  
I04  21950132.455        -420.575          -8.331           0.255  
I05  23740430.403       10610.852         221.694           0.255  
I06  22337009.072        1741.016          36.092           0.255  
I07  23673413.820       -1057.649         -20.251           0.255  
> 2019 05 08 04 25 55.6688020  0  6                     
I02  20905938.064         266.822           2.642           0.255  
I03  20626550.240        -944.951         -19.342           0.255  
I04  21950122.091        -421.532         -13.659           0.255  
I05  23740423.397       10632.809         220.463           0.255  
I06  22337002.364        1744.733          38.263           0.255  
I07  23673407.813       -1059.424         -11.183           0.255  
> 2019 05 08 04 25 55.7688020  0  6                     
I02  20905939.477         267.442           2.745           0.255  
I03  20626543.573        -946.848         -15.913           0.255  
I04  21950125.863        -422.258          -5.916           0.255  
I05  23740417.872       10654.838         222.870           0.255  
I06  22337008.272        1748.478          38.262           0.255  
I07  23673403.996       -1061.183         -17.188           0.255  
> 2019 05 08 04 25 55.8688020  0  6                     
I02  20905941.017         268.097          10.182           0.255  
I03  20626537.862        -948.802         -15.997           0.255  
I04  21950129.759        -423.142          -8.668           0.255  
I05  23740413.592       10676.869         226.329           0.255  
I06  22337000.155        1751.285         -46.253           0.255  
I07  23673405.507       -1062.931         -15.007           0.255  
> 2019 05 08 04 25 55.9688020  0  6                     
I02  20905939.201         268.721           7.102           0.255  
I03  20626548.009        -950.711         -18.453           0.255  
I04  21950120.097        -423.906          -4.055           0.255  
I05  23740408.300       10698.907         227.052           0.255  
I06  22337007.110        1756.015          40.447           0.255  
I07  23673412.580       -1064.602         -22.179           0.255  
> 2019 05 08 04 25 56.0688020  0  6                     
I02  20905937.848         269.323           3.756           0.255  
I03  20626542.922        -952.596         -18.565           0.255  
I04  21950121.635        -424.718         -10.025           0.255  
I05  23740402.543       10720.932         222.020           0.255  
I06  22337002.206        1759.818          40.951           0.255  
I07  23673405.897       -1066.294         -21.284           0.255  
> 2019 05 08 04 25 56.1688020  0  6                     
I02  20905939.646         269.996           6.820           0.255  
I03  20626538.159        -954.489         -20.071           0.255  
I04  21950126.222        -425.454          -1.706           0.255  
I05  23740396.390       10742.985         221.179           0.255  
I06  22337004.423        1763.582          35.590           0.255  
I07  23673407.861       -1067.955         -15.197           0.255  
> 2019 05 08 04 25 56.2688020  0  6                     
I02  20905940.011         270.677          13.633           0.255  
I03  20626546.927        -956.367         -18.821           0.255  
I04  21950130.156        -426.308          -9.509           0.255  
I05  23740390.871       10765.045         221.958           0.255  
I06  22337004.587        1767.406          39.610           0.255  
I07  23673411.656       -1069.630          -9.324           0.255  
> 2019 05 08 04 25 56.3688020  0  6                     
I02  20905940.721         271.198          14.320           0.255  
I03  20626543.866        -958.359         -20.825           0.255  
I04  21950119.649        -427.168         -12.061           0.255  
I05  23740384.437       10787.009         224.068           0.255  
I06  22337003.383        1771.121          39.848           0.255  
I07  23673404.482       -1071.464          -9.743           0.255  
> 2019 05 08 04 25 56.4688020  0  6                     
I02  20905938.961         271.670           6.012           0.255  
I03  20626540.889        -960.358         -20.064           0.255  
I04  21950127.914        -428.036         -13.777           0.255  
I05  23740378.904       10808.943         220.064           0.255  
I06  22337000.365        1774.805          38.667           0.255  
I07  23673407.952       -1073.199         -18.032           0.255  
> 2019 05 08 04 25 56.5688020  0  6                     
I02  20905936.922         272.299           7.201           0.255  
I03  20626549.253        -962.308         -21.331           0.255  
I04  21950118.939        -428.848         -13.187           0.255  
I05  23740374.122       10830.996         222.045           0.255  
I06  22337001.333        1778.553          37.679           0.255  
I07  23673402.304       -1074.851          -6.410           0.255  
> 2019 05 08 04 25 56.6688020  0  6                     
I02  20905938.272         272.819           8.278           0.255  
I03  20626545.402        -964.296         -20.209           0.255  
I04  21950121.344        -429.700          -6.089           0.255  
I05  23740368.855       10852.913         219.185           0.255  
I06  22337005.951        1782.243          37.925           0.255  
I07  23673408.659       -1076.724         -14.422           0.255  
> 2019 05 08 04 25 56.7688020  0  6                     
I02  20905940.791         273.425           5.739           0.255  
I03  20626542.938        -966.208         -19.692           0.255  
I04  21950124.642        -430.479          -2.808           0.255  
I05  23740360.798       10874.935         220.056           0.255  
I06  22337001.817        1785.993          37.327           0.255  
I07  23673415.759       -1078.431          -4.576           0.255  
> 2019 05 08 04 25 56.8688020  0  6                     
I02  20905940.135         273.946           3.147           0.255  
I03  20626541.376        -968.230         -20.313           0.255  
I04  21950135.439        -431.455          -4.276           0.255  
I05  23740356.059       10896.858         218.835           0.255  
I06  22337000.815        1789.684          39.242           0.255  
I07  23673409.170       -1080.253         -16.346           0.255  
> 2019 05 08 04 25 56.9688020  0  6                     
I02  20906013.561         274.542           5.101           0.255  
I03  20626625.870        -970.150         -15.640           0.255  
I04  21950196.993        -432.247          -0.611           0.255  
I05  23740427.922       10918.865         221.949           0.255  
I06  22337072.671        1793.410          37.315           0.255  
I07  23673478.746       -1082.031         -19.354           0.255  
> 2019 05 08 04 25 57.0688020  0  6                     
I02  20906014.297         275.122           1.120           0.255  
I03  20626621.983        -972.117         -19.973           0.255  
I04  21950202.071        -433.097          -6.240           0.255  
I05  23740418.893       10940.854         218.765           0.255  
I06  22337070.110        1797.150          35.721           0.255  
I07  23673490.050       -1083.810         -15.553           0.255  
> 2019 05 08 04 25 57.1688020  0  6                     
I02  20906012.145         275.766           6.497           0.255  
I03  20626620.973        -974.038         -16.298           0.255  
I04  21950193.111        -433.907          -5.445           0.255  
I05  23740413.953       10962.888         221.406           0.255  
I06  22337068.415        1800.908          38.007           0.255  
I07  23673483.441       -1085.484         -16.350           0.255  
> 2019 05 08 04 25 57.2688020  0  6                     
I02  20906012.893         276.387           8.936           0.255  
I03  20626619.956        -975.907         -14.549           0.255  
I04  21950197.362        -434.616          -5.120           0.255  
I05  23740410.739       10984.984         226.031           0.255  
I06  22337070.957        1804.726          41.771           0.255  
I07  23673479.438       -1087.182         -15.464           0.255  
> 2019 05 08 04 25 57.3688020  0  6                     
I02  20906010.470         277.042           8.421           0.255  
I03  20626616.828        -977.873         -15.972           0.255  
I04  21950205.787        -435.491           3.509           0.255  
I05  23740408.064       11006.973         225.516           0.255  
I06  22337070.554        1808.480          40.961           0.255  
I07  23673483.340       -1088.939         -18.682           0.255  
> 2019 05 08 04 25 57.4688020  0  6                     
I02  20906009.137         277.610           5.816           0.255  
I03  20626616.692        -979.837         -19.465           0.255  
I04  21950199.919        -436.367          -5.352           0.255  
I05  23740398.147       11028.958         221.606           0.255  
I06  22337071.740        1812.214          37.201           0.255  
I07  23673479.849       -1090.671         -11.163           0.255  
> 2019 05 08 04 25 57.5688020  0  6                     
I02  20906009.046         278.244           5.665           0.255  
I03  20626615.574        -981.728         -22.086           0.255  
I04  21950197.447        -437.216         -10.642           0.255  
I05  23740392.378       11051.024         223.361           0.255  
I06  22337072.758        1815.992          40.972           0.255  
I07  23673488.916       -1092.350          -5.783           0.255  
> 2019 05 08 04 25 57.6688020  0  6                     
I02  20906012.194         278.917          10.758           0.255  
I03  20626614.461        -983.631         -16.887           0.255  
I04  21950198.310        -437.993          -7.448           0.255  
I05  23740385.278       11073.081         224.835           0.255  
I06  22337072.231        1819.774          40.306           0.255  
I07  23673483.653       -1094.093         -12.045           0.255  
> 2019 05 08 04 25 57.7688020  0  6                     
I02  20905936.227         279.558           3.864           0.255  
I03  20626540.332        -985.511         -14.419           0.255  
I04  21950132.439        -438.773          -8.999           0.255  
I05  23740303.895       11095.144         226.927           0.255  
I06  22336993.419        1823.580          40.921           0.255  
I07  23673405.846       -1095.778         -22.309           0.255  
> 2019 05 08 04 25 57.8688020  0  6                     
I02  20905938.608         281.735         137.009           0.255  
I03  20626540.469        -987.466         -13.968           0.255  
I04  21950120.102        -439.809          85.877           0.255  
I05  23740300.059       11117.114         225.614           0.255  
I06  22336988.374        1827.288          40.241           0.255  
I07  23673404.280       -1097.507         -11.835           0.255  
> 2019 05 08 04 25 57.9688020  0  6                     
I02  20905937.278         280.697           4.221           0.255  
I03  20626539.062        -989.470         -21.115           0.255  
I04  21950124.932        -440.441          -8.750           0.255  
I05  23740294.018       11139.063         221.072           0.255  
I06  22336991.858        1830.998          36.767           0.255  
I07  23673403.295       -1099.315         -16.629           0.255  
> 2019 05 08 04 25 58.0688020  0  6                     
I02  20905936.221         281.303           5.528           0.255  
I03  20626540.394        -991.383         -17.175           0.255  
I04  21950133.120        -441.265          -9.521           0.255  
I05  23740290.282       11161.101         224.112           0.255  
I06  22336991.662        1834.733          39.650           0.255  
I07  23673403.326       -1101.052         -20.475           0.255  
> 2019 05 08 04 25 58.1688020  0  6                     
I02  20905936.523         281.859           2.109           0.255  
I03  20626542.877        -993.361         -17.655           0.255  
I04  21950124.936        -442.183          -8.015           0.255  
I05  23740285.048       11183.060         219.766           0.255  
I06  22336989.819        1838.439          35.677           0.255  
I07  23673416.449       -1102.804         -18.560           0.255  
> 2019 05 08 04 25 58.2688020  0  6                     
I02  20905936.408         282.466           4.275           0.255  
I03  20626542.074        -995.366         -18.385           0.255  
I04  21950118.929        -443.023          -4.258           0.255  
I05  23740277.926       11205.075         223.522           0.255  
I06  22336987.829        1842.203          39.944           0.255  
I07  23673411.994       -1104.502         -20.066           0.255  
> 2019 05 08 04 25 58.3688020  0  6                     
I02  20905934.985         282.950           3.459           0.255  
I03  20626547.127        -997.387         -21.702           0.255  
I04  21950125.242        -443.948          -8.172           0.255  
I05  23740273.602       11226.978         220.518           0.255  
I06  22336981.546        1845.808          36.705           0.255  
I07  23673410.165       -1106.397          -9.964           0.255  
> 2019 05 08 04 25 58.4688020  0  6                     
I02  20905940.813         283.426           3.384           0.255  
I03  20626551.765        -999.460         -19.014           0.255  
I04  21950127.575        -444.845          -3.551           0.255  
I05  23740269.626       11248.835         219.563           0.255  
I06  22336981.056        1849.450          37.329           0.255  
I07  23673406.740       -1108.248          -9.816           0.255  
> 2019 05 08 04 25 58.5688020  0  6                     
I02  20905939.192         283.906           0.177           0.255  
I03  20626543.545       -1001.468         -21.825           0.255  
I04  21950132.406        -445.822         -10.520           0.255  
I05  23740260.186       11270.764         217.319           0.255  
I06  22336981.541        1853.100          35.721           0.255  
I07  23673408.597       -1110.094         -16.772           0.255  
> 2019 05 08 04 25 58.6688020  0  6                     
I02  20905937.533         284.400           5.265           0.255  
I03  20626547.055       -1003.495         -17.032           0.255  
I04  21950124.317        -446.738          -3.781           0.255  
I05  23740253.685       11292.699         220.047           0.255  
I06  22336979.187        1856.746          39.089           0.255  
I07  23673408.032       -1111.940         -16.894           0.255  
> 2019 05 08 04 25 58.7688020  0  6                     
I02  20905937.266         285.011          12.242           0.255  
I03  20626537.122       -1005.437         -13.409           0.255  
I04  21950133.193        -447.581          -1.681           0.255  
I05  23740248.875       11314.709         225.200           0.255  
I06  22336982.376        1860.499          42.127           0.255  
I07  23673406.817       -1113.698          -9.462           0.255  
> 2019 05 08 04 25 58.8688020  0  6                     
I02  20905936.270         285.568          14.019           0.255  
I03  20626541.067       -1007.427         -17.221           0.255  
I04  21950121.795        -448.472          -3.576           0.255  
I05  23740240.784       11336.694         224.501           0.255  
I06  22336985.278        1864.430         109.513           0.255  
I07  23673407.522       -1115.392         -12.545           0.255  
> 2019 05 08 04 25 58.9688020  0  6                     
I02  20905935.158         286.164           7.790           0.255  
I03  20626544.397       -1009.382         -20.252           0.255  
I04  21950128.766        -449.257          -2.614           0.255  
I05  23740236.016       11358.688         219.161           0.255  
I06  22336984.428        1867.958          38.808           0.255  
I07  23673406.108       -1117.224         -20.065           0.255  
> 2019 05 08 04 25 59.0688020  0  6                     
I02  20905934.921         286.737           2.249           0.255  
I03  20626545.104       -1011.262         -15.569           0.255  
I04  21950122.435        -450.010          -3.094           0.255  
I05  23740229.876       11380.766         221.495           0.255  
I06  22336983.147        1871.739          38.541           0.255  
I07  23673404.964       -1119.005         -27.007           0.255  
> 2019 05 08 04 25 59.1688020  0  6                     
I02  20905935.910         287.364           4.377           0.255  
I03  20626551.943       -1013.187         -16.790           0.255  
I04  21950134.192        -450.863         -10.233           0.255  
I05  23740225.549       11402.785         221.279           0.255  
I06  22336979.897        1875.507          39.676           0.255  
I07  23673417.983       -1120.624         -19.487           0.255  
> 2019 05 08 04 25 59.2688020  0  6                     
I02  20905934.155         287.959           3.301           0.255  
I03  20626542.709       -1015.107         -17.552           0.255  
I04  21950124.059        -451.695         -10.245           0.255  
I05  23740220.481       11424.811         221.825           0.255  
I06  22336978.753        1879.253          38.770           0.255  
I07  23673404.641       -1122.397         -19.268           0.255  
> 2019 05 08 04 25 59.3688020  0  6                     
I02  20905934.203         288.480           8.757           0.255  
I03  20626546.551       -1017.100         -15.697           0.255  
I04  21950133.896        -452.542          -4.405           0.255  
I05  23740213.995       11446.768         223.347           0.255  
I06  22336977.831        1882.944          40.509           0.255  
I07  23673416.881       -1124.154         -21.448           0.255  
> 2019 05 08 04 25 59.4688020  0  6                     
I02  20905933.475         289.013           8.035           0.255  
I03  20626538.123       -1019.137         -21.262           0.255  
I04  21950128.343        -453.475         -10.505           0.255  
I05  23740207.530       11468.696         219.956           0.255  
I06  22336979.401        1886.601          35.416           0.255  
I07  23673404.766       -1125.989         -20.309           0.255  
> 2019 05 08 04 25 59.5688020  0  6                     
I02  20905934.275         289.496           1.620           0.255  
I03  20626541.922       -1021.181         -20.993           0.255  
I04  21950123.518        -454.337          -7.675           0.255  
I05  23740203.244       11490.619         215.442           0.255  
I06  22336978.936        1890.236          32.418           0.255  
I07  23673407.248       -1127.917         -27.397           0.255  
> 2019 05 08 04 25 59.6688020  0  6                     
I02  20905933.084         290.055          12.770           0.255  
I03  20626548.819       -1023.205         -18.368           0.255  
I04  21950119.852        -455.292         -11.847           0.255  
I05  23740196.287       11512.587         224.197           0.255  
I06  22336974.838        1893.951          39.656           0.255  
I07  23673412.289       -1129.655         -20.406           0.255  
> 2019 05 08 04 25 59.7688020  0  6                     
I02  20905934.003         290.564           9.108           0.255  
I03  20626539.994       -1025.251         -22.695           0.255  
I04  21950127.154        -456.220         -12.354           0.255  
I05  23740194.414       11534.495         216.238           0.255  
I06  22336978.085        1897.600          36.237           0.255  
I07  23673414.675       -1131.359         -19.075           0.255  
> 2019 05 08 04 25 59.8688020  0  6                     
I02  20905935.321         290.867          87.600           0.255  
I03  20626544.623       -1027.239         -13.826           0.255  
I04  21950134.687        -457.616        -211.120           0.255  
I05  23740187.207       11556.442         221.456           0.255  
I06  22336973.923        1901.965         203.753           0.255  
I07  23673417.089       -1133.190         -12.027           0.255  
> 2019 05 08 04 25 59.9688020  0  6                     
I02  20905933.900         291.586           7.279           0.255  
I03  20626538.972       -1029.237         -18.919           0.255  
I04  21950127.099        -458.013          -8.141           0.255  
I05  23740186.274       11578.400         217.960           0.255  
I06  22336975.698        1904.918          36.659           0.255  
I07  23673408.400       -1135.067         -23.579           0.255  
> 2019 05 08 04 26 00.0688020  0  6                     
I02  20905932.310         292.087           6.587           0.255  
I03  20626546.502       -1031.275         -16.859           0.255  
I04  21950125.844        -458.896          -3.537           0.255  
I05  23740179.535       11600.376         221.858           0.255  
I06  22336974.277        1908.582          35.291           0.255  
I07  23673406.143       -1136.884         -17.367           0.255  
> 2019 05 08 04 26 00.1688020  0  6                     
I02  20905931.968         292.594           5.438           0.255  
I03  20626537.493       -1033.253         -18.786           0.255  
I04  21950136.360        -459.751         -13.668           0.255  
I05  23740175.717       11622.332         216.628           0.255  
I06  22336976.649        1912.314          36.706           0.255  
I07  23673404.302       -1138.703         -20.029           0.255  
> 2019 05 08 04 26 00.2688020  0  6                     
I02  20905932.832         293.084           0.504           0.255  
I03  20626546.531       -1035.248         -21.374           0.255  
I04  21950128.774        -460.606          -6.506           0.255  
