     3.03           OBSERVATION DATA    M: Mixed            RINEX VERSION / TYPE
GNSS-SDRLIB v1.1                        20230628 091907 UTC PGM / RUN BY / DATE 
                                                            MARKER NAME         
                                                            MARKER NUMBER       
                                                            MARKER TYPE         
                                                            OBSERVER / AGENCY   
GNSS-SDRLIB         GNSS-SDRLIB         1.1                 REC # / TYPE / VERS 
                                                            ANT # / TYPE        
        0.0000        0.0000        0.0000                  APPROX POSITION XYZ 
        0.0000        0.0000        0.0000                  ANTENNA: DELTA H/E/N
G    4 C5A L5A D5A S5A                                      SYS / # / OBS TYPES 
R    4 C5A L5A D5A S5A                                      SYS / # / OBS TYPES 
E    4 C5A L5A D5A S5A                                      SYS / # / OBS TYPES 
J    4 C5A L5A D5A S5A                                      SYS / # / OBS TYPES 
S    4 C5A L5A D5A S5A                                      SYS / # / OBS TYPES 
C    4 C5A L5A D5A S5A                                      SYS / # / OBS TYPES 
I    4 C5A L5A D5A S5A                                      SYS / # / OBS TYPES 
  1970    01    01    00    00   00.0000000     GPS         TIME OF FIRST OBS   
  1970    01    01    00    00   00.0000000     GPS         TIME OF LAST OBS    
G L5A  0.00000                                              SYS / PHASE SHIFT   
R L5A  0.00000                                              SYS / PHASE SHIFT   
E L5A  0.00000                                              SYS / PHASE SHIFT   
J L5A  0.00000                                              SYS / PHASE SHIFT   
S L5A  0.00000                                              SYS / PHASE SHIFT   
C L5A  0.00000                                              SYS / PHASE SHIFT   
I L5A                                                       SYS / PHASE SHIFT   
  0                                                         GLONASS SLOT / FRQ #
 C1C    0.000 C1P    0.000 C2C    0.000 C2P    0.000        GLONASS COD/PHS/BIS 
                                                            END OF HEADER       
> 2019 05 08 04 25 48.0588020  0  1                     
I02  20626316.385         230.017           2.115           0.255  
> 2019 05 08 04 25 48.0688020  0  2                     
I02  20626316.425         230.070           5.262           0.255  
I06  22057446.601        1555.916          37.118           0.255  
> 2019 05 08 04 25 48.0588020  0  3                     
I02  20626316.385         230.017           2.115           0.255  
I04  21670500.977        -323.788          -7.222           0.255  
I06  22057444.844        1555.545          34.209           0.255  
> 2019 05 08 04 25 48.0688020  0  3                     
I02  20626316.425         230.070           5.262           0.255  
I04  21670491.507        -323.912         -12.450           0.255  
I06  22057446.601        1555.916          37.118           0.255  
> 2019 05 08 04 25 48.0588020  0  4                     
I02  20905872.852         230.014           2.144           0.255  
I03  20626465.840        -831.385         -22.638           0.255  
I04  21950057.444        -323.779          -7.179           0.255  
I06  22337001.311        1555.513          34.586           0.255  
> 2019 05 08 04 25 48.0688020  0  4                     
I02  20905872.892         230.063           4.902           0.255  
I03  20626467.596        -831.591         -20.579           0.255  
I04  21950047.974        -323.901         -12.201           0.255  
I06  22337003.068        1555.881          36.738           0.255  
> 2019 05 08 04 25 48.0588020  0  5                     
I02  20905872.852         230.014           2.144           0.255  
I03  20626465.840        -831.385         -22.638           0.255  
I04  21950057.444        -323.779          -7.179           0.255  
I05  23740774.791        9291.927         215.431           0.255  
I06  22337001.311        1555.513          34.586           0.255  
> 2019 05 08 04 25 48.0688020  0  5                     
I02  20905872.892         230.063           4.902           0.255  
I03  20626467.596        -831.591         -20.579           0.255  
I04  21950047.974        -323.901         -12.201           0.255  
I05  23740774.151        9294.097         216.999           0.255  
I06  22337003.068        1555.881          36.738           0.255  
> 2019 05 08 04 25 48.0588020  0  6                     
I02  20905872.852         230.014           2.144           0.255  
I03  20626465.840        -831.385         -22.638           0.255  
I04  21950057.444        -323.779          -7.179           0.255  
I05  23740774.791        9291.927         215.431           0.255  
I06  22337001.311        1555.513          34.586           0.255  
I07  23673331.566        -624.325         -19.096           0.255  
> 2019 05 08 04 25 48.0688020  0  6                     
I02  20905872.892         230.063           4.902           0.255  
I03  20626467.596        -831.591         -20.579           0.255  
I04  21950047.974        -323.901         -12.201           0.255  
I05  23740774.151        9294.097         216.999           0.255  
I06  22337003.068        1555.881          36.738           0.255  
I07  23673333.671        -624.514         -18.886           0.255  
> 2019 05 08 04 25 48.0788020  0  6                     
I02  20905872.275         230.159           9.577           0.255  
I03  20626469.125        -831.760         -16.870           0.255  
I04  21950050.815        -323.980          -7.858           0.255  
I05  23740773.670        9296.336         223.953           0.255  
I06  22337003.904        1556.256          37.534           0.255  
I07  23673334.768        -624.676         -16.278           0.255  
> 2019 05 08 04 25 48.0888020  0  6                     
I02  20905872.282         230.207           4.874           0.255  
I03  20626470.865        -831.952         -19.249           0.255  
I04  21950055.539        -324.072          -9.169           0.255  
I05  23740773.257        9298.540         220.367           0.255  
I06  22337005.931        1556.630          37.389           0.255  
I07  23673336.549        -624.847         -17.035           0.255  
> 2019 05 08 04 25 48.0988020  0  6                     
I02  20905871.508         230.247           3.987           0.255  
I03  20626461.775        -832.149         -19.669           0.255  
I04  21950046.072        -324.140          -6.827           0.255  
I05  23740774.161        9300.705         216.493           0.255  
I06  22337005.366        1556.991          36.111           0.255  
I07  23673326.006        -625.038         -19.146           0.255  
> 2019 05 08 04 25 48.1088020  0  6                     
I02  20905872.239         230.275           2.727           0.255  
I03  20626462.189        -832.358         -20.876           0.255  
I04  21950049.481        -324.195          -5.517           0.255  
I05  23740772.895        9302.884         217.853           0.255  
I06  22337005.363        1557.370          37.913           0.255  
I07  23673328.243        -625.179         -14.101           0.255  
> 2019 05 08 04 25 48.1188020  0  6                     
I02  20905873.449         230.348           7.360           0.255  
I03  20626463.595        -832.550         -19.247           0.255  
I04  21950053.508        -324.269          -7.402           0.255  
I05  23740772.113        9305.117         223.359           0.255  
I06  22337006.598        1557.749          37.882           0.255  
I07  23673331.389        -625.315         -13.588           0.255  
> 2019 05 08 04 25 48.1288020  0  6                     
I02  20905873.161         230.432           8.399           0.255  
I03  20626465.370        -832.742         -19.133           0.255  
I04  21950056.866        -324.416         -14.698           0.255  
I05  23740772.509        9307.329         221.206           0.255  
I06  22337006.595        1558.137          38.798           0.255  
I07  23673333.207        -625.479         -16.358           0.255  
> 2019 05 08 04 25 48.1388020  0  6                     
I02  20905873.882         230.487           5.528           0.255  
I03  20626467.337        -832.948         -20.643           0.255  
I04  21950046.572        -324.540         -12.411           0.255  
I05  23740771.870        9309.503         217.421           0.255  
I06  22337007.814        1558.499          36.237           0.255  
I07  23673334.940        -625.687         -20.799           0.255  
> 2019 05 08 04 25 48.1488020  0  6                     
I02  20905873.396         230.508           2.048           0.255  
I03  20626468.843        -833.157         -20.859           0.255  
I04  21950048.960        -324.574          -3.362           0.255  
I05  23740771.024        9311.672         216.840           0.255  
I06  22337008.726        1558.864          36.480           0.255  
I07  23673335.225        -625.901         -21.431           0.255  
> 2019 05 08 04 25 48.1588020  0  6                     
I02  20905872.972         230.585           7.685           0.255  
I03  20626469.564        -833.330         -17.380           0.255  
I04  21950053.814        -324.580          -0.635           0.255  
I05  23740769.500        9313.877         220.526           0.255  
I06  22337009.341        1559.250          38.601           0.255  
I07  23673337.878        -626.051         -15.039           0.255  
> 2019 05 08 04 25 48.1688020  0  6                     
I02  20905873.564         230.647           6.187           0.255  
I03  20626470.991        -833.505         -17.455           0.255  
I04  21950044.352        -324.702         -12.208           0.255  
I05  23740768.089        9316.091         221.363           0.255  
I06  22337008.708        1559.624          37.394           0.255  
I07  23673327.996        -626.187         -13.554           0.255  
> 2019 05 08 04 25 48.1788020  0  6                     
I02  20905873.888         230.689           4.213           0.255  
I03  20626463.114        -833.713         -20.787           0.255  
I04  21950048.309        -324.886         -18.388           0.255  
I05  23740766.254        9318.273         218.189           0.255  
I06  22337008.792        1560.005          38.048           0.255  
I07  23673328.324        -626.385         -19.830           0.255  
> 2019 05 08 04 25 48.1888020  0  6                     
I02  20905875.036         230.749           6.062           0.255  
I03  20626463.762        -833.942         -22.970           0.255  
I04  21950051.626        -325.383        -104.919           0.255  
I05  23740766.265        9320.447         217.400           0.255  
I06  22337009.189        1560.350          34.577           0.255  
I07  23673330.863        -626.600         -21.482           0.255  
> 2019 05 08 04 25 48.1988020  0  6                     
I02  20905876.774         230.803           5.324           0.255  
I03  20626465.477        -834.128         -18.536           0.255  
I04  21950054.627        -325.002          -0.199           0.255  
I05  23740765.559        9322.644         219.700           0.255  
I06  22337010.062        1560.721          37.053           0.255  
I07  23673333.668        -626.791         -19.129           0.255  
> 2019 05 08 04 25 48.2088020  0  6                     
I02  20905876.545         230.843           4.032           0.255  
I03  20626467.101        -834.274         -14.581           0.255  
I04  21950045.754        -324.972           3.016           0.255  
I05  23740765.224        9324.856         221.287           0.255  
I06  22337010.880        1561.095          37.427           0.255  
I07  23673335.412        -626.995         -20.385           0.255  
> 2019 05 08 04 25 48.2188020  0  6                     
I02  20905875.416         230.882           3.936           0.255  
I03  20626468.892        -834.502         -22.812           0.255  
I04  21950048.827        -325.135         -16.266           0.255  
I05  23740764.813        9327.040         218.364           0.255  
I06  22337011.366        1561.481          38.577           0.255  
I07  23673337.754        -627.126         -13.124           0.255  
> 2019 05 08 04 25 48.2288020  0  6                     
I02  20905875.021         230.971           8.831           0.255  
I03  20626470.507        -834.731         -22.935           0.255  
I04  21950055.679        -325.340         -20.564           0.255  
I05  23740764.101        9329.228         218.821           0.255  
I06  22337001.950        1561.854          37.335           0.255  
I07  23673327.351        -627.323         -19.656           0.255  
> 2019 05 08 04 25 48.2388020  0  6                     
I02  20905876.008         231.039           6.851           0.255  
I03  20626461.191        -834.932         -20.098           0.255  
I04  21950045.802        -325.429          -8.811           0.255  
I05  23740763.410        9331.423         219.522           0.255  
I06  22337001.463        1562.252          39.757           0.255  
I07  23673327.684        -627.472         -14.895           0.255  
> 2019 05 08 04 25 48.2488020  0  6                     
I02  20905875.595         231.092           5.303           0.255  
I03  20626461.579        -835.078         -14.606           0.255  
I04  21950048.661        -325.448          -1.953           0.255  
I05  23740762.633        9333.636         221.252           0.255  
I06  22337002.368        1562.607          35.538           0.255  
I07  23673329.927        -627.641         -16.924           0.255  
> 2019 05 08 04 25 48.2588020  0  6                     
I02  20905874.978         231.133           4.055           0.255  
I03  20626463.924        -835.285         -20.668           0.255  
I04  21950053.645        -325.446           0.224           0.255  
I05  23740762.190        9335.824         218.836           0.255  
I06  22337002.797        1562.953          34.523           0.255  
I07  23673331.549        -627.820         -17.826           0.255  
> 2019 05 08 04 25 48.2688020  0  6                     
I02  20905874.900         230.696          -0.135           0.255  
I03  20626465.655        -835.514         -22.951           0.255  
I04  21950057.309        -325.540          -9.401           0.255  
I05  23740761.539        9338.007         218.313           0.255  
I06  22337003.055        1563.331          37.846           0.255  
I07  23673333.667        -628.022         -20.215           0.255  
> 2019 05 08 04 25 48.2788020  0  6                     
I02  20905875.422         231.226           4.217           0.255  
I03  20626466.707        -835.711         -19.684           0.255  
I04  21950048.316        -325.667         -12.741           0.255  
I05  23740761.309        9340.192         218.426           0.255  
I06  22337003.941        1563.709          37.842           0.255  
I07  23673335.175        -628.196         -17.479           0.255  
> 2019 05 08 04 25 48.2888020  0  6                     
I02  20905875.155         231.272           4.603           0.255  
I03  20626467.887        -835.858         -14.638           0.255  
I04  21950050.698        -325.797         -12.973           0.255  
I05  23740760.871        9342.398         220.610           0.255  
I06  22337003.614        1564.085          37.557           0.255  
I07  23673336.685        -628.350         -15.351           0.255  
> 2019 05 08 04 25 48.2988020  0  6                     
I02  20905874.572         231.343           7.086           0.255  
I03  20626469.819        -836.050         -19.235           0.255  
I04  21950054.976        -325.893          -9.581           0.255  
I05  23740761.394        9344.603         220.499           0.255  
I06  22337001.883        1564.462          37.697           0.255  
I07  23673325.720        -628.518         -16.856           0.255  
> 2019 05 08 04 25 48.3088020  0  6                     
I02  20905874.495         231.425           8.145           0.255  
I03  20626471.040        -836.285         -23.549           0.255  
I04  21950044.951        -326.000         -10.746           0.255  
I05  23740761.083        9346.794         219.088           0.255  
I06  22337002.239        1564.824          36.154           0.255  
I07  23673326.338        -628.721         -20.268           0.255  
> 2019 05 08 04 25 48.3188020  0  6                     
I02  20905874.985         231.491           6.600           0.255  
I03  20626462.297        -836.495         -20.934           0.255  
I04  21950047.967        -326.033          -3.265           0.255  
I05  23740760.276        9348.986         219.191           0.255  
I06  22337002.640        1565.192          36.880           0.255  
I07  23673328.937        -628.919         -19.736           0.255  
> 2019 05 08 04 25 48.3288020  0  6                     
I02  20905874.770         231.530           3.910           0.255  
I03  20626462.749        -836.647         -15.242           0.255  
I04  21950052.099        -326.091          -5.857           0.255  
I05  23740760.025        9351.185         219.988           0.255  
I06  22337003.199        1565.576          38.397           0.255  
I07  23673331.900        -629.054         -13.568           0.255  
> 2019 05 08 04 25 48.3388020  0  6                     
I02  20905874.378         231.529          -0.017           0.255  
I03  20626465.154        -836.856         -20.900           0.255  
I04  21950055.619        -326.203         -11.143           0.255  
I05  23740759.355        9353.353         216.782           0.255  
I06  22337003.525        1565.946          36.992           0.255  
I07  23673334.528        -629.248         -19.390           0.255  
> 2019 05 08 04 25 48.3488020  0  6                     
I02  20905874.582         231.559           2.929           0.255  
I03  20626467.101        -837.119         -26.240           0.255  
I04  21950046.432        -326.354         -15.074           0.255  
I05  23740758.043        9355.499         214.572           0.255  
I06  22337004.252        1566.259          31.224           0.255  
I07  23673335.808        -629.499         -25.075           0.255  
> 2019 05 08 04 25 48.3588020  0  6                     
I02  20905876.021         231.642           8.288           0.255  
I03  20626468.018        -837.334         -21.528           0.255  
I04  21950048.748        -326.443          -8.917           0.255  
I05  23740758.162        9357.685         218.628           0.255  
I06  22337003.654        1566.618          35.930           0.255  
I07  23673337.581        -629.697         -19.803           0.255  
> 2019 05 08 04 25 48.3688020  0  6                     
I02  20905875.816         231.731           8.932           0.255  
I03  20626469.542        -837.478         -14.427           0.255  
I04  21950053.993        -326.514          -7.129           0.255  
I05  23740758.846        9359.920         223.464           0.255  
I06  22337004.276        1567.022          40.413           0.255  
I07  23673326.977        -629.747          -4.963           0.255  
> 2019 05 08 04 25 48.3788020  0  6                     
I02  20905873.848         231.776           4.535           0.255  
I03  20626471.083        -837.669         -19.057           0.255  
I04  21950044.360        -326.593          -7.870           0.255  
I05  23740757.973        9362.123         220.324           0.255  
I06  22337004.977        1567.427          40.514           0.255  
I07  23673328.261        -629.938         -19.183           0.255  
> 2019 05 08 04 25 48.3888020  0  6                     
I02  20905874.025         231.801           2.502           0.255  
I03  20626462.066        -837.905         -23.592           0.255  
I04  21950047.118        -326.721         -12.771           0.255  
I05  23740756.938        9364.286         216.255           0.255  
I06  22337004.818        1567.775          34.831           0.255  
I07  23673330.017        -630.148         -20.956           0.255  
> 2019 05 08 04 25 48.3988020  0  6                     
I02  20905875.359         231.832           3.101           0.255  
I03  20626461.901        -838.125         -21.984           0.255  
I04  21950051.534        -326.818          -9.721           0.255  
I05  23740756.863        9366.469         218.340           0.255  
I06  22337004.958        1568.104          32.848           0.255  
I07  23673331.703        -630.416         -26.775           0.255  
> 2019 05 08 04 25 48.4088020  0  6                     
I02  20905875.418         231.880           4.729           0.255  
I03  20626464.175        -838.275         -15.041           0.255  
I04  21950055.341        -326.862          -4.382           0.255  
I05  23740755.871        9368.666         219.683           0.255  
I06  22337005.273        1568.460          35.635           0.255  
I07  23673333.216        -630.620         -20.388           0.255  
> 2019 05 08 04 25 48.4188020  0  6                     
I02  20905875.376         231.947           6.688           0.255  
I03  20626466.732        -838.487         -21.167           0.255  
I04  21950046.373        -326.931          -6.959           0.255  
I05  23740754.780        9370.856         219.004           0.255  
I06  22337004.634        1568.846          38.559           0.255  
I07  23673335.468        -630.760         -14.038           0.255  
> 2019 05 08 04 25 48.4288020  0  6                     
I02  20905876.105         231.997           5.075           0.255  
I03  20626468.325        -838.706         -21.905           0.255  
I04  21950049.139        -327.024          -9.244           0.255  
I05  23740754.334        9373.043         218.745           0.255  
I06  22337004.277        1569.234          38.815           0.255  
I07  23673336.659        -630.913         -15.302           0.255  
> 2019 05 08 04 25 48.4388020  0  6                     
I02  20905875.853         232.036           3.843           0.255  
I03  20626469.675        -838.924         -21.830           0.255  
I04  21950052.076        -327.189         -16.505           0.255  
I05  23740754.266        9375.220         217.699           0.255  
I06  22337005.108        1569.613          37.874           0.255  
I07  23673326.305        -631.092         -17.931           0.255  
> 2019 05 08 04 25 48.4488020  0  6                     
I02  20905875.303         232.095           5.881           0.255  
I03  20626471.432        -839.088         -16.377           0.255  
I04  21950057.500        -327.312         -12.288           0.255  
I05  23740753.170        9377.435         221.471           0.255  
I06  22337003.888        1569.968          35.499           0.255  
I07  23673326.013        -631.245         -15.323           0.255  
> 2019 05 08 04 25 48.4588020  0  6                     
I02  20905874.902         232.147           5.264           0.255  
I03  20626463.387        -839.289         -20.130           0.255  
I04  21950048.045        -327.383          -7.195           0.255  
I05  23740752.211        9379.620         218.433           0.255  
I06  22337003.262        1570.308          34.069           0.255  
I07  23673327.323        -631.462         -21.622           0.255  
> 2019 05 08 04 25 48.4688020  0  6                     
I02  20905875.344         232.187           3.952           0.255  
I03  20626463.918        -839.544         -25.522           0.255  
I04  21950049.560        -327.445          -6.193           0.255  
I05  23740751.529        9381.774         215.436           0.255  
I06  22337003.602        1570.629          32.073           0.255  
I07  23673330.485        -631.646         -18.378           0.255  
> 2019 05 08 04 25 48.4788020  0  6                     
I02  20905876.121         232.220           3.306           0.255  
I03  20626465.962        -839.762         -21.785           0.255  
I04  21950052.750        -327.509          -6.320           0.255  
I05  23740750.220        9383.941         216.688           0.255  
I06  22337004.033        1571.038          40.940           0.255  
I07  23673333.487        -631.868         -22.270           0.255  
> 2019 05 08 04 25 48.4888020  0  6                     
I02  20905876.827         232.251           3.095           0.255  
I03  20626468.018        -839.910         -14.834           0.255  
I04  21950055.887        -327.582          -7.346           0.255  
I05  23740749.654        9386.168         222.732           0.255  
I06  22337004.815        1571.456          41.795           0.255  
I07  23673335.492        -632.031         -16.238           0.255  
> 2019 05 08 04 25 48.4988020  0  6                     
I02  20905876.598         232.345           9.417           0.255  
I03  20626469.721        -840.097         -18.640           0.255  
I04  21950045.868        -327.701         -11.868           0.255  
I05  23740749.321        9388.384         221.619           0.255  
I06  22337005.723        1571.822          36.510           0.255  
I07  23673335.779        -632.183         -15.203           0.255  
> 2019 05 08 04 25 48.5088020  0  6                     
I02  20905876.924         232.424           7.898           0.255  
I03  20626470.606        -840.333         -23.608           0.255  
I04  21950049.578        -327.845         -14.431           0.255  
I05  23740747.753        9390.558         217.385           0.255  
I06  22337005.277        1572.118          29.684           0.255  
I07  23673339.189        -632.333         -15.020           0.255  
> 2019 05 08 04 25 48.5188020  0  6                     
I02  20905877.781         232.451           2.680           0.255  
I03  20626460.946        -840.560         -22.680           0.255  
I04  21950055.508        -327.954         -10.919           0.255  
I05  23740746.113        9392.718         215.962           0.255  
I06  22337004.383        1572.471          35.240           0.255  
I07  23673328.373        -632.543         -21.037           0.255  
> 2019 05 08 04 25 48.5288020  0  6                     
I02  20905868.543         232.484           3.321           0.255  
I03  20626462.099        -840.729         -16.912           0.255  
I04  21950046.190        -328.017          -6.281           0.255  
I05  23740744.627        9394.914         219.595           0.255  
I06  22337004.971        1572.901          42.976           0.255  
I07  23673329.863        -632.729         -18.602           0.255  
> 2019 05 08 04 25 48.5388020  0  6                     
I02  20905866.905         232.550           6.613           0.255  
I03  20626464.902        -840.916         -18.685           0.255  
I04  21950048.789        -328.049          -3.233           0.255  
I05  23740743.551        9397.109         219.513           0.255  
I06  22337005.208        1573.281          38.040           0.255  
I07  23673333.916        -632.884         -15.500           0.255  
> 2019 05 08 04 25 48.5488020  0  6                     
I02  20905868.905         232.613           6.346           0.255  
I03  20626467.162        -841.114         -19.848           0.255  
I04  21950051.418        -328.139          -8.993           0.255  
I05  23740743.203        9399.324         221.474           0.255  
I06  22337004.580        1573.650          36.885           0.255  
I07  23673337.203        -633.042         -15.824           0.255  
> 2019 05 08 04 25 48.5588020  0  6                     
I02  20905870.743         232.649           3.565           0.255  
I03  20626468.869        -841.322         -20.792           0.255  
I04  21950054.795        -328.241         -10.167           0.255  
I05  23740742.965        9401.519         219.505           0.255  
I06  22337004.420        1574.027          37.702           0.255  
I07  23673326.713        -633.227         -18.410           0.255  
> 2019 05 08 04 25 48.5688020  0  6                     
I02  20905870.651         232.715           6.550           0.255  
I03  20626470.581        -841.496         -17.354           0.255  
I04  21950044.662        -328.311          -6.993           0.255  
I05  23740742.421        9403.727         220.886           0.255  
I06  22337004.616        1574.410          38.293           0.255  
I07  23673327.702        -633.427         -20.050           0.255  
> 2019 05 08 04 25 48.5788020  0  6                     
I02  20905870.373         232.791           7.596           0.255  
I03  20626461.572        -841.689         -19.387           0.255  
I04  21950048.077        -328.387          -7.654           0.255  
I05  23740742.338        9405.928         220.059           0.255  
I06  22337003.353        1574.765          35.490           0.255  
I07  23673329.624        -633.577         -15.003           0.255  
> 2019 05 08 04 25 48.5888020  0  6                     
I02  20905869.968         232.876           8.558           0.255  
I03  20626461.936        -841.900         -21.073           0.255  
I04  21950054.464        -328.530         -14.245           0.255  
I05  23740742.855        9408.097         216.936           0.255  
I06  22337002.620        1575.131          36.673           0.255  
I07  23673330.368        -633.764         -18.683           0.255  
> 2019 05 08 04 25 48.5988020  0  6                     
I02  20905870.966         232.911           3.455           0.255  
I03  20626463.394        -842.103         -20.255           0.255  
I04  21950044.917        -328.654         -12.363           0.255  
I05  23740742.039        9410.288         219.082           0.255  
I06  22337002.250        1575.500          36.888           0.255  
I07  23673333.507        -633.919         -15.512           0.255  
> 2019 05 08 04 25 48.6088020  0  6                     
I02  20905872.116         232.926           1.574           0.255  
I03  20626464.924        -842.273         -16.998           0.255  
I04  21950046.891        -328.688          -3.397           0.255  
I05  23740742.077        9412.524         223.607           0.255  
I06  22337001.088        1575.882          38.204           0.255  
I07  23673337.732        -634.034         -11.524           0.255  
> 2019 05 08 04 25 48.6188020  0  6                     
I02  20905873.946         232.998           7.113           0.255  
I03  20626466.123        -842.467         -19.433           0.255  
I04  21950050.892        -328.724          -3.644           0.255  
I05  23740741.970        9414.720         219.612           0.255  
I06  22337001.365        1576.262          37.944           0.255  
I07  23673326.675        -634.222         -18.795           0.255  
> 2019 05 08 04 25 48.6288020  0  6                     
I02  20905874.941         233.102          10.477           0.255  
I03  20626467.295        -842.658         -19.055           0.255  
I04  21950054.155        -328.781          -5.711           0.255  
I05  23740742.559        9416.888         216.750           0.255  
I06  22337001.769        1576.610          34.802           0.255  
I07  23673326.570        -634.498         -27.627           0.255  
> 2019 05 08 04 25 48.6388020  0  6                     
I02  20905875.189         233.119           1.696           0.255  
I03  20626468.707        -842.878         -21.998           0.255  
I04  21950044.721        -328.917         -13.617           0.255  
I05  23740742.056        9419.057         216.943           0.255  
I06  22337000.436        1576.979          36.928           0.255  
I07  23673329.689        -634.751         -25.295           0.255  
> 2019 05 08 04 25 48.6488020  0  6                     
I02  20905874.809         233.151           3.124           0.255  
I03  20626470.427        -843.070         -19.209           0.255  
I04  21950048.945        -329.062         -14.516           0.255  
I05  23740741.687        9421.264         220.627           0.255  
I06  22337000.616        1577.633          42.370           0.255  
I07  23673332.482        -634.888         -13.677           0.255  
> 2019 05 08 04 25 48.6588020  0  6                     
I02  20905872.983         233.198           4.761           0.255  
I03  20626461.934        -843.278         -20.873           0.255  
I04  21950054.115        -329.164         -10.152           0.255  
I05  23740741.143        9423.472         220.867           0.255  
I06  22337001.695        1577.761          37.786           0.255  
I07  23673332.950        -634.918          -2.973           0.255  
> 2019 05 08 04 25 48.6688020  0  6                     
I02  20905873.796         233.286           8.779           0.255  
I03  20626462.664        -843.468         -18.948           0.255  
I04  21950044.899        -329.221          -5.709           0.255  
I05  23740740.446        9425.671         219.864           0.255  
I06  22337001.398        1578.097          33.602           0.255  
I07  23673333.684        -635.102         -18.424           0.255  
> 2019 05 08 04 25 48.6788020  0  6                     
I02  20905875.785         233.354           6.843           0.255  
I03  20626464.143        -843.658         -19.045           0.255  
I04  21950047.401        -329.269          -4.839           0.255  
I05  23740740.455        9427.843         217.225           0.255  
I06  22337000.376        1578.471          37.472           0.255  
I07  23673334.828        -635.406         -30.363           0.255  
> 2019 05 08 04 25 48.6888020  0  6                     
I02  20905877.023         233.408           5.354           0.255  
I03  20626466.004        -843.840         -18.176           0.255  
I04  21950050.697        -329.312          -4.224           0.255  
I05  23740740.567        9430.047         220.427           0.255  
I06  22336999.493        1578.876          40.510           0.255  
I07  23673336.659        -635.623         -21.764           0.255  
> 2019 05 08 04 25 48.6988020  0  6                     
I02  20905877.348         233.455           4.673           0.255  
I03  20626467.676        -844.064         -22.410           0.255  
I04  21950054.288        -329.424         -11.186           0.255  
I05  23740740.369        9432.253         220.527           0.255  
I06  22336999.433        1579.244          36.798           0.255  
I07  23673325.451        -635.694          -7.075           0.255  
> 2019 05 08 04 25 48.7088020  0  6                     
I02  20905868.204         233.492           3.744           0.255  
I03  20626468.660        -844.276         -21.142           0.255  
I04  21950044.532        -329.549         -12.503           0.255  
I05  23740740.348        9434.437         218.408           0.255  
I06  22336998.778        1579.599          35.457           0.255  
I07  23673326.362        -635.797         -10.271           0.255  
> 2019 05 08 04 25 48.7188020  0  6                     
I02  20905866.884         233.535           4.341           0.255  
I03  20626470.347        -844.465         -18.877           0.255  
I04  21950048.123        -329.659         -11.051           0.255  
I05  23740739.006        9436.602         216.545           0.255  
I06  22336998.927        1579.959          36.030           0.255  
I07  23673328.553        -636.061         -26.380           0.255  
> 2019 05 08 04 25 48.7288020  0  6                     
I02  20905868.349         233.611           7.600           0.255  
I03  20626472.266        -844.640         -17.549           0.255  
I04  21950050.675        -329.740          -8.087           0.255  
I05  23740737.721        9438.800         219.804           0.255  
I06  22336999.792        1580.349          39.008           0.255  
I07  23673330.833        -636.263         -20.269           0.255  
> 2019 05 08 04 25 48.7388020  0  6                     
I02  20905868.798         233.711           9.969           0.255  
I03  20626463.377        -844.822         -18.205           0.255  
I04  21950054.713        -329.804          -6.437           0.255  
I05  23740735.883        9441.034         223.416           0.255  
I06  22337000.250        1580.739          39.014           0.255  
I07  23673333.998        -636.397         -13.329           0.255  
> 2019 05 08 04 25 48.7488020  0  6                     
I02  20905870.074         233.756           4.471           0.255  
I03  20626463.678        -845.034         -21.147           0.255  
I04  21950045.273        -329.876          -7.214           0.255  
I05  23740735.373        9443.238         220.338           0.255  
I06  22337000.179        1581.087          34.725           0.255  
I07  23673335.488        -636.542         -14.563           0.255  
> 2019 05 08 04 25 48.7588020  0  6                     
I02  20905871.046         233.772           1.617           0.255  
I03  20626466.173        -845.259         -22.499           0.255  
I04  21950046.618        -330.127        -112.146           0.255  
I05  23740734.304        9445.405         216.742           0.255  
I06  22336999.943        1582.143          99.222           0.255  
I07  23673337.727        -636.750         -20.723           0.255  
> 2019 05 08 04 25 48.7688020  0  6                     
I02  20905871.081         233.778           0.583           0.255  
I03  20626468.672        -845.432         -17.396           0.255  
I04  21950053.107        -330.060          -8.990           0.255  
I05  23740733.371        9447.588         218.273           0.255  
I06  22336999.015        1581.824          40.074           0.255  
I07  23673327.214        -636.950         -20.006           0.255  
> 2019 05 08 04 25 48.7788020  0  6                     
I02  20905870.554         233.875           9.748           0.255  
I03  20626470.742        -845.612         -17.989           0.255  
I04  21950057.966        -328.841         300.220           0.255  
I05  23740733.259        9449.797         220.860           0.255  
I06  22337000.260        1582.949         223.031           0.255  
I07  23673327.335        -637.118         -16.806           0.255  
> 2019 05 08 04 25 48.7888020  0  6                     
I02  20905871.159         234.007          13.147           0.255  
I03  20626461.524        -845.808         -19.555           0.255  
I04  21950048.153        -330.225          -9.473           0.255  
I05  23740732.686        9452.000         220.304           0.255  
I06  22337000.237        1582.617          39.653           0.255  
I07  23673328.213        -637.272         -15.424           0.255  
> 2019 05 08 04 25 48.7988020  0  6                     
I02  20905871.598         234.037           3.028           0.255  
I03  20626461.810        -846.023         -21.532           0.255  
I04  21950052.505        -330.331         -10.565           0.255  
I05  23740732.117        9454.166         216.669           0.255  
I06  22336998.580        1582.971          35.411           0.255  
I07  23673330.941        -637.463         -19.061           0.255  
> 2019 05 08 04 25 48.8088020  0  6                     
I02  20905871.921         234.035          -0.208           0.255  
I03  20626464.381        -846.226         -20.249           0.255  
I04  21950056.760        -330.442         -11.090           0.255  
I05  23740731.502        9456.378         221.135           0.255  
I06  22336999.699        1583.326          35.443           0.255  
I07  23673332.067        -637.627         -16.496           0.255  
> 2019 05 08 04 25 48.8188020  0  6                     
I02  20905871.895         234.124           8.886           0.255  
I03  20626466.603        -846.416         -19.045           0.255  
I04  21950047.181        -330.510          -6.838           0.255  
I05  23740731.312        9458.600         222.273           0.255  
I06  22337000.343        1583.683          35.681           0.255  
I07  23673333.960        -637.799         -17.155           0.255  
> 2019 05 08 04 25 48.8288020  0  6                     
I02  20905873.522         234.218           9.381           0.255  
I03  20626467.826        -846.594         -17.799           0.255  
I04  21950047.259        -330.556          -4.599           0.255  
I05  23740731.594        9460.785         218.431           0.255  
I06  22337000.233        1584.074          39.174           0.255  
I07  23673334.861        -638.005         -20.623           0.255  
> 2019 05 08 04 25 48.8388020  0  6                     
I02  20905875.212         234.222           0.401           0.255  
I03  20626469.157        -846.814         -22.002           0.255  
I04  21950051.659        -330.694         -13.761           0.255  
I05  23740731.381        9462.941         215.589           0.255  
I06  22336999.418        1584.430          35.539           0.255  
I07  23673336.513        -638.212         -20.696           0.255  
> 2019 05 08 04 25 48.8488020  0  6                     
I02  20905875.860         234.216          -0.543           0.255  
I03  20626471.045        -847.052         -23.756           0.255  
I04  21950055.749        -330.806         -11.257           0.255  
I05  23740731.155        9465.095         215.400           0.255  
I06  22336998.715        1584.794          36.380           0.255  
I07  23673326.487        -638.425         -21.230           0.255  
> 2019 05 08 04 25 48.8588020  0  6                     
I02  20905875.572         234.317          10.076           0.255  
I03  20626461.960        -847.239         -18.682           0.255  
I04  21950045.988        -330.868          -6.180           0.255  
I05  23740731.134        9467.322         222.691           0.255  
I06  22336998.305        1585.432         135.861           0.255  
I07  23673324.243        -638.549         -12.410           0.255  
> 2019 05 08 04 25 48.8688020  0  6                     
I02  20905874.926         234.430          11.319           0.255  
I03  20626462.586        -847.400         -16.119           0.255  
I04  21950049.983        -330.944          -7.641           0.255  
I05  23740730.505        9469.542         222.054           0.255  
I06  22336998.152        1585.542          38.301           0.255  
I07  23673326.361        -638.695         -14.594           0.255  
> 2019 05 08 04 25 48.8788020  0  6                     
I02  20905874.269         234.468           3.749           0.255  
I03  20626464.923        -847.586         -18.589           0.255  
I04  21950054.729        -331.048         -10.364           0.255  
I05  23740729.856        9471.724         218.225           0.255  
I06  22336997.975        1585.921          37.869           0.255  
I07  23673329.163        -638.896         -20.099           0.255  
> 2019 05 08 04 25 48.8888020  0  6                     
I02  20905875.235         234.463          -0.429           0.255  
I03  20626466.037        -847.796         -21.009           0.255  
I04  21950045.307        -331.146          -9.763           0.255  
I05  23740729.113        9473.912         218.792           0.255  
I06  22336998.012        1586.289          36.819           0.255  
I07  23673331.032        -639.037         -14.182           0.255  
> 2019 05 08 04 25 48.8988020  0  6                     
I02  20905876.994         234.529           6.590           0.255  
I03  20626467.386        -847.991         -19.545           0.255  
I04  21950046.913        -331.203          -5.696           0.255  
I05  23740729.746        9476.132         221.942           0.255  
I06  22336997.783        1586.662          37.343           0.255  
I07  23673332.388        -639.227         -18.966           0.255  
> 2019 05 08 04 25 48.9088020  0  6                     
I02  20905867.411         234.648          11.825           0.255  
I03  20626469.382        -848.191         -19.978           0.255  
I04  21950050.277        -331.279          -7.681           0.255  
I05  23740728.535        9478.325         219.327           0.255  
I06  22336998.398        1587.051          38.847           0.255  
I07  23673334.507        -639.370         -14.297           0.255  
> 2019 05 08 04 25 48.9188020  0  6                     
I02  20905865.725         234.700           5.224           0.255  
I03  20626471.952        -848.386         -19.521           0.255  
I04  21950053.107        -331.408         -12.853           0.255  
I05  23740727.370        9480.497         217.217           0.255  
I06  22336999.133        1587.412          36.103           0.255  
I07  23673335.593        -639.618         -24.830           0.255  
> 2019 05 08 04 25 48.9288020  0  6                     
I02  20905866.527         234.722           2.249           0.255  
I03  20626463.416        -848.573         -18.641           0.255  
I04  21950058.753        -331.515         -10.699           0.255  
I05  23740726.877        9482.674         217.736           0.255  
I06  22336998.344        1587.761          34.923           0.255  
I07  23673337.077        -639.856         -23.783           0.255  
> 2019 05 08 04 25 48.9388020  0  6                     
I02  20905867.225         234.762           3.936           0.255  
I03  20626463.824        -848.768         -19.532           0.255  
I04  21950049.313        -331.550          -3.542           0.255  
I05  23740725.335        9484.893         221.819           0.255  
I06  22336998.194        1588.147          38.624           0.255  
I07  23673326.561        -639.930          -7.425           0.255  
> 2019 05 08 04 25 48.9488020  0  6                     
I02  20905867.537         234.846           8.388           0.255  
I03  20626466.224        -848.976         -20.800           0.255  
I04  21950052.454        -331.621          -7.015           0.255  
I05  23740723.979        9487.107         221.399           0.255  
I06  22336997.925        1588.532          38.431           0.255  
I07  23673327.852        -640.010          -7.953           0.255  
> 2019 05 08 04 25 48.9588020  0  6                     
I02  20905867.784         234.920           7.432           0.255  
I03  20626468.253        -849.195         -21.929           0.255  
I04  21950057.055        -331.732         -11.138           0.255  
I05  23740722.752        9489.301         219.415           0.255  
I06  22336998.103        1588.904          37.289           0.255  
I07  23673330.543        -640.222         -21.243           0.255  
> 2019 05 08 04 25 48.9688020  0  6                     
I02  20905868.587         234.955           3.497           0.255  
I03  20626470.113        -849.380         -18.435           0.255  
I04  21950047.791        -331.829          -9.692           0.255  
I05  23740722.230        9491.480         217.932           0.255  
I06  22336998.498        1589.266          36.151           0.255  
I07  23673333.213        -640.521         -29.849           0.255  
> 2019 05 08 04 25 48.9788020  0  6                     
I02  20905868.984         234.988           3.316           0.255  
I03  20626471.607        -849.535         -15.521           0.255  
I04  21950050.616        -331.875          -4.669           0.255  
I05  23740721.583        9493.672         219.205           0.255  
I06  22337000.041        1589.636          37.045           0.255  
I07  23673335.751        -640.689         -16.860           0.255  
> 2019 05 08 04 25 48.9888020  0  6                     
I02  20905871.012         235.051           6.329           0.255  
I03  20626463.955        -849.721         -18.643           0.255  
I04  21950054.393        -331.936          -6.095           0.255  
I05  23740720.615        9495.856         218.430           0.255  
I06  22336999.192        1590.010          37.339           0.255  
I07  23673336.922        -640.814         -12.503           0.255  
> 2019 05 08 04 25 48.9988020  0  6                     
I02  20905871.095         235.132           8.046           0.255  
I03  20626464.585        -849.975         -25.385           0.255  
I04  21950045.405        -332.046         -10.993           0.255  
I05  23740719.442        9498.067         221.072           0.255  
I06  22336997.627        1590.381          37.151           0.255  
I07  23673325.642        -640.983         -16.844           0.255  
> 2019 05 08 04 25 49.0088020  0  6                     
I02  20905870.813         235.195           6.281           0.255  
I03  20626466.966        -850.203         -22.838           0.255  
I04  21950049.735        -332.194         -14.733           0.255  
I05  23740719.555        9500.252         218.528           0.255  
I06  22336998.296        1590.744          36.264           0.255  
I07  23673327.335        -641.167         -18.449           0.255  
> 2019 05 08 04 25 49.0188020  0  6                     
I02  20905870.746         235.237           4.244           0.255  
I03  20626469.395        -850.361         -15.794           0.255  
I04  21950055.227        -332.272          -7.793           0.255  
I05  23740719.387        9502.446         219.326           0.255  
I06  22336999.184        1591.132          38.770           0.255  
I07  23673330.583        -641.373         -20.514           0.255  
> 2019 05 08 04 25 49.0288020  0  6                     
I02  20905871.072         235.266           2.883           0.255  
I03  20626470.965        -850.510         -14.829           0.255  
I04  21950045.632        -332.324          -5.280           0.255  
I05  23740718.139        9504.626         218.054           0.255  
I06  22337000.129        1591.514          38.271           0.255  
I07  23673332.163        -641.547         -17.465           0.255  
> 2019 05 08 04 25 49.0388020  0  6                     
I02  20905871.791         235.323           5.688           0.255  
I03  20626462.558        -850.749         -23.941           0.255  
I04  21950047.890        -332.386          -6.171           0.255  
I05  23740716.788        9506.804         217.776           0.255  
I06  22337000.168        1591.502         -18.344           0.255  
I07  23673335.399        -641.715         -16.793           0.255  
> 2019 05 08 04 25 49.0488020  0  6                     
I02  20905871.480         235.384           6.122           0.255  
I03  20626463.564        -850.982         -23.330           0.255  
I04  21950053.521        -332.499         -11.289           0.255  
I05  23740717.643        9509.017         221.259           0.255  
I06  22337001.252        1592.231          34.947           0.255  
I07  23673338.303        -641.886         -17.080           0.255  
> 2019 05 08 04 25 49.0588020  0  6                     
I02  20905870.424         235.448           6.379           0.255  
I03  20626466.127        -851.173         -19.075           0.255  
I04  21950057.807        -332.587          -8.783           0.255  
I05  23740717.168        9511.221         220.488           0.255  
I06  22337001.062        1592.585          35.385           0.255  
I07  23673327.281        -642.021         -13.529           0.255  
> 2019 05 08 04 25 49.0688020  0  6                     
I02  20905870.548         235.504           5.605           0.255  
I03  20626468.088        -851.317         -14.349           0.255  
I04  21950047.749        -332.707         -12.046           0.255  
I05  23740717.657        9513.427         220.594           0.255  
I06  22337002.170        1592.968          38.266           0.255  
I07  23673327.806        -642.226         -20.518           0.255  
> 2019 05 08 04 25 49.0788020  0  6                     
I02  20905870.360         235.553           4.889           0.255  
I03  20626469.642        -851.519         -20.262           0.255  
I04  21950052.631        -332.796          -8.822           0.255  
I05  23740717.554        9515.612         218.489           0.255  
I06  22337000.529        1593.353          38.534           0.255  
I07  23673330.710        -642.405         -17.870           0.255  
> 2019 05 08 04 25 49.0888020  0  6                     
I02  20905871.639         235.585           3.252           0.255  
I03  20626471.152        -851.746         -22.687           0.255  
I04  21950057.231        -332.888          -9.258           0.255  
I05  23740717.343        9517.804         219.144           0.255  
I06  22337000.635        1593.725          37.250           0.255  
I07  23673333.229        -642.611         -20.614           0.255  
> 2019 05 08 04 25 49.0988020  0  6                     
I02  20905871.631         235.653           6.816           0.255  
I03  20626462.522        -851.984         -23.805           0.255  
I04  21950048.085        -332.948          -6.034           0.255  
I05  23740716.888        9519.988         218.455           0.255  
I06  22337000.088        1594.105          37.949           0.255  
I07  23673336.943        -642.739         -12.736           0.255  
> 2019 05 08 04 25 49.1088020  0  6                     
I02  20905871.754         235.725           7.179           0.255  
I03  20626463.775        -852.160         -17.580           0.255  
I04  21950049.599        -333.025          -7.614           0.255  
I05  23740716.228        9522.161         217.247           0.255  
I06  22336999.953        1594.472          36.675           0.255  
I07  23673326.482        -642.876         -13.753           0.255  
> 2019 05 08 04 25 49.1188020  0  6                     
I02  20905873.180         235.771           4.579           0.255  
I03  20626466.546        -852.319         -15.928           0.255  
I04  21950053.874        -333.147         -12.235           0.255  
I05  23740715.969        9524.343         218.248           0.255  
I06  22336999.863        1594.845          37.349           0.255  
I07  23673327.239        -643.079         -20.252           0.255  
> 2019 05 08 04 25 49.1288020  0  6                     
I02  20905872.787         235.811           3.991           0.255  
I03  20626468.981        -852.506         -18.679           0.255  
I04  21950044.153        -333.218          -7.068           0.255  
I05  23740714.843        9526.567         222.415           0.255  
I06  22336999.259        1595.210          36.474           0.255  
I07  23673331.143        -643.301         -22.192           0.255  
> 2019 05 08 04 25 49.1388020  0  6                     
I02  20905873.270         235.894           8.338           0.255  
I03  20626470.932        -852.743         -23.681           0.255  
I04  21950047.162        -333.278          -6.015           0.255  
I05  23740713.846        9528.792         222.506           0.255  
I06  22336999.330        1595.594          38.393           0.255  
I07  23673334.247        -643.480         -17.968           0.255  
> 2019 05 08 04 25 49.1488020  0  6                     
I02  20905872.073         235.955           6.119           0.255  
I03  20626462.559        -852.927         -18.454           0.255  
I04  21950054.491        -333.376          -9.861           0.255  
I05  23740713.044        9531.002         220.946           0.255  
I06  22336999.749        1595.958          36.379           0.255  
I07  23673336.123        -643.679         -19.873           0.255  
> 2019 05 08 04 25 49.1588020  0  6                     
I02  20905872.062         235.997           4.120           0.255  
I03  20626463.499        -853.116         -18.896           0.255  
I04  21950045.852        -333.490         -11.364           0.255  
I05  23740711.023        9533.138         213.617           0.255  
I06  22336999.313        1596.337          37.928           0.255  
I07  23673325.330        -643.894         -21.553           0.255  
> 2019 05 08 04 25 49.1688020  0  6                     
I02  20905871.265         236.048           5.106           0.255  
I03  20626466.165        -853.299         -18.235           0.255  
I04  21950048.472        -333.567          -7.697           0.255  
I05  23740711.487        9535.316         217.829           0.255  
I06  22336999.392        1596.687          35.044           0.255  
I07  23673327.407        -644.003         -10.847           0.255  
> 2019 05 08 04 25 49.1788020  0  6                     
I02  20905871.325         236.090           4.255           0.255  
I03  20626468.646        -853.492         -19.363           0.255  
I04  21950054.913        -333.630          -6.269           0.255  
I05  23740711.984        9537.546         222.954           0.255  
I06  22336998.667        1597.076          38.876           0.255  
I07  23673328.570        -644.156         -15.255           0.255  
> 2019 05 08 04 25 49.1888020  0  6                     
I02  20905872.419         236.175           8.495           0.255  
I03  20626470.267        -853.681         -18.831           0.255  
I04  21950046.154        -333.729          -9.937           0.255  
I05  23740710.786        9539.774         222.793           0.255  
I06  22336999.083        1597.348          87.771           0.255  
I07  23673332.662        -644.345         -18.915           0.255  
> 2019 05 08 04 25 49.1988020  0  6                     
I02  20905872.472         236.225           4.942           0.255  
I03  20626471.665        -853.903         -22.201           0.255  
I04  21950047.519        -333.836         -10.695           0.255  
I05  23740710.645        9541.960         218.649           0.255  
I06  22336999.654        1597.837          36.617           0.255  
I07  23673336.049        -644.526         -18.109           0.255  
> 2019 05 08 04 25 49.2088020  0  6                     
I02  20905873.236         236.266           4.135           0.255  
I03  20626461.982        -854.110         -20.718           0.255  
I04  21950052.532        -333.927          -9.090           0.255  
I05  23740711.736        9544.112         215.194           0.255  
I06  22336998.472        1598.163          32.623           0.255  
I07  23673324.793        -644.690         -16.424           0.255  
> 2019 05 08 04 25 49.2188020  0  6                     
I02  20905873.190         236.324           5.830           0.255  
I03  20626462.586        -854.302         -19.244           0.255  
I04  21950059.714        -333.980          -5.346           0.255  
I05  23740710.902        9546.294         218.204           0.255  
I06  22336999.929        1598.544          38.152           0.255  
I07  23673326.120        -644.869         -17.885           0.255  
> 2019 05 08 04 25 49.2288020  0  6                     
I02  20905872.567         236.412           8.777           0.255  
I03  20626465.416        -854.470         -16.782           0.255  
I04  21950051.275        -334.012          -3.205           0.255  
I05  23740709.116        9548.529         223.502           0.255  
I06  22336999.575        1598.940          39.596           0.255  
I07  23673330.353        -645.022         -15.329           0.255  
> 2019 05 08 04 25 49.2388020  0  6                     
I02  20905872.507         236.437           2.537           0.255  
I03  20626468.541        -854.667         -19.675           0.255  
I04  21950053.808        -334.108          -9.539           0.255  
I05  23740708.622        9550.725         219.561           0.255  
I06  22336999.938        1599.333          39.306           0.255  
I07  23673334.106        -645.265         -24.317           0.255  
