     3.03           OBSERVATION DATA    M: Mixed            RINEX VERSION / TYPE
GNSS-SDRLIB v1.1                        20230712 052237 UTC PGM / RUN BY / DATE 
                                                            MARKER NAME         
                                                            MARKER NUMBER       
                                                            MARKER TYPE         
                                                            OBSERVER / AGENCY   
GNSS-SDRLIB         GNSS-SDRLIB         1.1                 REC # / TYPE / VERS 
                                                            ANT # / TYPE        
        0.0000        0.0000        0.0000                  APPROX POSITION XYZ 
        0.0000        0.0000        0.0000                  ANTENNA: DELTA H/E/N
G    4 C1C L1C D1C S1C                                      SYS / # / OBS TYPES 
R    4 C1C L1C D1C S1C                                      SYS / # / OBS TYPES 
E    4 C1C L1C D1C S1C                                      SYS / # / OBS TYPES 
J    4 C1C L1C D1C S1C                                      SYS / # / OBS TYPES 
S    4 C1C L1C D1C S1C                                      SYS / # / OBS TYPES 
C    4 C1C L1C D1C S1C                                      SYS / # / OBS TYPES 
I    4 C1C L1C D1C S1C                                      SYS / # / OBS TYPES 
  1970    01    01    00    00   00.0000000     GPS         TIME OF FIRST OBS   
  1970    01    01    00    00   00.0000000     GPS         TIME OF LAST OBS    
G L1C                                                       SYS / PHASE SHIFT   
R L1C                                                       SYS / PHASE SHIFT   
E L1C  0.00000                                              SYS / PHASE SHIFT   
J L1C                                                       SYS / PHASE SHIFT   
S L1C                                                       SYS / PHASE SHIFT   
C L1C  0.00000                                              SYS / PHASE SHIFT   
I L1C  0.00000                                              SYS / PHASE SHIFT   
  0                                                         GLONASS SLOT / FRQ #
 C1C    0.000 C1P    0.000 C2C    0.000 C2P    0.000        GLONASS COD/PHS/BIS 
                                                            END OF HEADER       
> 2023 05 18 00 00 36.0688020  0  1                     
G05  20629656.918      -33111.164       -2055.298           0.255  
> 2023 05 18 00 00 36.0688020  0  2                     
G05  20629656.918      -33111.164       -2055.298           0.255  
G07  20798266.396      -10987.588       -1814.308           0.255  
> 2023 05 18 00 00 36.0688020  0  3                     
G05  20629656.918      -33111.164       -2055.298           0.255  
G06  20765011.743       20760.721        1245.684           0.255  
G07  20798266.396      -10994.947       -1817.878           0.255  
> 2023 05 18 00 00 36.0688020  0  4                     
G03  24876234.095      -11508.136        -518.302           0.228  
G05  20629656.918      -33111.164       -2055.298           0.255  
G06  20765011.743       20760.391        1174.334           0.255  
G07  20798266.396      -10994.947       -1817.878           0.255  
> 2023 05 18 00 00 36.0688020  0  5                     
G02  23067729.650       48884.776        1671.178           0.240  
G03  24876234.095      -11508.136        -518.302           0.228  
G05  20629656.918      -33111.164       -2055.298           0.255  
G06  20765011.743       20760.391        1174.334           0.255  
G07  20798266.396      -10994.947       -1817.878           0.255  
> 2023 05 18 00 00 36.0688020  0  6                     
G02  23067729.650       48884.776        1671.178           0.240  
G03  24876234.095      -11508.136        -518.302           0.228  
G04  24825694.903      -27166.213       -1385.243           0.229  
G05  20629656.918      -33111.164       -2055.298           0.255  
G06  20765011.743       20760.391        1174.334           0.255  
G07  20798266.396      -10994.947       -1817.878           0.255  
> 2023 05 18 00 00 36.1688020  0  6                     
G02  23067688.510       49048.340        1635.625           0.239  
G03  24876246.987      -11559.982        -518.608           0.228  
G04  24825729.424      -27304.698       -1385.742           0.228  
G05  20629709.400      -33316.672       -2055.191           0.255  
G06  20764980.124       20877.732        1173.103           0.255  
G07  20798313.462      -11176.264       -1818.470           0.255  
> 2023 05 18 00 00 36.2688020  0  6                     
G02  23067647.141       49211.855        1636.588           0.239  
G03  24876260.645      -11611.830        -518.515           0.228  
G04  24825764.713      -27443.190       -1386.392           0.228  
G05  20629761.843      -33522.186       -2055.407           0.255  
G06  20764951.071       20995.074        1174.385           0.255  
G07  20798359.567      -11358.071       -1818.026           0.255  
> 2023 05 18 00 00 36.3688020  0  6                     
G02  23067605.041       49375.361        1636.823           0.239  
G03  24876274.826      -11663.677        -518.145           0.228  
G04  24825800.259      -27582.376       -1485.566           0.228  
G05  20629813.903      -33727.703       -2055.298           0.255  
G06  20764920.273       21112.580        1166.111           0.255  
G07  20798407.709      -11539.890       -1817.797           0.255  
> 2023 05 18 00 00 36.4688020  0  6                     
G02  23067563.676       49538.905        1675.259           0.239  
G03  24876287.132      -11715.534        -518.332           0.228  
G04  24825835.560      -27720.177       -1387.124           0.228  
G05  20629865.978      -33933.222       -2055.319           0.255  
G06  20764891.295       21229.591        1143.973           0.255  
G07  20798452.733      -11721.684       -1807.763           0.255  
> 2023 05 18 00 00 36.5688020  0  6                     
G02  23067522.150       49702.384        1637.101           0.239  
G03  24876300.614      -11767.394        -519.105           0.228  
G04  24825871.295      -27858.663       -1387.027           0.228  
G05  20629918.566      -34138.744       -2055.459           0.255  
G06  20764861.484       21347.138        1174.455           0.255  
G07  20798498.961      -11903.549       -1817.776           0.255  
> 2023 05 18 00 00 36.6688020  0  6                     
G02  23067480.021       49865.863        1649.577           0.239  
G03  24876313.671      -11819.414        -516.353           0.228  
G04  24825906.023      -27997.362       -1431.446           0.228  
G05  20629970.957      -34344.265       -2055.144           0.255  
G06  20764830.405       21464.473        1173.443           0.255  
G07  20798546.466      -12085.383       -1818.165           0.255  
> 2023 05 18 00 00 36.7688020  0  6                     
G02  23067438.203       50029.388        1636.445           0.239  
G03  24876326.476      -11871.124        -519.459           0.228  
G04  24825941.191      -28135.596       -1385.887           0.228  
G05  20630023.320      -34549.797       -2055.147           0.255  
G06  20764801.893       21581.616        1130.485           0.255  
G07  20798591.833      -12267.223       -1818.398           0.255  
> 2023 05 18 00 00 36.8688020  0  6                     
G02  23067396.488       50192.906        1636.409           0.239  
G03  24876340.125      -11922.991        -519.096           0.228  
G04  24825976.410      -28274.077       -1387.086           0.228  
G05  20630075.795      -34755.327       -2055.174           0.255  
G06  20764770.114       21699.172        1173.956           0.255  
G07  20798639.057      -12448.938       -1811.196           0.255  
> 2023 05 18 00 00 36.9688020  0  6                     
G02  23067354.361       50356.414        1636.487           0.239  
G03  24876352.216      -11974.852        -518.329           0.228  
G04  24826012.008      -28412.545       -1387.318           0.228  
G05  20630128.059      -34960.862       -2055.281           0.255  
G06  20764742.196       21816.502        1172.949           0.255  
G07  20798684.698      -12630.889       -1818.724           0.255  
> 2023 05 18 00 00 37.0688020  0  6                     
G02  23067313.301       50519.936        1636.191           0.239  
G03  24876365.968      -12026.732        -518.824           0.228  
G04  24826047.245      -28551.008       -1386.487           0.228  
G05  20630180.562      -35166.399       -2055.393           0.255  
G06  20764713.162       21933.860        1172.137           0.255  
G07  20798729.411      -12812.739       -1817.962           0.255  
> 2023 05 18 00 00 37.1688020  0  6                     
G02  23067271.900       50683.367        1602.461           0.239  
G03  24876379.985      -12078.830        -564.481           0.228  
G04  24826082.331      -28688.979       -1372.853           0.228  
G05  20630232.617      -35371.939       -2055.266           0.255  
G06  20764680.314       22051.222        1170.966           0.255  
G07  20798777.820      -12994.467       -1800.077           0.255  
> 2023 05 18 00 00 37.2688020  0  6                     
G02  23067230.420       50846.038        1525.371           0.239  
G03  24876392.995      -12130.486        -519.368           0.228  
G04  24826118.158      -28827.202       -1277.432           0.228  
G05  20630285.263      -35577.481       -2055.254           0.255  
G06  20764650.403       22168.549        1173.617           0.255  
G07  20798824.639      -13176.222       -1773.914           0.255  
> 2023 05 18 00 00 37.3688020  0  6                     
G02  23067189.182       51010.457        1633.844           0.239  
G03  24876407.052      -12182.154        -491.573           0.228  
G04  24826151.706      -28966.352       -1382.642           0.228  
G05  20630337.613      -35783.031       -2055.419           0.255  
G06  20764623.039       22285.897        1172.390           0.255  
G07  20798867.193      -13358.307       -1817.772           0.255  
> 2023 05 18 00 00 37.4688020  0  6                     
G02  23067146.441       51173.969        1634.567           0.239  
G03  24876420.177      -12234.258        -519.314           0.228  
G04  24826187.224      -29104.882       -1376.983           0.228  
G05  20630389.826      -35988.578       -2055.191           0.255  
G06  20764590.570       22403.760        1150.120           0.255  
G07  20798915.652      -13540.155       -1815.983           0.255  
> 2023 05 18 00 00 37.5688020  0  6                     
G02  23067104.818       51337.492        1635.611           0.239  
G03  24876433.269      -12286.139        -518.928           0.228  
G04  24826223.820      -29243.290       -1385.037           0.228  
G05  20630442.118      -36194.132       -2055.328           0.255  
G06  20764561.854       22520.606        1173.472           0.255  
G07  20798962.372      -13722.042       -1818.255           0.255  
> 2023 05 18 00 00 37.6688020  0  6                     
G02  23067063.524       51500.999        1634.686           0.239  
G03  24876445.559      -12338.032        -519.858           0.228  
G04  24826258.892      -29381.736       -1385.343           0.228  
G05  20630494.676      -36399.686       -2055.313           0.255  
G06  20764530.552       22637.944        1171.034           0.255  
G07  20799011.359      -13903.892       -1815.563           0.255  
> 2023 05 18 00 00 37.7688020  0  6                     
G02  23067022.396       51664.506        1635.061           0.238  
G03  24876458.940      -12389.929        -520.438           0.228  
G04  24826293.188      -29520.163       -1383.906           0.227  
G05  20630546.769      -36605.247       -2055.558           0.255  
G06  20764501.574       22755.277        1171.691           0.255  
G07  20799057.043      -14085.769       -1815.623           0.255  
> 2023 05 18 00 00 37.8688020  0  6                     
G02  23066982.466       51828.020        1633.917           0.239  
G03  24876471.452      -12441.811        -519.072           0.228  
G04  24826325.415      -29658.615       -1383.341           0.228  
G05  20630599.249      -36810.807       -2055.529           0.255  
G06  20764472.658       22872.612        1170.655           0.255  
G07  20799101.786      -14267.660       -1818.277           0.255  
> 2023 05 18 00 00 37.9688020  0  6                     
G02  23066938.567       51991.545        1635.035           0.239  
G03  24876485.264      -12494.093        -568.635           0.228  
G04  24826362.961      -29797.098       -1372.005           0.228  
G05  20630651.808      -37016.375       -2055.526           0.255  
G06  20764439.269       22989.984        1172.147           0.255  
G07  20799150.721      -14449.151       -1752.589           0.255  
> 2023 05 18 00 00 38.0688020  0  6                     
G02  23066897.172       52155.061        1634.368           0.239  
G03  24876499.470      -12545.629        -519.448           0.228  
G04  24826398.240      -29935.507       -1384.188           0.228  
G05  20630703.956      -37221.939       -2055.371           0.255  
G06  20764406.849       23107.323        1176.132           0.255  
G07  20799200.157      -14631.440       -1820.255           0.255  
> 2023 05 18 00 00 38.1688020  0  6                     
G02  23066854.138       52318.853        1685.544           0.239  
G03  24876513.097      -12597.525        -519.109           0.228  
G04  24826436.529      -30073.936       -1385.065           0.228  
G05  20630756.588      -37427.513       -2055.396           0.255  
G06  20764379.710       23224.672        1173.755           0.255  
G07  20799243.639      -14813.308       -1819.676           0.255  
> 2023 05 18 00 00 38.2688020  0  6                     
G02  23066814.783       52481.873        1607.628           0.239  
G03  24876524.649      -12649.547        -519.301           0.228  
G04  24826468.699      -30212.353       -1423.906           0.228  
G05  20630808.575      -37633.086       -2055.749           0.255  
G06  20764350.119       23342.012        1171.201           0.255  
G07  20799287.173      -14995.207       -1816.930           0.255  
> 2023 05 18 00 00 38.3688020  0  6                     
G02  23066771.624       52645.618        1635.266           0.238  
G03  24876537.411      -12701.357        -519.305           0.228  
G04  24826506.419      -30350.785       -1383.649           0.227  
G05  20630861.519      -37838.662       -2055.671           0.255  
G06  20764320.921       23459.349        1173.045           0.255  
G07  20799335.609      -15177.082       -1818.274           0.255  
> 2023 05 18 00 00 38.4688020  0  6                     
G02  23066729.617       52809.213        1634.599           0.239  
G03  24876551.229      -12753.266        -519.727           0.228  
G04  24826542.180      -30489.226       -1384.188           0.228  
G05  20630913.744      -38044.242       -2055.735           0.255  
G06  20764289.830       23576.701        1173.511           0.255  
G07  20799383.368      -15358.992       -1818.604           0.255  
> 2023 05 18 00 00 38.5688020  0  6                     
G02  23066688.766       52972.668        1635.339           0.239  
G03  24876564.351      -12805.175        -519.040           0.228  
G04  24826577.171      -30627.661       -1384.175           0.228  
G05  20630966.305      -38249.827       -2055.883           0.255  
G06  20764262.098       23694.063        1174.027           0.255  
G07  20799427.424      -15540.898       -1818.493           0.255  
> 2023 05 18 00 00 38.6688020  0  6                     
G02  23066644.606       53136.189        1635.632           0.239  
G03  24876579.634      -12857.096        -519.245           0.228  
G04  24826616.104      -30766.077       -1385.263           0.227  
G05  20631018.936      -38455.413       -2056.009           0.255  
G06  20764232.986       23811.402        1173.824           0.255  
G07  20799472.307      -15722.808       -1819.531           0.255  
> 2023 05 18 00 00 38.7688020  0  6                     
G02  23066604.908       53299.702        1635.204           0.239  
G03  24876591.804      -12908.977        -529.398           0.228  
G04  24826647.607      -30904.491       -1384.248           0.228  
G05  20631070.897      -38661.003       -2055.895           0.255  
G06  20764203.208       23928.724        1171.381           0.255  
G07  20799519.761      -15905.085       -1821.958           0.255  
> 2023 05 18 00 00 38.8688020  0  6                     
G02  23066561.865       53463.009        1617.525           0.239  
G03  24876605.202      -12960.940        -519.448           0.228  
G04  24826684.802      -31042.522       -1359.361           0.228  
G05  20631123.871      -38866.594       -2056.000           0.255  
G06  20764171.938       24046.091        1172.597           0.255  
G07  20799567.809      -16086.619       -1819.338           0.255  
> 2023 05 18 00 00 38.9688020  0  6                     
G02  23066521.941       53626.693        1651.187           0.239  
G03  24876616.833      -13012.864        -518.900           0.228  
G04  24826717.764      -31181.321       -1384.388           0.228  
G05  20631175.522      -39072.194       -2056.142           0.255  
G06  20764142.002       24164.418        1315.579           0.255  
G07  20799613.381      -16268.873       -1896.804           0.255  
> 2023 05 18 00 00 39.0688020  0  6                     
G02  23066480.130       53790.255        1635.177           0.239  
G03  24876630.921      -13064.791        -518.747           0.228  
G04  24826752.049      -31319.733       -1385.050           0.228  
G05  20631227.835      -39277.788       -2055.971           0.255  
G06  20764111.653       24280.806        1175.599           0.255  
G07  20799660.830      -16450.488       -1823.286           0.255  
> 2023 05 18 00 00 39.1688020  0  6                     
G02  23066438.309       53953.776        1635.449           0.239  
G03  24876644.216      -13116.732        -518.698           0.228  
G04  24826788.545      -31458.135       -1384.374           0.228  
G05  20631280.324      -39483.393       -2056.289           0.255  
G06  20764083.472       24398.153        1175.585           0.255  
G07  20799704.791      -16632.391       -1820.477           0.255  
> 2023 05 18 00 00 39.2688020  0  6                     
G02  23066396.734       54117.310        1635.584           0.239  
G03  24876657.288      -13168.670        -519.186           0.228  
G04  24826823.402      -31596.541       -1384.072           0.228  
G05  20631332.568      -39688.996       -2056.113           0.255  
G06  20764053.550       24515.480        1174.455           0.255  
G07  20799751.429      -16814.306       -1819.488           0.255  
> 2023 05 18 00 00 39.3688020  0  6                     
G02  23066355.750       54280.839        1635.666           0.239  
G03  24876671.031      -13220.615        -519.197           0.228  
G04  24826858.527      -31734.948       -1383.553           0.228  
G05  20631384.676      -39894.603       -2056.146           0.255  
G06  20764021.677       24632.825        1172.728           0.255  
G07  20799798.867      -16996.234       -1820.035           0.255  
> 2023 05 18 00 00 39.4688020  0  6                     
G02  23066314.903       54444.356        1635.474           0.239  
G03  24876684.080      -13272.555        -519.586           0.228  
G04  24826892.486      -31873.353       -1384.028           0.228  
G05  20631437.440      -40100.212       -2055.550           0.255  
G06  20763989.973       24750.180        1172.216           0.255  
G07  20799846.656      -17178.174       -1818.476           0.255  
> 2023 05 18 00 00 39.5688020  0  6                     
G02  23066272.207       54607.882        1634.793           0.239  
G03  24876697.456      -13324.377        -476.349           0.228  
G04  24826928.898      -32011.747       -1342.317           0.228  
G05  20631490.028      -40305.826       -2055.820           0.255  
G06  20763963.687       24867.504        1173.351           0.255  
G07  20799890.030      -17359.572       -1781.585           0.255  
> 2023 05 18 00 00 39.6688020  0  6                     
G02  23066228.353       54771.405        1635.479           0.239  
G03  24876710.771      -13376.451        -538.581           0.228  
G04  24826966.597      -32150.074       -1334.610           0.228  
G05  20631542.351      -40511.442       -2055.773           0.255  
G06  20763933.909       24984.845        1173.225           0.255  
G07  20799937.416      -17542.431       -1890.902           0.255  
> 2023 05 18 00 00 39.7688020  0  6                     
G02  23066188.105       54934.981        1623.131           0.239  
G03  24876723.647      -13428.398        -519.330           0.228  
G04  24827001.181      -32288.821       -1358.046           0.228  
G05  20631595.493      -40717.067       -2056.266           0.255  
G06  20763905.077       25102.343        1191.720           0.255  
G07  20799981.422      -17725.254       -1914.001           0.255  
> 2023 05 18 00 00 39.8688020  0  6                     
G02  23066146.865       55098.390        1645.764           0.239  
G03  24876737.250      -13480.353        -519.503           0.228  
G04  24827035.361      -32426.924       -1382.730           0.228  
G05  20631647.792      -40922.686       -2056.200           0.255  
G06  20763874.538       25219.543        1171.960           0.255  
G07  20800027.417      -17905.960       -1818.235           0.255  
> 2023 05 18 00 00 39.9688020  0  6                     
G02  23066105.463       55261.982        1635.767           0.239  
G03  24876750.152      -13532.312        -519.588           0.228  
G04  24827069.843      -32565.312       -1383.672           0.228  
G05  20631699.449      -41128.315       -2055.975           0.255  
G06  20763847.623       25336.863        1170.794           0.255  
G07  20800074.091      -18087.878       -1817.535           0.255  
> 2023 05 18 00 00 40.0688020  0  6                     
G02  23066063.336       55425.630        1652.887           0.239  
G03  24876763.875      -13584.272        -519.666           0.228  
G04  24827105.858      -32703.700       -1383.251           0.228  
G05  20631751.607      -41333.941       -2055.910           0.255  
G06  20763814.744       25454.230        1172.965           0.255  
G07  20800121.275      -18269.861       -1818.583           0.255  
> 2023 05 18 00 00 40.1688020  0  6                     
G02  23066021.974       55589.031        1634.921           0.239  
G03  24876778.200      -13636.237        -519.390           0.228  
G04  24827140.301      -32842.068       -1383.655           0.229  
G05  20631804.134      -41539.575       -2056.145           0.255  
G06  20763783.950       25571.556        1172.403           0.255  
G07  20800168.971      -18451.795       -1817.718           0.255  
> 2023 05 18 00 00 40.2688020  0  6                     
G02  23065981.199       55752.563        1635.263           0.239  
G03  24876790.899      -13688.203        -519.895           0.228  
G04  24827175.149      -32980.456       -1383.204           0.227  
G05  20631856.680      -41745.205       -2056.381           0.255  
G06  20763754.720       25688.876        1170.587           0.255  
G07  20800215.359      -18633.769       -1819.379           0.255  
> 2023 05 18 00 00 40.3688020  0  6                     
G02  23065938.688       55916.076        1634.424           0.239  
G03  24876803.847      -13740.131        -516.445           0.228  
G04  24827211.115      -33118.253       -1348.237           0.228  
G05  20631909.161      -41950.845       -2056.141           0.255  
G06  20763724.305       25806.246        1174.024           0.255  
G07  20800262.196      -18815.747       -1819.491           0.255  
> 2023 05 18 00 00 40.4688020  0  6                     
G02  23065896.639       56079.620        1635.709           0.239  
G03  24876816.531      -13792.221        -538.877           0.228  
G04  24827246.601      -33257.090       -1404.462           0.228  
G05  20631961.232      -42156.484       -2055.814           0.255  
G06  20763694.509       25923.580        1173.325           0.255  
G07  20800306.771      -18997.712       -1818.846           0.255  
> 2023 05 18 00 00 40.5688020  0  6                     
G02  23065854.088       56243.142        1635.308           0.239  
G03  24876830.169      -13844.119        -519.902           0.228  
G04  24827282.222      -33395.565       -1383.839           0.228  
G05  20632014.080      -42362.132       -2056.364           0.255  
G06  20763665.014       26040.898        1171.687           0.255  
G07  20800354.550      -19179.677       -1818.874           0.255  
> 2023 05 18 00 00 40.6688020  0  6                     
G02  23065812.632       56406.900        1627.859           0.239  
G03  24876842.751      -13896.099        -519.680           0.228  
G04  24827317.932      -33533.932       -1382.852           0.228  
G05  20632066.657      -42567.785       -2056.618           0.255  
G06  20763634.493       26158.267        1174.616           0.255  
G07  20800400.403      -19361.672       -1819.537           0.255  
> 2023 05 18 00 00 40.7688020  0  6                     
G02  23065770.652       56570.211        1633.662           0.239  
G03  24876855.803      -13948.074        -519.883           0.228  
G04  24827352.521      -33672.299       -1381.948           0.228  
G05  20632119.208      -42773.434       -2056.900           0.255  
G06  20763605.753       26275.596        1174.301           0.255  
G07  20800445.639      -19543.559       -1814.790           0.255  
> 2023 05 18 00 00 40.8688020  0  6                     
G02  23065730.395       56733.749        1635.004           0.239  
G03  24876869.555      -14000.059        -520.132           0.228  
G04  24827385.665      -33810.662       -1382.908           0.228  
G05  20632171.210      -42979.093       -2056.301           0.255  
G06  20763576.047       26392.938        1173.372           0.255  
G07  20800491.697      -19725.640       -1820.658           0.255  
> 2023 05 18 00 00 40.9688020  0  6                     
G02  23065687.840       56897.267        1634.333           0.239  
G03  24876882.827      -14052.039        -520.016           0.228  
G04  24827421.234      -33949.015       -1383.141           0.228  
G05  20632223.621      -43184.752       -2056.660           0.255  
G06  20763547.244       26510.285        1175.819           0.255  
G07  20800536.984      -19907.625       -1820.155           0.255  
> 2023 05 18 00 00 41.0688020  0  6                     
G02  23065646.834       57060.799        1634.460           0.239  
G03  24876896.099      -14104.032        -519.964           0.228  
G04  24827457.785      -34087.363       -1382.313           0.228  
G05  20632276.066      -43390.408       -2056.851           0.255  
G06  20763518.129       26627.605        1173.079           0.255  
G07  20800581.746      -20089.622       -1819.780           0.255  
> 2023 05 18 00 00 41.1688020  0  6                     
G02  23065604.563       57224.134        1608.607           0.239  
G03  24876909.421      -14156.122        -534.120           0.228  
G04  24827493.927      -34225.728       -1383.590           0.228  
G05  20632328.664      -43596.083       -2056.928           0.255  
G06  20763486.650       26744.858        1167.795           0.255  
G07  20800629.428      -20271.563       -1817.065           0.255  
> 2023 05 18 00 00 41.2688020  0  6                     
G02  23065563.186       57387.871        1635.479           0.239  
G03  24876921.580      -14208.016        -519.540           0.228  
G04  24827528.690      -34364.077       -1383.152           0.228  
G05  20632381.004      -43801.746       -2056.596           0.255  
G06  20763454.777       26862.301        1174.068           0.255  
G07  20800676.152      -20453.618       -1819.971           0.255  
> 2023 05 18 00 00 41.3688020  0  6                     
G02  23065521.605       57551.402        1635.972           0.239  
G03  24876936.074      -14260.016        -520.345           0.228  
G04  24827564.443      -34502.437       -1384.234           0.228  
G05  20632433.047      -44007.418       -2057.123           0.255  
G06  20763423.645       26979.642        1175.116           0.255  
G07  20800726.279      -20635.617       -1820.785           0.255  
> 2023 05 18 00 00 41.4688020  0  6                     
G02  23065478.802       57714.935        1634.672           0.239  
G03  24876949.106      -14312.018        -520.125           0.228  
G04  24827599.419      -34640.772       -1383.714           0.228  
G05  20632486.243      -44213.086       -2056.619           0.255  
G06  20763395.849       27096.976        1174.660           0.255  
G07  20800772.020      -20817.620       -1819.848           0.255  
> 2023 05 18 00 00 41.5688020  0  6                     
G02  23065438.923       57878.475        1635.363           0.239  
G03  24876962.832      -14364.016        -519.998           0.228  
G04  24827633.968      -34779.109       -1383.119           0.228  
G05  20632538.369      -44418.764       -2056.844           0.255  
G06  20763367.706       27214.320        1173.741           0.255  
G07  20800816.083      -20999.634       -1819.689           0.255  
> 2023 05 18 00 00 41.6688020  0  6                     
G02  23065396.922       58042.001        1635.429           0.239  
G03  24876976.403      -14416.027        -519.977           0.228  
G04  24827669.830      -34917.451       -1382.672           0.228  
G05  20632590.812      -44624.441       -2056.875           0.255  
G06  20763335.779       27331.647        1173.128           0.255  
G07  20800863.885      -21181.646       -1819.640           0.255  
> 2023 05 18 00 00 41.7688020  0  6                     
G02  23065355.224       58205.540        1635.744           0.239  
G03  24876988.980      -14468.034        -520.055           0.228  
G04  24827705.387      -35055.784       -1382.869           0.228  
G05  20632643.126      -44830.126       -2056.793           0.255  
G06  20763306.865       27448.982        1172.624           0.255  
G07  20800908.328      -21363.662       -1820.148           0.255  
> 2023 05 18 00 00 41.8688020  0  6                     
G02  23065313.273       58369.077        1635.494           0.239  
G03  24877002.308      -14520.053        -520.223           0.228  
G04  24827740.378      -35194.120       -1383.124           0.228  
G05  20632695.419      -45035.808       -2057.085           0.255  
G06  20763274.058       27566.330        1172.592           0.255  
G07  20800958.510      -21545.685       -1819.878           0.255  
> 2023 05 18 00 00 41.9688020  0  6                     
G02  23065271.120       58532.457        1633.877           0.239  
G03  24877015.766      -14571.986        -509.896           0.228  
G04  24827777.496      -35332.087       -1309.986           0.228  
G05  20632747.829      -45241.494       -2056.968           0.255  
G06  20763245.263       27683.772        1163.273           0.255  
G07  20801004.082      -21727.716       -1820.997           0.255  
> 2023 05 18 00 00 42.0688020  0  6                     
G02  23065229.205       58696.152        1634.916           0.239  
G03  24877028.576      -14624.087        -520.293           0.228  
G04  24827811.221      -35470.562       -1300.050           0.228  
G05  20632800.113      -45447.181       -2056.893           0.255  
G06  20763216.579       27800.548        1129.140           0.255  
G07  20801048.941      -21909.741       -1820.108           0.255  
> 2023 05 18 00 00 42.1688020  0  6                     
G02  23065188.546       58859.690        1634.270           0.239  
G03  24877041.923      -14676.223        -543.221           0.228  
G04  24827845.648      -35609.110       -1382.448           0.228  
G05  20632852.486      -45652.880       -2057.019           0.255  
G06  20763185.415       27918.346        1173.081           0.255  
G07  20801094.953      -22091.771       -1821.037           0.255  
> 2023 05 18 00 00 42.2688020  0  6                     
G02  23065145.894       59023.230        1634.241           0.239  
G03  24877055.174      -14728.132        -520.447           0.228  
G04  24827881.641      -35747.445       -1382.559           0.228  
G05  20632905.062      -45858.573       -2056.848           0.255  
G06  20763152.429       28035.687        1172.196           0.255  
G07  20801143.337      -22273.807       -1819.814           0.255  
> 2023 05 18 00 00 42.3688020  0  6                     
G02  23065104.956       59186.792        1636.659           0.239  
G03  24877068.347      -14780.158        -520.322           0.228  
G04  24827916.171      -35885.787       -1385.150           0.228  
G05  20632957.569      -46064.276       -2057.121           0.255  
G06  20763126.091       28153.043        1173.246           0.255  
G07  20801187.887      -22455.853       -1821.002           0.255  
> 2023 05 18 00 00 42.4688020  0  6                     
G02  23065063.481       59350.322        1637.893           0.239  
G03  24877081.405      -14832.192        -520.299           0.228  
G04  24827950.977      -36024.098       -1387.994           0.227  
G05  20633009.975      -46269.973       -2056.978           0.255  
G06  20763097.402       28270.373        1173.493           0.255  
G07  20801234.368      -22637.886       -1820.627           0.255  
> 2023 05 18 00 00 42.5688020  0  6                     
G02  23065021.759       59513.840        1636.684           0.239  
G03  24877094.403      -14884.225        -520.200           0.228  
G04  24827986.659      -36162.376       -1385.968           0.228  
G05  20633062.424      -46475.680       -2057.258           0.255  
G06  20763068.371       28387.701        1172.292           0.255  
G07  20801279.981      -22819.931       -1820.775           0.255  
> 2023 05 18 00 00 42.6688020  0  6                     
G02  23064979.995       59677.365        1635.033           0.239  
G03  24877107.439      -14936.259        -520.460           0.228  
G04  24828021.813      -36300.669       -1383.693           0.227  
G05  20633114.680      -46681.385       -2057.051           0.255  
G06  20763034.089       28505.041        1173.284           0.255  
G07  20801330.651      -23001.981       -1820.016           0.255  
> 2023 05 18 00 00 42.7688020  0  6                     
G02  23064938.856       59840.905        1633.080           0.239  
G03  24877121.128      -14988.251        -524.343           0.228  
G04  24828057.242      -36439.010       -1343.700           0.228  
G05  20633166.997      -46887.096       -2056.645           0.255  
G06  20763006.945       28622.822        1245.695           0.255  
G07  20801373.383      -23184.030       -1820.578           0.255  
> 2023 05 18 00 00 42.8688020  0  6                     
G02  23064896.037       60004.469        1634.542           0.239  
G03  24877135.238      -15040.334        -520.343           0.228  
G04  24828092.493      -36577.323       -1381.786           0.228  
G05  20633219.347      -47092.814       -2057.188           0.255  
G06  20762974.814       28739.712        1173.330           0.255  
G07  20801422.498      -23366.098       -1820.845           0.255  
> 2023 05 18 00 00 42.9688020  0  6                     
G02  23064854.896       60168.017        1636.113           0.239  
G03  24877148.412      -15092.441        -511.630           0.228  
G04  24828127.456      -36716.091       -1441.128           0.228  
G05  20633271.913      -47298.535       -2057.301           0.255  
G06  20762948.800       28857.025        1196.171           0.255  
G07  20801465.399      -23548.182       -1831.027           0.255  
> 2023 05 18 00 00 43.0688020  0  6                     
G02  23064812.964       60331.553        1636.798           0.239  
G03  24877161.458      -15144.423        -519.679           0.228  
G04  24828163.532      -36853.923       -1384.740           0.228  
G05  20633324.313      -47504.253       -2057.335           0.255  
G06  20762916.297       28974.383        1174.041           0.255  
G07  20801514.340      -23730.221       -1820.334           0.255  
> 2023 05 18 00 00 43.1688020  0  6                     
G02  23064771.451       60495.087        1635.150           0.239  
G03  24877174.613      -15196.480        -520.642           0.228  
G04  24828199.090      -36992.205       -1382.724           0.228  
G05  20633376.897      -47709.979       -2057.937           0.255  
G06  20762888.419       29091.290        1136.286           0.255  
G07  20801557.994      -23912.280       -1820.795           0.255  
> 2023 05 18 00 00 43.2688020  0  6                     
G02  23064729.470       60658.639        1635.273           0.239  
G03  24877187.131      -15248.528        -520.534           0.228  
G04  24828233.790      -37130.512       -1382.259           0.228  
G05  20633429.318      -47915.698       -2057.537           0.255  
G06  20762855.757       29209.051        1173.693           0.255  
G07  20801607.207      -24094.364       -1820.691           0.255  
> 2023 05 18 00 00 43.3688020  0  6                     
G02  23064688.074       60822.187        1634.787           0.239  
G03  24877200.976      -15300.586        -520.477           0.228  
G04  24828269.006      -37268.816       -1381.635           0.228  
G05  20633481.680      -48121.430       -2057.337           0.255  
G06  20762829.228       29326.381        1174.062           0.255  
G07  20801651.214      -24276.435       -1821.149           0.255  
> 2023 05 18 00 00 43.4688020  0  6                     
G02  23064645.969       60985.737        1635.799           0.239  
G03  24877214.238      -15352.644        -520.860           0.228  
G04  24828304.011      -37407.104       -1383.547           0.228  
G05  20633534.063      -48327.165       -2057.799           0.255  
G06  20762796.468       29443.707        1172.418           0.255  
G07  20801700.663      -24458.509       -1820.315           0.255  
> 2023 05 18 00 00 43.5688020  0  6                     
G02  23064606.166       61149.279        1633.534           0.239  
G03  24877227.419      -15404.571        -519.928           0.228  
G04  24828338.670      -37545.382       -1382.791           0.228  
G05  20633586.665      -48532.899       -2057.544           0.255  
G06  20762770.339       29561.087        1169.963           0.255  
G07  20801745.937      -24640.593       -1821.140           0.255  
> 2023 05 18 00 00 43.6688020  0  6                     
G02  23064564.304       61312.939        1641.874           0.239  
G03  24877240.780      -15456.754        -533.544           0.228  
G04  24828373.833      -37683.508       -1367.710           0.228  
G05  20633638.770      -48738.638       -2057.291           0.255  
G06  20762738.352       29678.695        1223.112           0.255  
G07  20801792.048      -24822.676       -1820.782           0.255  
> 2023 05 18 00 00 43.7688020  0  6                     
G02  23064521.923       61476.362        1635.632           0.239  
G03  24877254.103      -15508.844        -520.970           0.228  
G04  24828409.363      -37821.573       -1366.717           0.228  
G05  20633691.310      -48944.382       -2057.527           0.255  
G06  20762708.823       29795.709        1172.154           0.255  
G07  20801836.379      -25004.768       -1821.222           0.255  
> 2023 05 18 00 00 43.8688020  0  6                     
G02  23064480.115       61639.907        1635.535           0.239  
G03  24877267.197      -15560.911        -520.942           0.228  
G04  24828444.242      -37960.223       -1383.064           0.228  
G05  20633743.904      -49150.124       -2057.534           0.255  
G06  20762676.753       29913.053        1173.466           0.255  
G07  20801885.762      -25186.848       -1819.233           0.255  
> 2023 05 18 00 00 43.9688020  0  6                     
G02  23064437.714       61803.438        1635.360           0.239  
G03  24877280.988      -15612.988        -521.009           0.228  
G04  24828479.984      -38098.486       -1383.259           0.228  
G05  20633796.223      -49355.873       -2057.547           0.255  
G06  20762648.099       30030.386        1173.466           0.255  
G07  20801931.341      -25368.961       -1820.036           0.255  
> 2023 05 18 00 00 44.0688020  0  6                     
G02  23064395.661       61967.053        1635.219           0.239  
G03  24877293.809      -15665.063        -521.044           0.228  
G04  24828515.570      -38236.768       -1382.682           0.228  
G05  20633848.841      -49561.623       -2057.652           0.255  
G06  20762619.876       30147.713        1171.730           0.255  
G07  20801976.502      -25551.061       -1821.022           0.255  
> 2023 05 18 00 00 44.1688020  0  6                     
G02  23064354.707       62130.537        1635.845           0.239  
G03  24877307.186      -15717.146        -521.002           0.228  
G04  24828550.088      -38375.056       -1383.391           0.228  
G05  20633901.288      -49767.379       -2057.805           0.255  
G06  20762587.380       30265.045        1172.835           0.255  
G07  20802023.939      -25733.164       -1820.917           0.255  
> 2023 05 18 00 00 44.2688020  0  6                     
G02  23064312.537       62294.080        1634.700           0.239  
G03  24877320.779      -15769.226        -521.157           0.228  
G04  24828585.235      -38513.318       -1381.907           0.228  
G05  20633953.782      -49973.134       -2057.320           0.255  
G06  20762558.381       30382.388        1173.956           0.255  
G07  20802070.412      -25915.283       -1821.460           0.255  
> 2023 05 18 00 00 44.3688020  0  6                     
G02  23064271.105       62457.633        1634.810           0.239  
G03  24877333.843      -15821.317        -521.327           0.228  
G04  24828621.041      -38651.570       -1381.546           0.228  
G05  20634005.894      -50178.896       -2057.560           0.255  
G06  20762528.819       30499.718        1173.668           0.255  
G07  20802116.842      -26097.395       -1821.517           0.255  
> 2023 05 18 00 00 44.4688020  0  6                     
G02  23064228.987       62621.191        1635.611           0.239  
G03  24877346.754      -15873.397        -520.705           0.228  
G04  24828655.883      -38789.856       -1382.957           0.228  
G05  20634057.977      -50384.669       -2057.639           0.255  
G06  20762498.789       30617.058        1173.106           0.255  
G07  20802163.405      -26279.499       -1821.070           0.255  
> 2023 05 18 00 00 44.5688020  0  6                     
G02  23064189.007       62784.899        1651.685           0.239  
G03  24877360.001      -15925.495        -520.813           0.228  
G04  24828690.113      -38927.922       -1331.685           0.228  
G05  20634110.326      -50590.437       -2057.522           0.255  
G06  20762466.459       30734.391        1173.902           0.255  
G07  20802212.209      -26461.623       -1821.174           0.255  
> 2023 05 18 00 00 44.6688020  0  6                     
G02  23064146.347       62948.286        1635.048           0.239  
G03  24877373.646      -15977.588        -520.817           0.228  
G04  24828726.229      -39066.736       -1398.895           0.228  
G05  20634163.147      -50796.212       -2057.670           0.255  
G06  20762440.579       30851.721        1172.683           0.255  
G07  20802252.668      -26643.742       -1821.046           0.255  
> 2023 05 18 00 00 44.7688020  0  6                     
G02  23064105.509       63111.833        1634.878           0.239  
G03  24877387.542      -16029.691        -520.757           0.228  
G04  24828760.742      -39204.618       -1381.926           0.228  
G05  20634215.801      -51001.994       -2057.577           0.255  
G06  20762413.312       30969.060        1173.006           0.255  
G07  20802297.635      -26825.881       -1821.432           0.255  
> 2023 05 18 00 00 44.8688020  0  6                     
G02  23064062.797       63275.394        1636.310           0.239  
G03  24877400.386      -16081.790        -521.192           0.228  
G04  24828796.940      -39342.877       -1383.252           0.228  
G05  20634268.113      -51207.776       -2057.644           0.255  
G06  20762377.578       31086.387        1174.013           0.255  
G07  20802349.377      -27008.007       -1821.711           0.255  
> 2023 05 18 00 00 44.9688020  0  6                     
G02  23064020.899       63438.934        1634.994           0.239  
G03  24877413.422      -16133.885        -520.843           0.228  
G04  24828833.116      -39481.110       -1381.344           0.228  
G05  20634320.404      -51413.553       -2057.443           0.255  
G06  20762346.802       31203.725        1172.752           0.255  
G07  20802397.262      -27190.150       -1820.582           0.255  
> 2023 05 18 00 00 45.0688020  0  6                     
G02  23063978.227       63602.489        1636.474           0.239  
G03  24877426.639      -16185.996        -520.997           0.228  
G04  24828870.329      -39619.367       -1383.333           0.228  
G05  20634373.225      -51619.339       -2057.477           0.255  
G06  20762316.002       31321.064        1174.979           0.255  
G07  20802444.435      -27372.272       -1821.851           0.255  
> 2023 05 18 00 00 45.1688020  0  6                     
G02  23063939.025       63766.039        1635.769           0.239  
G03  24877439.582      -16237.937        -505.725           0.228  
G04  24828900.226      -39757.611       -1382.586           0.228  
G05  20634425.601      -51825.129       -2058.020           0.255  
G06  20762287.782       31438.392        1177.271           0.255  
G07  20802488.643      -27554.423       -1826.265           0.255  
> 2023 05 18 00 00 45.2688020  0  6                     
G02  23063897.184       63929.590        1635.158           0.239  
G03  24877452.695      -16290.019        -504.249           0.228  
G04  24828936.592      -39895.847       -1382.530           0.228  
G05  20634478.054      -52030.919       -2057.735           0.255  
G06  20762263.221       31555.725        1170.856           0.255  
G07  20802530.871      -27736.562       -1818.851           0.255  
> 2023 05 18 00 00 45.3688020  0  6                     
G02  23063856.070       64093.159        1636.345           0.239  
G03  24877465.684      -16342.337        -539.021           0.228  
G04  24828972.142      -40033.656       -1321.016           0.227  
G05  20634530.838      -52236.709       -2057.461           0.255  
G06  20762229.335       31673.043        1126.739           0.255  
G07  20802580.653      -27918.715       -1820.810           0.255  
> 2023 05 18 00 00 45.4688020  0  6                     
G02  23063814.164       64256.790        1641.881           0.239  
G03  24877477.894      -16394.443        -521.221           0.228  
G04  24829007.617      -40172.312       -1382.042           0.228  
G05  20634583.294      -52442.509       -2057.743           0.255  
G06  20762200.260       31790.368        1172.107           0.255  
G07  20802626.984      -28100.980       -1805.212           0.255  
> 2023 05 18 00 00 45.5688020  0  6                     
G02  23063769.189       64420.059        1624.113           0.239  
G03  24877492.091      -16446.558        -520.615           0.228  
G04  24829048.170      -40310.550       -1382.322           0.228  
G05  20634635.254      -52648.311       -2057.858           0.255  
G06  20762170.336       31907.703        1171.581           0.255  
G07  20802671.551      -28283.124       -1811.188           0.255  
> 2023 05 18 00 00 45.6688020  0  6                     
G02  23063727.531       64583.999        1672.035           0.239  
G03  24877505.849      -16498.686        -521.108           0.228  
G04  24829083.036      -40448.780       -1382.148           0.228  
G05  20634687.576      -52854.114       -2058.021           0.255  
G06  20762140.850       32025.038        1173.149           0.255  
G07  20802717.490      -28465.171       -1820.110           0.255  
> 2023 05 18 00 00 45.7688020  0  6                     
G02  23063687.734       64747.357        1635.250           0.239  
G03  24877519.229      -16550.813        -521.301           0.228  
G04  24829115.740      -40586.998       -1382.075           0.228  
G05  20634740.247      -53059.917       -2057.913           0.255  
G06  20762113.070       32142.364        1173.106           0.255  
G07  20802761.763      -28647.339       -1819.831           0.255  
> 2023 05 18 00 00 45.8688020  0  6                     
G02  23063645.284       64910.919        1635.449           0.239  
G03  24877533.648      -16602.942        -521.202           0.228  
G04  24829151.671      -40725.241       -1382.446           0.228  
G05  20634792.547      -53265.728       -2058.097           0.255  
G06  20762081.406       32259.679        1171.903           0.255  
G07  20802811.078      -28829.512       -1820.745           0.255  
> 2023 05 18 00 00 45.9688020  0  6                     
G02  23063604.255       65074.892        1712.526           0.239  
G03  24877547.803      -16655.236        -540.648           0.228  
G04  24829184.631      -40863.455       -1382.396           0.228  
G05  20634844.951      -53471.538       -2057.886           0.255  
G06  20762052.201       32377.018        1173.301           0.255  
G07  20802857.986      -29011.407       -1838.686           0.255  
> 2023 05 18 00 00 46.0688020  0  6                     
G02  23063563.553       65238.028        1635.801           0.239  
G03  24877560.930      -16707.208        -521.474           0.228  
G04  24829217.788      -41001.673       -1382.206           0.229  
G05  20634897.738      -53677.357       -2058.285           0.255  
G06  20762019.519       32494.320        1171.199           0.255  
G07  20802907.418      -29193.862       -1823.752           0.255  
> 2023 05 18 00 00 46.1688020  0  6                     
G02  23063521.050       65401.589        1636.043           0.239  
G03  24877571.915      -16759.346        -522.408           0.228  
G04  24829254.594      -41139.881       -1381.662           0.228  
G05  20634949.987      -53883.176       -2058.218           0.255  
G06  20761989.965       32611.677        1172.531           0.255  
G07  20802952.966      -29376.060       -1822.975           0.255  
> 2023 05 18 00 00 46.2688020  0  6                     
G02  23063479.266       65565.150        1636.331           0.239  
G03  24877584.988      -16811.493        -522.567           0.228  
G04  24829290.556      -41278.110       -1382.767           0.228  
G05  20635002.470      -54088.996       -2058.140           0.255  
G06  20761959.806       32728.998        1173.871           0.255  
G07  20802999.651      -29558.253       -1824.324           0.255  
> 2023 05 18 00 00 46.3688020  0  6                     
G02  23063438.167       65728.697        1635.232           0.239  
G03  24877599.233      -16863.638        -521.487           0.228  
G04  24829326.463      -41416.312       -1382.149           0.228  
G05  20635054.976      -54294.818       -2058.111           0.255  
G06  20761930.786       32846.335        1176.218           0.255  
G07  20803044.292      -29740.420       -1823.591           0.255  
> 2023 05 18 00 00 46.4688020  0  6                     
G02  23063396.490       65892.249        1635.328           0.239  
G03  24877612.656      -16915.781        -521.285           0.228  
G04  24829360.733      -41554.506       -1381.889           0.228  
G05  20635107.010      -54500.645       -2058.090           0.255  
G06  20761901.240       32963.652        1171.086           0.255  
G07  20803090.260      -29922.617       -1821.416           0.255  
> 2023 05 18 00 00 46.5688020  0  6                     
G02  23063354.276       66055.826        1636.920           0.239  
G03  24877626.871      -16967.926        -521.590           0.228  
G04  24829396.660      -41692.724       -1383.854           0.228  
G05  20635159.437      -54706.475       -2058.197           0.255  
G06  20761871.932       33081.012        1175.218           0.255  
G07  20803136.486      -30104.810       -1824.668           0.255  
> 2023 05 18 00 00 46.6688020  0  6                     
G02  23063312.177       66219.383        1637.001           0.239  
G03  24877640.481      -17020.079        -521.442           0.228  
G04  24829430.734      -41830.913       -1382.965           0.228  
G05  20635212.248      -54912.312       -2058.269           0.255  
G06  20761841.506       33198.308        1169.448           0.255  
G07  20803182.995      -30287.002       -1818.848           0.255  
> 2023 05 18 00 00 46.7688020  0  6                     
G02  23063271.477       66382.945        1649.276           0.239  
G03  24877653.969      -17072.236        -521.288           0.228  
G04  24829464.518      -41969.102       -1381.438           0.228  
G05  20635264.745      -55118.148       -2058.320           0.255  
G06  20761810.638       33315.649        1169.595           0.255  
G07  20803229.731      -30469.182       -1818.464           0.255  
> 2023 05 18 00 00 46.8688020  0  6                     
G02  23063229.095       66546.555        1645.191           0.239  
G03  24877665.848      -17124.710        -529.219           0.228  
G04  24829501.426      -42107.317       -1382.363           0.228  
G05  20635317.095      -55323.992       -2058.749           0.255  
G06  20761785.010       33432.966        1171.339           0.255  
G07  20803273.847      -30651.387       -1821.839           0.255  
> 2023 05 18 00 00 46.9688020  0  6                     
G02  23063188.249       66710.062        1645.703           0.239  
G03  24877678.921      -17176.599        -528.820           0.228  
G04  24829535.499      -42245.809       -1395.378           0.228  
G05  20635369.510      -55529.825       -2058.098           0.255  
G06  20761750.751       33550.620        1170.078           0.255  
G07  20803324.468      -30833.669       -1819.727           0.255  
> 2023 05 18 00 00 47.0688020  0  6                     
G02  23063145.159       66873.626        1635.626           0.239  
G03  24877692.153      -17228.722        -521.481           0.228  
G04  24829571.373      -42383.697       -1380.993           0.228  
G05  20635421.966      -55735.674       -2058.156           0.255  
G06  20761720.421       33667.629        1173.664           0.255  
G07  20803372.847      -31015.817       -1823.084           0.255  
> 2023 05 18 00 00 47.1688020  0  6                     
G02  23063104.881       67037.478        1639.894           0.239  
G03  24877705.182      -17280.887        -521.148           0.228  
G04  24829606.459      -42521.900       -1382.664           0.228  
G05  20635474.396      -55941.525       -2058.326           0.255  
G06  20761689.854       33784.967        1172.672           0.255  
G07  20803420.131      -31198.029       -1821.556           0.255  
> 2023 05 18 00 00 47.2688020  0  6                     
G02  23063062.820       67200.749        1635.110           0.239  
G03  24877718.531      -17333.056        -521.185           0.228  
G04  24829641.652      -42660.063       -1381.333           0.228  
G05  20635527.339      -56147.378       -2058.507           0.255  
G06  20761661.310       33902.292        1174.390           0.255  
G07  20803462.593      -31380.102       -1770.151           0.255  
> 2023 05 18 00 00 47.3688020  0  6                     
G02  23063021.161       67364.312        1634.899           0.239  
G03  24877732.676      -17385.235        -521.682           0.228  
G04  24829676.647      -42798.256       -1382.273           0.228  
G05  20635578.741      -56353.230       -2058.453           0.255  
G06  20761631.863       34019.601        1172.805           0.255  
G07  20803509.798      -31562.475       -1822.660           0.255  
> 2023 05 18 00 00 47.4688020  0  6                     
G02  23062979.506       67527.878        1635.665           0.239  
G03  24877745.116      -17437.410        -522.698           0.228  
G04  24829712.665      -42936.422       -1381.162           0.228  
G05  20635631.664      -56559.091       -2058.673           0.255  
G06  20761601.374       34136.939        1172.891           0.255  
G07  20803554.458      -31744.715       -1823.377           0.255  
> 2023 05 18 00 00 47.5688020  0  6                     
G02  23062938.148       67691.546        1663.039           0.239  
G03  24877758.050      -17489.582        -522.598           0.228  
G04  24829749.054      -43074.623       -1382.185           0.228  
G05  20635684.123      -56764.951       -2058.760           0.255  
G06  20761571.020       34254.271        1174.861           0.255  
G07  20803602.057      -31926.930       -1823.025           0.255  
> 2023 05 18 00 00 47.6688020  0  6                     
G02  23062896.962       67855.020        1652.580           0.239  
G03  24877771.270      -17541.765        -522.139           0.228  
G04  24829783.393      -43213.143       -1422.580           0.228  
G05  20635736.763      -56970.816       -2058.638           0.255  
G06  20761539.127       34371.589        1173.469           0.255  
G07  20803651.947      -32109.117       -1867.818           0.255  
> 2023 05 18 00 00 47.7688020  0  6                     
G02  23062854.474       68018.575        1636.273           0.239  
G03  24877785.608      -17593.945        -521.696           0.228  
G04  24829818.620      -43351.168       -1434.469           0.228  
G05  20635789.516      -57176.682       -2058.965           0.255  
G06  20761510.518       34488.911        1171.483           0.255  
G07  20803696.312      -32291.391       -1823.141           0.255  
> 2023 05 18 00 00 47.8688020  0  6                     
G02  23062813.665       68182.139        1636.157           0.239  
G03  24877798.359      -17646.129        -522.579           0.228  
G04  24829852.613      -43489.124       -1381.589           0.228  
G05  20635841.731      -57382.561       -2058.750           0.255  
G06  20761480.485       34606.247        1173.686           0.255  
G07  20803742.349      -32473.628       -1822.193           0.255  
> 2023 05 18 00 00 47.9688020  0  6                     
G02  23062770.997       68345.699        1635.461           0.239  
G03  24877811.799      -17698.322        -521.542           0.228  
G04  24829887.734      -43627.286       -1380.953           0.228  
G05  20635894.198      -57588.433       -2058.896           0.255  
G06  20761453.149       34723.565        1174.008           0.255  
G07  20803787.250      -32655.879       -1824.434           0.255  
> 2023 05 18 00 00 48.0688020  0  6                     
G02  23062729.293       68509.262        1634.732           0.239  
G03  24877825.435      -17750.518        -522.450           0.228  
G04  24829922.575      -43765.447       -1380.650           0.227  
G05  20635946.967      -57794.309       -2058.544           0.255  
G06  20761422.726       34840.896        1172.425           0.255  
G07  20803833.825      -32838.127       -1822.282           0.255  
> 2023 05 18 00 00 48.1688020  0  6                     
