     3.03           OBSERVATION DATA    M: Mixed            RINEX VERSION / TYPE
GNSS-SDRLIB v1.1                        20230710 133447 UTC PGM / RUN BY / DATE 
                                                            MARKER NAME         
                                                            MARKER NUMBER       
                                                            MARKER TYPE         
                                                            OBSERVER / AGENCY   
GNSS-SDRLIB         GNSS-SDRLIB         1.1                 REC # / TYPE / VERS 
                                                            ANT # / TYPE        
        0.0000        0.0000        0.0000                  APPROX POSITION XYZ 
        0.0000        0.0000        0.0000                  ANTENNA: DELTA H/E/N
G    4 C1C L1C D1C S1C                                      SYS / # / OBS TYPES 
R    4 C1C L1C D1C S1C                                      SYS / # / OBS TYPES 
E    4 C1C L1C D1C S1C                                      SYS / # / OBS TYPES 
J    4 C1C L1C D1C S1C                                      SYS / # / OBS TYPES 
S    4 C1C L1C D1C S1C                                      SYS / # / OBS TYPES 
C    4 C1C L1C D1C S1C                                      SYS / # / OBS TYPES 
I    4 C1C L1C D1C S1C                                      SYS / # / OBS TYPES 
  1970    01    01    00    00   00.0000000     GPS         TIME OF FIRST OBS   
  1970    01    01    00    00   00.0000000     GPS         TIME OF LAST OBS    
G L1C                                                       SYS / PHASE SHIFT   
R L1C                                                       SYS / PHASE SHIFT   
E L1C  0.00000                                              SYS / PHASE SHIFT   
J L1C                                                       SYS / PHASE SHIFT   
S L1C                                                       SYS / PHASE SHIFT   
C L1C  0.00000                                              SYS / PHASE SHIFT   
I L1C  0.00000                                              SYS / PHASE SHIFT   
  0                                                         GLONASS SLOT / FRQ #
 C1C    0.000 C1P    0.000 C2C    0.000 C2P    0.000        GLONASS COD/PHS/BIS 
                                                            END OF HEADER       
> 2023 05 18 00 00 36.0688020  0  1                     
G03  20635937.250      -63337.055       -3105.306           0.118  
> 2023 05 18 00 00 36.0688020  0  3                     
G03  22283624.705      -63319.984       -3105.589           0.118  
G06  20635770.151      -57484.017       -3059.832           0.132  
G09  23014980.848      -66443.762       -4121.288           0.108  
> 2023 05 18 00 00 36.0688020  0  4                     
G03  22283624.705      -63319.984       -3105.589           0.118  
G05  22541565.381      -12488.157        -661.602           0.114  
G06  20635770.151      -57484.017       -3059.832           0.132  
G09  23014980.848      -66443.762       -4121.288           0.108  
> 2023 05 18 00 00 36.0688020  0  6                     
G03  22283624.705      -63319.984       -3105.589           0.118  
G04  23769439.601      -94301.129       -4823.942           0.100  
G05  22541565.381      -12488.157        -661.602           0.114  
G06  20635770.151      -57484.017       -3059.832           0.132  
G07  23539060.944      -72597.067       -4036.444           0.105  
G09  23014980.848      -66443.762       -4121.288           0.108  
> 2023 05 18 00 00 36.0688020  0  7                     
G02  24437397.606        6473.214         258.022           0.095  
G03  22283624.705      -63319.984       -3105.589           0.118  
G04  23769439.601      -94301.129       -4823.942           0.100  
G05  22541565.381      -12488.270        -734.323           0.114  
G06  20635770.151      -57484.017       -3059.832           0.132  
G07  23539060.944      -72597.067       -4036.444           0.105  
G09  23014980.848      -66443.841       -4106.495           0.108  
> 2023 05 18 00 00 36.1688020  0  7                     
G02  24437388.794        6499.162         261.503           0.096  
G03  22283704.473      -63630.556       -3106.664           0.118  
G04  23769556.837      -94783.423       -4824.025           0.100  
G05  22541584.054      -12554.359        -660.258           0.114  
G06  20635852.548      -57789.986       -3057.244           0.132  
G07  23539166.607      -73000.591       -4031.233           0.103  
G09  23015083.531      -66855.966       -4120.127           0.107  
> 2023 05 18 00 00 36.2688020  0  7                     
G02  24437382.481        6525.231         259.767           0.095  
G03  22283779.685      -63940.966       -3103.918           0.118  
G04  23769681.763      -95265.512       -4823.217           0.100  
G05  22541602.432      -12620.411        -661.744           0.114  
G06  20635925.585      -58095.803       -3058.691           0.131  
G07  23539268.411      -73404.068       -4037.291           0.104  
G09  23015190.945      -67267.984       -4119.711           0.107  
> 2023 05 18 00 00 36.3688020  0  7                     
G02  24437375.741        6550.624         241.227           0.094  
G03  22283862.092      -64252.106       -3119.039           0.118  
G04  23769805.450      -95748.313       -4837.887           0.100  
G05  22541617.480      -12687.199        -678.054           0.113  
G06  20636007.195      -58402.338       -3073.321           0.131  
G07  23539369.910      -73808.149       -4049.450           0.102  
G09  23015293.117      -67680.664       -4131.677           0.107  
> 2023 05 18 00 00 36.4688020  0  7                     
G02  24437368.600        6575.353         249.457           0.095  
G03  22283938.406      -64563.918       -3113.514           0.118  
G04  23769928.527      -96231.831       -4829.989           0.100  
G05  22541635.978      -12754.575        -671.278           0.114  
G06  20636084.042      -58709.554       -3070.700           0.131  
G07  23539473.298      -74212.989       -4044.892           0.104  
G09  23015396.911      -68094.112       -4131.817           0.108  
> 2023 05 18 00 00 36.5688020  0  7                     
G02  24437362.492        6600.592         254.369           0.096  
G03  22284021.286      -64875.206       -3111.248           0.118  
G04  23770054.914      -96714.808       -4828.143           0.100  
G05  22541650.610      -12821.552        -666.224           0.114  
G06  20636163.357      -59016.247       -3066.744           0.131  
G07  23539582.463      -74617.290       -4042.651           0.104  
G09  23015503.626      -68506.998       -4129.039           0.108  
> 2023 05 18 00 00 36.6688020  0  7                     
G02  24437360.800        6626.155         259.117           0.094  
G03  22284102.390      -65186.187       -3108.617           0.117  
G04  23770176.044      -97197.473       -4824.899           0.101  
G05  22541669.032      -12888.134        -665.234           0.115  
G06  20636240.751      -59322.609       -3063.061           0.131  
G07  23539681.215      -75021.247       -4039.755           0.104  
G09  23015608.863      -68919.556       -4126.806           0.108  
> 2023 05 18 00 00 36.7688020  0  7                     
G02  24437354.281        6651.529         250.800           0.095  
G03  22284179.111      -65497.358       -3113.704           0.118  
G04  23770298.568      -97680.332       -4831.208           0.102  
G05  22541685.957      -12954.960        -669.899           0.114  
G06  20636317.692      -59629.192       -3068.000           0.131  
G07  23539782.961      -75425.386       -4042.427           0.103  
G09  23015715.519      -69332.317       -4130.553           0.109  
> 2023 05 18 00 00 36.8688020  0  7                     
G02  24437346.578        6676.836         253.909           0.095  
G03  22284261.472      -65808.602       -3111.308           0.117  
G04  23770418.570      -98163.244       -4827.372           0.100  
G05  22541700.625      -13021.755        -667.255           0.115  
G06  20636397.094      -59935.842       -3066.511           0.131  
G07  23539887.965      -75829.657       -4044.172           0.105  
G09  23015823.106      -69745.095       -4125.979           0.108  
> 2023 05 18 00 00 36.9688020  0  7                     
G02  24437340.053        6702.279         255.802           0.095  
G03  22284339.674      -66119.709       -3111.460           0.119  
G04  23770534.750      -98645.991       -4825.297           0.099  
G05  22541719.804      -13088.505        -666.255           0.115  
G06  20636472.098      -60242.313       -3066.011           0.131  
G07  23539986.108      -76233.702       -4040.989           0.103  
G09  23015925.503      -70157.769       -4127.496           0.108  
> 2023 05 18 00 00 37.0688020  0  7                     
G02  24437332.950        6727.821         256.376           0.096  
G03  22284416.311      -66430.705       -3109.352           0.119  
G04  23770658.492      -99128.659       -4824.057           0.101  
G05  22541736.770      -13155.107        -664.766           0.114  
G06  20636551.090      -60548.711       -3061.402           0.131  
G07  23540089.461      -76637.670       -4040.835           0.104  
G09  23016028.287      -70570.301       -4125.274           0.108  
> 2023 05 18 00 00 37.1688020  0  7                     
G02  24437322.935        6753.487         250.977           0.096  
G03  22284492.283      -66741.591       -3110.652           0.118  
G04  23770784.498      -99611.283       -4827.492           0.101  
G05  22541752.098      -13221.611        -664.512           0.114  
G06  20636628.433      -60855.008       -3064.388           0.130  
G07  23540193.476      -77041.602       -4042.322           0.104  
G09  23016134.482      -70982.790       -4128.779           0.107  
> 2023 05 18 00 00 37.2688020  0  7                     
G02  24437315.223        6778.604         247.851           0.093  
G03  22284572.290      -67053.016       -3113.392           0.118  
G04  23770909.982     -100094.362       -4829.935           0.101  
G05  22541767.187      -13288.687        -670.816           0.114  
G06  20636707.476      -61161.849       -3070.778           0.130  
G07  23540295.698      -77445.977       -4045.251           0.103  
G09  23016238.364      -71395.748       -4130.462           0.108  
> 2023 05 18 00 00 37.3688020  0  7                     
G02  24437308.631        6803.014         236.957           0.095  
G03  22284649.258      -67365.143       -3122.535           0.117  
G04  23771031.469     -100578.140       -4838.258           0.101  
G05  22541787.507      -13356.382        -675.690           0.114  
G06  20636785.283      -61469.334       -3073.848           0.131  
G07  23540398.198      -77851.111       -4053.182           0.102  
G09  23016341.293      -71809.430       -4137.560           0.106  
> 2023 05 18 00 00 37.4688020  0  7                     
G02  24437304.095        6827.152         240.544           0.095  
G03  22284733.950      -67677.611       -3124.370           0.117  
G04  23771155.622     -101062.247       -4842.724           0.101  
G05  22541807.358      -13424.509        -681.449           0.115  
G06  20636864.198      -61777.197       -3078.020           0.131  
G07  23540498.821      -78256.520       -4053.911           0.103  
G09  23016450.381      -72223.472       -4142.382           0.107  
> 2023 05 18 00 00 37.5688020  0  7                     
G02  24437296.980        6851.761         248.310           0.096  
G03  22284811.747      -67989.585       -3118.810           0.117  
G04  23771278.341     -101545.833       -4834.019           0.100  
G05  22541819.162      -13492.060        -673.941           0.114  
G06  20636938.832      -62084.555       -3072.704           0.131  
G07  23540606.108      -78661.468       -4050.566           0.103  
G09  23016557.281      -72636.962       -4132.625           0.107  
> 2023 05 18 00 00 37.6688020  0  7                     
G02  24437288.555        6876.938         254.875           0.095  
G03  22284893.784      -68300.956       -3107.498           0.117  
G04  23771402.523     -102028.861       -4824.490           0.100  
G05  22541836.387      -13559.018        -668.305           0.114  
G06  20637021.036      -62391.297       -3061.511           0.131  
G07  23540706.962      -79065.833       -4034.574           0.103  
G09  23016657.528      -73049.884       -4126.915           0.108  
> 2023 05 18 00 00 37.7688020  0  7                     
G02  24437279.590        6902.806         257.868           0.095  
G03  22284973.434      -68611.721       -3105.810           0.118  
G04  23771527.315     -102511.296       -4823.276           0.101  
G05  22541852.867      -13625.390        -661.374           0.114  
G06  20637095.974      -62697.451       -3059.929           0.131  
G07  23540810.043      -79469.532       -4034.040           0.104  
G09  23016764.760      -73462.232       -4122.451           0.108  
> 2023 05 18 00 00 37.8688020  0  7                     
G02  24437276.129        6928.741         258.311           0.095  
G03  22285050.815      -68922.349       -3104.370           0.118  
G04  23771651.472     -102993.559       -4823.035           0.101  
G05  22541868.345      -13691.636        -663.902           0.114  
G06  20637174.665      -63003.496       -3062.493           0.131  
G07  23540915.590      -79873.153       -4034.540           0.104  
G09  23016870.473      -73874.382       -4124.602           0.108  
> 2023 05 18 00 00 37.9688020  0  7                     
G02  24437275.456        6954.577         258.243           0.096  
G03  22285128.518      -69233.131       -3107.344           0.118  
G04  23771770.406     -103475.953       -4823.422           0.101  
G05  22541887.307      -13757.968        -664.910           0.115  
G06  20637250.925      -63309.639       -3061.733           0.131  
G07  23541015.277      -80276.911       -4038.020           0.104  
G09  23016973.680      -74286.669       -4122.876           0.108  
> 2023 05 18 00 00 38.0688020  0  7                     
G02  24437266.362        6980.062         254.834           0.094  
G03  22285210.518      -69544.000       -3077.884           0.117  
G04  23771896.402     -103958.698       -4830.256           0.101  
G05  22541901.405      -13824.459        -571.798           0.115  
G06  20637332.459      -63616.122       -3067.763           0.131  
G07  23541121.324      -80680.656       -4004.804           0.104  
G09  23017075.825      -74699.610       -4138.787           0.108  
> 2023 05 18 00 00 38.1688020  0  7                     
G02  24437256.196        7005.501         252.868           0.096  
G03  22285291.857      -69855.355       -3110.612           0.118  
G04  23772014.366     -104441.474       -4826.583           0.101  
G05  22541922.206      -13891.393        -664.812           0.114  
G06  20637410.522      -63922.649       -3064.860           0.131  
G07  23541221.570      -81085.096       -4040.984           0.104  
G09  23017180.997      -75111.980       -4126.762           0.108  
> 2023 05 18 00 00 38.2688020  0  7                     
G02  24437245.649        7031.247         262.222           0.096  
G03  22285364.506      -70166.214       -3104.582           0.118  
G04  23772137.997     -104924.009       -4825.740           0.100  
G05  22541935.184      -13957.869        -663.029           0.115  
G06  20637486.468      -64228.881       -3058.396           0.131  
G07  23541330.511      -81488.943       -4036.886           0.103  
G09  23017285.993      -75524.378       -4120.651           0.108  
> 2023 05 18 00 00 38.3688020  0  7                     
G02  24437241.950        7057.522         263.561           0.096  
G03  22285442.476      -70476.591       -3101.309           0.118  
G04  23772258.059     -105405.949       -4817.827           0.100  
G05  22541956.236      -14023.800        -657.082           0.114  
G06  20637563.258      -64534.617       -3054.150           0.131  
G07  23541424.273      -81892.259       -4031.989           0.104  
G09  23017391.407      -75936.239       -4118.463           0.108  
> 2023 05 18 00 00 38.4688020  0  7                     
G02  24437233.211        7083.909         261.450           0.096  
G03  22285523.478      -70786.793       -3102.825           0.118  
G04  23772385.822     -105887.784       -4819.414           0.101  
G05  22541971.664      -14089.601        -656.445           0.114  
G06  20637640.737      -64840.213       -3057.675           0.131  
G07  23541528.511      -82295.409       -4032.560           0.105  
G09  23017502.828      -76347.936       -4117.408           0.107  
> 2023 05 18 00 00 38.5688020  0  7                     
G02  24437225.666        7110.254         260.817           0.095  
G03  22285603.808      -71097.087       -3104.738           0.118  
G04  23772506.337     -106369.670       -4818.582           0.101  
G05  22541986.980      -14155.462        -656.769           0.114  
G06  20637718.865      -65145.861       -3058.122           0.131  
G07  23541629.763      -82698.668       -4034.880           0.105  
G09  23017604.020      -76759.737       -4117.918           0.108  
> 2023 05 18 00 00 38.6688020  0  7                     
G02  24437221.592        7136.482         262.271           0.095  
G03  22285680.321      -71407.499       -3106.154           0.118  
G04  23772624.932     -106851.716       -4821.938           0.101  
G05  22542003.124      -14221.480        -659.082           0.114  
G06  20637796.902      -65451.643       -3058.481           0.131  
G07  23541735.025      -83102.000       -4031.134           0.104  
G09  23017705.616      -77171.663       -4120.491           0.108  
> 2023 05 18 00 00 38.7688020  0  7                     
G02  24437214.272        7162.490         262.186           0.096  
G03  22285759.515      -71718.117       -3105.408           0.118  
G04  23772751.222     -107333.964       -4823.572           0.100  
G05  22542021.303      -14287.687        -660.946           0.115  
G06  20637875.100      -65757.653       -3061.110           0.131  
G07  23541837.510      -83505.600       -4034.305           0.104  
G09  23017811.474      -77583.784       -4120.169           0.108  
> 2023 05 18 00 00 38.8688020  0  7                     
G02  24437209.543        7188.346         259.192           0.096  
G03  22285841.009      -72028.894       -3108.887           0.118  
G04  23772869.906     -107816.337       -4822.603           0.100  
G05  22542035.350      -14354.036        -663.317           0.115  
G06  20637952.483      -66063.778       -3060.620           0.131  
G07  23541940.520      -83909.324       -4037.615           0.104  
G09  23017922.910      -77996.017       -4118.912           0.107  
> 2023 05 18 00 00 38.9688020  0  7                     
G02  24437201.698        7214.025         257.437           0.096  
G03  22285917.544      -72339.813       -3108.432           0.118  
G04  23772995.650     -108298.877       -4822.544           0.099  
G05  22542052.753      -14420.547        -664.068           0.113  
G06  20638033.377      -66370.070       -3060.742           0.131  
G07  23542045.553      -84313.233       -4042.521           0.102  
G09  23018020.896      -78408.466       -4122.795           0.107  
> 2023 05 18 00 00 39.0688020  0  7                     
G02  24437194.101        7239.845         261.701           0.096  
G03  22285994.707      -72650.675       -3106.451           0.118  
G04  23773121.106     -108781.322       -4821.198           0.100  
G05  22542067.803      -14486.940        -662.928           0.114  
G06  20638111.454      -66676.329       -3061.818           0.131  
G07  23542148.013      -84717.037       -4039.208           0.103  
G09  23018118.724      -78820.834       -4123.674           0.108  
> 2023 05 18 00 00 39.1688020  0  7                     
G02  24437186.385        7265.484         249.914           0.095  
G03  22286075.410      -72961.619       -3110.917           0.118  
G04  23773246.152     -109263.841       -4824.434           0.100  
G05  22542087.564      -14553.466        -667.936           0.115  
G06  20638188.154      -66982.629       -3065.064           0.131  
G07  23542250.729      -85120.919       -4042.760           0.101  
G09  23018232.818      -79233.245       -4125.058           0.107  
> 2023 05 18 00 00 39.2688020  0  7                     
G02  24437183.146        7290.364         242.706           0.095  
G03  22286153.493      -73273.451       -3121.321           0.117  
G04  23773368.316     -109747.273       -4835.368           0.100  
G05  22542103.326      -14620.887        -678.526           0.112  
G06  20638265.285      -67289.834       -3075.040           0.130  
G07  23542351.578      -85525.663       -4050.320           0.103  
G09  23018339.364      -79646.566       -4137.443           0.107  
> 2023 05 18 00 00 39.3688020  0  7                     
G02  24437171.380        7314.345         235.392           0.093  
G03  22286233.509      -73586.102       -3127.828           0.117  
G04  23773488.998     -110231.540       -4844.800           0.100  
G05  22542118.948      -14688.474        -542.009           0.114  
G06  20638344.760      -67597.857       -3082.970           0.131  
G07  23542458.053      -85930.797       -4234.502           0.102  
G09  23018441.408      -80059.508       -4222.886           0.107  
> 2023 05 18 00 00 39.4688020  0  7                     
G02  24437165.694        7338.458         237.280           0.094  
G03  22286312.144      -73898.649       -3123.897           0.117  
G04  23773614.730     -110715.657       -4839.284           0.100  
G05  22542136.447      -14757.161        -676.838           0.114  
G06  20638420.739      -67905.775       -3076.528           0.131  
G07  23542553.561      -86336.777       -4056.350           0.103  
G09  23018548.406      -80474.727       -4139.373           0.108  
> 2023 05 18 00 00 39.5688020  0  7                     
G02  24437165.910        7363.040         243.021           0.095  
G03  22286390.033      -74210.759       -3128.055           0.117  
G04  23773732.085     -111199.346       -4843.101           0.100  
G05  22542154.768      -14824.846        -679.394           0.114  
G06  20638497.293      -68213.233       -3078.890           0.131  
G07  23542656.897      -86741.812       -4055.044           0.101  
G09  23018654.710      -80888.306       -4142.662           0.108  
> 2023 05 18 00 00 39.6688020  0  7                     
G02  24437153.365        7387.009         240.972           0.095  
G03  22286472.708      -74523.434       -3125.176           0.117  
G04  23773858.042     -111683.603       -4842.072           0.100  
G05  22542171.548      -14893.104        -681.924           0.114  
G06  20638577.300      -68521.295       -3078.848           0.130  
G07  23542764.945      -87147.455       -4055.072           0.104  
G09  23018760.830      -81302.445       -4140.108           0.107  
> 2023 05 18 00 00 39.7688020  0  7                     
G02  24437144.030        7411.014         238.260           0.094  
G03  22286550.961      -74836.099       -3125.077           0.116  
G04  23773982.923     -112167.792       -4837.134           0.099  
G05  22542190.092      -14961.316        -682.217           0.113  
G06  20638656.143      -68829.312       -3077.636           0.130  
G07  23542863.564      -87553.032       -4051.740           0.103  
G09  23018864.570      -81716.553       -4139.462           0.106  
> 2023 05 18 00 00 39.8688020  0  7                     
G02  24437137.330        7436.023         253.710           0.092  
G03  22286629.668      -75147.735       -3109.180           0.116  
G04  23774106.337     -112651.034       -4826.147           0.097  
G05  22542205.929      -15028.531        -667.017           0.113  
G06  20638735.433      -69136.344       -3063.973           0.129  
G07  23542968.406      -87957.693       -4040.456           0.102  
G09  23018970.074      -82129.719       -4128.222           0.107  
> 2023 05 18 00 00 39.9688020  0  7                     
G02  24437137.010        7461.521         256.422           0.092  
G03  22286709.417      -75458.935       -3109.045           0.115  
G04  23774227.190     -113133.795       -4825.038           0.098  
G05  22542223.555      -15095.276        -664.289           0.113  
G06  20638811.190      -69442.896       -3063.085           0.129  
G07  23543073.140      -88361.801       -4038.427           0.100  
G09  23019073.861      -82542.347       -4124.780           0.107  
> 2023 05 18 00 00 40.0688020  0  7                     
G02  24437130.099        7487.435         264.063           0.092  
G03  22286793.508      -75769.787       -3106.670           0.116  
G04  23774346.499     -113616.190       -4821.995           0.098  
G05  22542239.055      -15161.615        -660.915           0.112  
G06  20638889.508      -69749.064       -3061.587           0.128  
G07  23543175.466      -88765.516       -4034.841           0.100  
G09  23019177.435      -82954.582       -4119.608           0.105  
> 2023 05 18 00 00 40.1688020  0  7                     
G02  24437124.602        7513.575         262.866           0.091  
G03  22286868.057      -76080.324       -3106.348           0.114  
G04  23774472.831     -114098.273       -4822.665           0.097  
G05  22542256.419      -15227.736        -664.966           0.109  
G06  20638966.834      -70054.965       -3059.565           0.127  
G07  23543277.172      -89169.008       -4035.699           0.101  
G09  23019282.950      -83366.588       -4121.028           0.104  
> 2023 05 18 00 00 40.2688020  0  7                     
G02  24437114.474        7539.657         258.463           0.089  
G03  22286947.985      -76390.930       -3107.154           0.113  
G04  23774594.020     -114580.457       -4823.814           0.095  
G05  22542275.373      -15293.864        -662.782           0.111  
G06  20639046.764      -70360.932       -3059.739           0.127  
G07  23543381.764      -89572.559       -4035.783           0.099  
G09  23019390.622      -83778.675       -4122.240           0.105  
> 2023 05 18 00 00 40.3688020  0  7                     
G02  24437112.377        7565.725         259.699           0.089  
G03  22287026.453      -76701.572       -3107.470           0.113  
G04  23774720.436     -115062.663       -4821.748           0.096  
G05  22542287.952      -15360.080        -663.616           0.110  
G06  20639121.844      -70666.934       -3059.447           0.126  
G07  23543484.470      -89976.127       -4034.872           0.100  
G09  23019494.973      -84190.752       -4121.522           0.105  
> 2023 05 18 00 00 40.4688020  0  7                     
G02  24437101.558        7591.754         254.669           0.091  
G03  22287103.208      -77012.242       -3106.048           0.113  
G04  23774840.879     -115544.870       -4820.986           0.096  
G05  22542306.941      -15426.284        -663.163           0.110  
G06  20639203.031      -70972.948       -3060.018           0.126  
G07  23543586.069      -90379.716       -4035.612           0.100  
G09  23019598.525      -84602.864       -4122.037           0.103  
> 2023 05 18 00 00 40.5688020  0  7                     
G02  24437096.200        7617.859         261.197           0.089  
G03  22287182.479      -77322.872       -3106.403           0.112  
G04  23774964.157     -116027.063       -4821.949           0.096  
G05  22542325.883      -15492.442        -661.462           0.110  
G06  20639277.950      -71278.956       -3059.706           0.125  
G07  23543686.995      -90783.254       -4029.825           0.097  
G09  23019702.762      -85014.903       -4075.710           0.103  
> 2023 05 18 00 00 40.6688020  0  7                     
G02  24437089.978        7643.930         261.921           0.090  
G03  22287260.530      -77633.543       -3106.965           0.112  
G04  23775084.699     -116509.244       -4823.122           0.096  
G05  22542342.100      -15558.636        -664.918           0.109  
G06  20639356.018      -71584.964       -3059.514           0.125  
G07  23543792.262      -91186.850       -4035.083           0.098  
G09  23019806.027      -85427.020       -4123.324           0.101  
> 2023 05 18 00 00 40.7688020  0  7                     
G02  24437081.314        7669.828         262.055           0.088  
G03  22287345.526      -77944.347       -3109.472           0.112  
G04  23775210.088     -116991.557       -4820.718           0.092  
G05  22542357.564      -15624.941        -664.538           0.106  
G06  20639433.745      -71891.096       -3059.592           0.124  
G07  23543894.863      -91590.560       -4038.335           0.097  
G09  23019910.842      -85839.206       -4122.799           0.101  
> 2023 05 18 00 00 40.8688020  0  7                     
G02  24437079.308        7695.673         262.159           0.090  
G03  22287424.123      -78255.193       -3110.457           0.110  
G04  23775330.816     -117474.004       -4823.993           0.095  
G05  22542372.056      -15691.341        -664.291           0.109  
G06  20639512.364      -72197.329       -3061.719           0.123  
G07  23543994.762      -91994.342       -4036.314           0.096  
G09  23020018.574      -86251.520       -4121.982           0.101  
> 2023 05 18 00 00 40.9688020  0  7                     
G02  24437076.215        7721.303         249.721           0.091  
G03  22287501.253      -78566.282       -3115.029           0.112  
G04  23775454.076     -117956.610       -4829.375           0.096  
G05  22542391.074      -15757.496        -705.388           0.110  
G06  20639588.956      -72503.794       -3070.670           0.126  
G07  23544099.815      -92399.253       -4033.046           0.098  
G09  23020117.794      -86663.959       -4081.115           0.102  
> 2023 05 18 00 00 41.0688020  0  7                     
G02  24437063.489        7745.596         237.234           0.088  
G03  22287579.130      -78878.751       -3128.319           0.112  
G04  23775579.702     -118440.619       -4844.029           0.096  
G05  22542407.961      -15826.037        -690.381           0.109  
G06  20639669.363      -72811.589       -3082.355           0.125  
G07  23544203.952      -92803.764       -4058.493           0.097  
G09  23020221.370      -87077.912       -4144.938           0.101  
> 2023 05 18 00 00 41.1688020  0  7                     
G02  24437056.042        7769.249         240.010           0.090  
G03  22287660.550      -79191.824       -3129.143           0.112  
G04  23775702.796     -118925.195       -4845.557           0.096  
G05  22542424.015      -15894.587        -683.845           0.109  
G06  20639745.263      -73119.994       -3082.593           0.125  
G07  23544304.526      -93209.717       -4059.027           0.098  
G09  23020331.513      -87492.400       -4145.596           0.101  
> 2023 05 18 00 00 41.2688020  0  7                     
G02  24437047.761        7793.567         252.064           0.089  
G03  22287737.741      -79504.234       -3118.665           0.112  
G04  23775825.752     -119409.123       -4833.480           0.095  
G05  22542437.957      -15962.533        -673.328           0.109  
G06  20639824.951      -73427.771       -3073.312           0.126  
G07  23544408.050      -93615.292       -4012.096           0.098  
G09  23020438.650      -87906.506       -4161.022           0.102  
> 2023 05 18 00 00 41.3688020  0  7                     
G02  24437051.040        7818.659         254.600           0.088  
G03  22287821.111      -79815.895       -3114.916           0.112  
G04  23775951.021     -119892.275       -4830.592           0.095  
G05  22542460.151      -16029.749        -674.127           0.109  
G06  20639905.657      -73734.786       -3071.422           0.125  
G07  23544511.634      -94019.670       -4050.363           0.096  
G09  23020545.113      -88319.312       -4131.819           0.102  
> 2023 05 18 00 00 41.4688020  0  7                     
G02  24437042.086        7844.148         256.024           0.090  
G03  22287898.293      -80127.149       -3111.487           0.112  
G04  23776067.579     -120375.077       -4829.252           0.095  
G05  22542477.912      -16096.452        -663.626           0.107  
G06  20639980.034      -74041.363       -3065.667           0.125  
G07  23544611.123      -94423.786       -4038.643           0.098  
G09  23020648.316      -88731.956       -4122.809           0.102  
> 2023 05 18 00 00 41.5688020  0  7                     
G02  24437029.856        7870.016         260.615           0.089  
G03  22287976.677      -80438.038       -3105.941           0.112  
G04  23776188.959     -120857.467       -4824.397           0.094  
G05  22542496.527      -16162.846        -663.452           0.108  
G06  20640058.655      -74347.600       -3061.574           0.125  
G07  23544717.354      -94827.618       -4036.810           0.097  
G09  23020752.537      -89144.240       -4120.992           0.102  
> 2023 05 18 00 00 41.6688020  0  7                     
G02  24437021.820        7896.074         263.041           0.091  
G03  22288053.466      -80748.746       -3106.988           0.112  
G04  23776313.525     -121339.684       -4821.001           0.096  
G05  22542512.572      -16229.087        -664.050           0.109  
G06  20640135.172      -74653.663       -3061.332           0.125  
G07  23544817.121      -95231.194       -4035.593           0.097  
G09  23020859.745      -89556.356       -4122.912           0.103  
> 2023 05 18 00 00 41.7688020  0  7                     
G02  24437014.905        7922.156         258.004           0.091  
G03  22288134.113      -81059.431       -3107.497           0.113  
G04  23776435.690     -121821.910       -4822.045           0.095  
G05  22542523.922      -16295.314        -663.421           0.109  
G06  20640213.920      -74959.678       -3060.621           0.125  
G07  23544923.346      -95634.810       -4035.010           0.099  
G09  23020965.213      -89968.414       -4120.272           0.103  
> 2023 05 18 00 00 41.8688020  0  7                     
G02  24437013.348        7948.194         259.433           0.090  
G03  22288213.599      -81370.203       -3107.886           0.113  
G04  23776559.667     -122304.138       -4820.471           0.095  
G05  22542542.611      -16361.575        -663.480           0.111  
G06  20640292.460      -75265.777       -3062.620           0.126  
G07  23545027.631      -96038.429       -4039.234           0.099  
G09  23021070.021      -90380.559       -4121.662           0.103  
> 2023 05 18 00 00 41.9688020  0  7                     
G02  24437004.845        7974.073         260.870           0.092  
G03  22288290.421      -81681.086       -3111.674           0.113  
G04  23776681.841     -122786.524       -4826.590           0.095  
G05  22542558.176      -16427.924        -665.479           0.111  
G06  20640372.208      -75572.001       -3063.767           0.126  
G07  23545129.806      -96442.241       -4042.215           0.098  
G09  23021169.934      -90792.828       -4124.716           0.103  
> 2023 05 18 00 00 42.0688020  0  7                     
G02  24436993.216        7999.868         254.630           0.091  
G03  22288371.036      -81992.042       -3108.913           0.114  
G04  23776804.560     -123268.946       -4823.348           0.098  
G05  22542576.020      -16494.378        -662.428           0.112  
G06  20640447.223      -75878.285       -3061.132           0.128  
G07  23545233.111      -96846.065       -4037.610           0.101  
G09  23021277.847      -91205.151       -4123.845           0.104  
> 2023 05 18 00 00 42.1688020  0  7                     
G02  24436990.271        8025.645         255.608           0.093  
G03  22288450.373      -82303.051       -3109.782           0.116  
G04  23776927.869     -123751.461       -4826.199           0.097  
G05  22542592.037      -16560.903        -664.816           0.112  
G06  20640526.652      -76184.653       -3062.175           0.128  
G07  23545330.873      -97249.986       -4040.110           0.100  
G09  23021381.297      -91617.535       -4122.737           0.105  
> 2023 05 18 00 00 42.2688020  0  7                     
G02  24436978.375        8051.586         257.568           0.093  
G03  22288530.243      -82613.883       -3108.734           0.117  
G04  23777053.104     -124233.796       -4823.324           0.100  
G05  22542609.415      -16627.248        -662.424           0.113  
G06  20640602.218      -76490.817       -3060.224           0.128  
G07  23545435.688      -97653.748       -4043.507           0.102  
G09  23021486.069      -92029.719       -4119.955           0.106  
> 2023 05 18 00 00 42.3688020  0  7                     
G02  24436972.013        8077.330         257.104           0.094  
G03  22288609.602      -82924.930       -3108.373           0.117  
G04  23777170.813     -124716.328       -4824.500           0.099  
G05  22542627.206      -16693.833        -666.206           0.113  
G06  20640680.658      -76797.197       -3062.022           0.129  
G07  23545534.164      -98057.696       -4044.526           0.102  
G09  23021591.726      -92442.181       -4126.453           0.106  
> 2023 05 18 00 00 42.4688020  0  7                     
G02  24436968.571        8103.098         260.074           0.094  
G03  22288689.265      -83235.973       -3109.254           0.116  
G04  23777293.320     -125198.832       -4823.325           0.100  
G05  22542642.733      -16760.308        -663.820           0.113  
G06  20640756.759      -77103.584       -3062.654           0.130  
G07  23545639.822      -98461.592       -4037.908           0.102  
G09  23021696.028      -92854.546       -4120.204           0.106  
> 2023 05 18 00 00 42.5688020  0  7                     
G02  24436959.540        8128.837         256.048           0.094  
G03  22288765.411      -83547.036       -3115.413           0.116  
G04  23777418.577     -125681.349       -4831.067           0.099  
G05  22542661.013      -16826.909        -672.378           0.112  
G06  20640835.926      -77410.000       -3069.126           0.130  
G07  23545743.802      -98865.563       -4045.971           0.103  
G09  23021800.700      -93266.974       -4129.724           0.106  
> 2023 05 18 00 00 42.6688020  0  7                     
G02  24436954.329        8153.581         247.946           0.093  
G03  22288844.595      -83859.103       -3122.275           0.116  
G04  23777541.444     -126164.904       -4831.819           0.098  
G05  22542677.476      -16894.414        -676.484           0.112  
G06  20640913.304      -77717.398       -3075.109           0.128  
G07  23545844.688      -99270.581       -4053.182           0.100  
G09  23021905.213      -93680.405       -4136.020           0.106  
> 2023 05 18 00 00 42.7688020  0  7                     
G02  24436949.909        8177.656         244.056           0.094  
G03  22288922.338      -84171.842       -3125.553           0.116  
G04  23777664.438     -126649.115       -4839.142           0.098  
G05  22542692.574      -16962.689        -680.419           0.114  
G06  20640993.991      -78025.472       -3077.303           0.128  
G07  23545950.518      -99676.154       -4054.168           0.100  
G09  23022009.055      -94094.498       -4139.117           0.105  
> 2023 05 18 00 00 42.8688020  0  7                     
G02  24436941.603        8202.016         250.572           0.093  
G03  22289004.300      -84484.273       -3119.272           0.116  
G04  23777788.725     -127133.018       -4835.914           0.098  
G05  22542710.374      -17030.627        -674.805           0.111  
G06  20641071.440      -78333.227       -3073.984           0.129  
G07  23546052.229     -100081.467       -4049.499           0.101  
G09  23022116.797      -94508.280       -4132.123           0.106  
> 2023 05 18 00 00 42.9688020  0  7                     
G02  24436933.523        8227.119         251.529           0.093  
G03  22289083.324      -84796.009       -3115.587           0.115  
G04  23777910.624     -127616.225       -4830.333           0.098  
G05  22542723.440      -17097.812        -669.303           0.113  
G06  20641148.549      -78640.301       -3068.477           0.130  
G07  23546154.215     -100487.189       -4174.381           0.102  
G09  23022220.716      -94921.360       -4129.306           0.105  
> 2023 05 18 00 00 43.0688020  0  7                     
G02  24436927.743        8252.329         252.019           0.092  
G03  22289163.568      -85107.619       -3114.726           0.114  
G04  23778033.168     -128099.271       -4829.477           0.097  
G05  22542745.807      -17164.922        -671.939           0.111  
G06  20641227.781      -78947.236       -3067.907           0.128  
G07  23546254.149     -100890.609       -4045.928           0.100  
G09  23022326.592      -95334.309       -4128.711           0.105  
> 2023 05 18 00 00 43.1688020  0  7                     
G02  24436919.441        8277.737         255.919           0.091  
G03  22289244.493      -85419.036       -3114.306           0.114  
G04  23778160.119     -128582.166       -4832.009           0.095  
G05  22542761.212      -17231.786        -672.287           0.110  
G06  20641305.641      -79253.959       -3068.612           0.128  
G07  23546357.268     -101294.886       -4043.363           0.100  
G09  23022428.581      -95747.022       -4122.618           0.104  
> 2023 05 18 00 00 43.2688020  0  7                     
G02  24436913.194        8303.213         251.073           0.092  
G03  22289319.225      -85730.389       -3116.760           0.114  
G04  23778280.794     -129064.940       -4833.803           0.096  
G05  22542777.288      -17298.564        -668.522           0.109  
G06  20641386.774      -79560.640       -3068.376           0.127  
G07  23546461.759     -101699.103       -4045.415           0.099  
G09  23022536.256      -96159.745       -4129.597           0.103  
> 2023 05 18 00 00 43.3688020  0  7                     
G02  24436901.126        8328.624         254.177           0.090  
G03  22289399.959      -86041.851       -3111.094           0.114  
G04  23778401.258     -129547.840       -4824.318           0.095  
G05  22542795.527      -17365.543        -663.284           0.110  
G06  20641462.380      -79867.416       -3064.021           0.126  
G07  23546567.256     -102103.412       -4039.146           0.098  
G09  23022640.332      -96572.522       -4124.198           0.104  
> 2023 05 18 00 00 43.4688020  0  7                     
G02  24436901.878        8354.653         262.262           0.092  
G03  22289482.575      -86352.672       -3107.059           0.113  
G04  23778523.797     -130030.097       -4824.269           0.098  
G05  22542813.051      -17431.828        -664.595           0.111  
G06  20641540.210      -80173.561       -3058.142           0.127  
G07  23546669.151     -102507.120       -4034.973           0.098  
G09  23022745.435      -96984.688       -4121.827           0.104  
> 2023 05 18 00 00 43.5688020  0  7                     
G02  24436900.993        8380.841         261.870           0.093  
G03  22289560.079      -86663.324       -3106.779           0.115  
G04  23778645.665     -130512.184       -4820.881           0.097  
G05  22542830.410      -17497.971        -660.439           0.112  
G06  20641615.841      -80479.560       -3060.888           0.128  
G07  23546770.748     -102910.679       -4039.553           0.101  
G09  23022853.138      -97396.635       -4120.489           0.105  
> 2023 05 18 00 00 43.6688020  0  7                     
G02  24436887.555        8407.157         265.495           0.093  
G03  22289633.111      -86973.904       -3106.077           0.115  
G04  23778771.052     -130994.177       -4824.523           0.098  
G05  22542842.005      -17563.996        -660.477           0.111  
G06  20641694.595      -80785.426       -3058.831           0.128  
G07  23546872.458     -103314.080       -4035.280           0.100  
G09  23022954.183      -97808.552       -4119.015           0.105  
> 2023 05 18 00 00 43.7688020  0  7                     
G02  24436882.502        8432.108         245.364           0.092  
G03  22289717.030      -87285.759       -3124.556           0.115  
G04  23778891.248     -131477.480       -4838.383           0.098  
G05  22542863.403      -17631.322        -679.679           0.112  
G06  20641771.116      -81092.620       -3078.361           0.127  
G07  23546974.165     -103718.869       -4055.360           0.099  
G09  23023056.740      -98221.759       -4140.058           0.104  
> 2023 05 18 00 00 43.8688020  0  7                     
G02  24436874.466        8456.906         249.447           0.093  
G03  22289793.252      -87597.828       -3121.110           0.114  
G04  23779015.521     -131960.967       -4832.336           0.097  
G05  22542879.047      -17698.842        -675.061           0.112  
G06  20641852.635      -81399.978       -3073.719           0.128  
G07  23547081.546     -104123.789       -4050.525           0.100  
G09  23023165.084      -98635.111       -4132.420           0.104  
> 2023 05 18 00 00 43.9688020  0  7                     
G02  24436868.456        8482.173         250.681           0.091  
G03  22289875.265      -87909.418       -3115.658           0.114  
G04  23779136.808     -132443.944       -4827.748           0.097  
G05  22542898.211      -17765.896        -668.972           0.110  
G06  20641927.008      -81706.895       -3066.951           0.128  
G07  23547184.157     -104528.287       -4045.237           0.100  
G09  23023273.704      -99048.015       -4130.437           0.104  
> 2023 05 18 00 00 44.0688020  0  7                     
G02  24436855.609        8507.335         249.021           0.091  
G03  22289953.761      -88221.111       -3117.891           0.115  
G04  23779264.516     -132927.084       -4830.053           0.096  
G05  22542912.830      -17833.091        -671.335           0.110  
G06  20642008.194      -82013.909       -3069.183           0.127  
G07  23547287.913     -104932.816       -4047.227           0.100  
G09  23023374.090      -99460.998       -4127.806           0.103  
> 2023 05 18 00 00 44.1688020  0  7                     
G02  24436849.577        8532.901         257.708           0.092  
G03  22290036.543      -88532.430       -3110.767           0.114  
G04  23779383.236     -133409.822       -4823.089           0.097  
G05  22542928.204      -17899.851        -668.266           0.112  
G06  20642086.382      -82320.556       -3064.369           0.127  
G07  23547394.040     -105337.023       -4044.918           0.099  
G09  23023481.243      -99873.619       -4123.597           0.103  
> 2023 05 18 00 00 44.2688020  0  7                     
G02  24436844.714        8558.669         260.375           0.093  
G03  22290112.718      -88843.544       -3111.784           0.115  
G04  23779506.757     -133892.366       -4825.122           0.097  
G05  22542946.575      -17966.432        -663.497           0.111  
G06  20642165.549      -82626.995       -3064.260           0.128  
G07  23547495.960     -105741.031       -4041.802           0.100  
G09  23023586.389     -100286.049       -4123.462           0.105  
> 2023 05 18 00 00 44.3688020  0  7                     
G02  24436841.384        8584.714         262.396           0.092  
G03  22290190.926      -89154.397       -3105.717           0.115  
G04  23779630.940     -134374.639       -4820.295           0.098  
G05  22542962.245      -18032.750        -661.406           0.112  
G06  20642239.182      -82933.157       -3060.420           0.128  
G07  23547598.814     -106144.716       -4033.751           0.101  
G09  23023692.780     -100698.168       -4119.412           0.104  
> 2023 05 18 00 00 44.4688020  0  7                     
G02  24436833.337        8610.980         262.629           0.093  
G03  22290272.902      -89465.000       -3107.075           0.115  
G04  23779754.277     -134856.660       -4825.615           0.097  
G05  22542981.821      -18098.772        -663.501           0.113  
G06  20642315.582      -83239.079       -3061.331           0.129  
G07  23547702.554     -106548.196       -4037.843           0.101  
G09  23023798.594     -101110.091       -4120.281           0.106  
> 2023 05 18 00 00 44.5688020  0  7                     
G02  24436832.454        8636.855         256.430           0.092  
G03  22290348.880      -89776.030       -3111.434           0.116  
G04  23779877.020     -135339.125       -4828.873           0.099  
G05  22542994.683      -18165.238        -665.145           0.112  
G06  20642394.738      -83545.404       -3064.197           0.129  
G07  23547801.402     -106952.085       -4041.193           0.100  
G09  23023896.738     -101522.398       -4124.271           0.106  
> 2023 05 18 00 00 44.6688020  0  7                     
G02  24436825.260        8662.693         255.124           0.092  
G03  22290427.871      -90087.100       -3113.025           0.116  
G04  23779997.881     -135821.556       -4828.503           0.098  
G05  22543009.556      -18231.771        -664.214           0.111  
G06  20642474.060      -83851.762       -3062.719           0.128  
G07  23547901.394     -107355.993       -4039.074           0.101  
G09  23024001.853     -101934.722       -4122.961           0.105  
> 2023 05 18 00 00 44.7688020  0  7                     
G02  24436816.381        8688.444         255.186           0.091  
G03  22290503.750      -90398.209       -3112.176           0.115  
G04  23780121.796     -136304.074       -4827.997           0.097  
G05  22543028.241      -18298.339        -666.061           0.110  
G06  20642552.897      -84158.208       -3062.410           0.128  
G07  23548002.038     -107759.958       -4040.118           0.101  
G09  23024112.376     -102347.185       -4123.785           0.106  
> 2023 05 18 00 00 44.8688020  0  7                     
G02  24436805.721        8714.136         257.626           0.089  
G03  22290586.943      -90709.412       -3109.344           0.114  
G04  23780243.821     -136786.679       -4824.169           0.096  
G05  22543046.225      -18364.976        -666.093           0.110  
G06  20642629.538      -84464.727       -3063.301           0.126  
G07  23548105.313     -108164.053       -4041.178           0.100  
G09  23024215.012     -102759.671       -4124.695           0.103  
> 2023 05 18 00 00 44.9688020  0  7                     
G02  24436798.507        8739.773         256.504           0.090  
G03  22290662.929      -91020.714       -3110.672           0.112  
G04  23780366.596     -137269.357       -4827.030           0.096  
G05  22543064.153      -18431.691        -665.773           0.109  
G06  20642710.394      -84771.340       -3065.503           0.126  
G07  23548214.798     -108568.167       -4040.283           0.098  
G09  23024314.661     -103172.228       -4125.785           0.103  
> 2023 05 18 00 00 45.0688020  0  7                     
G02  24436795.740        8765.344         257.898           0.091  
G03  22290742.644      -91332.089       -3114.583           0.113  
G04  23780486.498     -137752.111       -4828.738           0.095  
G05  22543079.372      -18498.514        -668.864           0.108  
G06  20642783.176      -85078.006       -3066.032           0.126  
G07  23548314.778     -108972.408       -4045.977           0.099  
G09  23024426.087     -103584.856       -4127.498           0.103  
> 2023 05 18 00 00 45.1688020  0  7                     
G02  24436788.656        8790.936         257.648           0.091  
G03  22290825.335      -91643.441       -3113.346           0.113  
G04  23780611.382     -138234.827       -4827.418           0.098  
G05  22543097.445      -18565.351        -671.503           0.110  
G06  20642865.463      -85384.651       -3065.560           0.127  
G07  23548417.094     -109376.568       -4044.693           0.099  
G09  23024525.751     -103997.468       -4128.913           0.105  
> 2023 05 18 00 00 45.2688020  0  7                     
G02  24436778.521        8816.116         250.800           0.092  
G03  22290904.296      -91955.160       -3118.234           0.115  
G04  23780733.875     -138717.961       -4838.331           0.097  
G05  22543112.636      -18632.508        -676.881           0.109  
G06  20642940.243      -85691.687       -3071.670           0.127  
G07  23548517.432     -109781.160       -4048.189           0.101  
G09  23024632.631     -104410.418       -4131.077           0.104  
> 2023 05 18 00 00 45.3688020  0  7                     
G02  24436774.962        8841.182         251.855           0.092  
G03  22290984.324      -92266.581       -3133.944           0.115  
G04  23780859.391     -139201.143       -4828.686           0.097  
G05  22543128.997      -18699.787        -625.019           0.113  
G06  20643022.884      -85998.828       -3068.301           0.128  
G07  23548619.175     -110184.284       -3905.324           0.102  
G09  23024737.433     -104823.545       -4128.767           0.105  
> 2023 05 18 00 00 45.4688020  0  7                     
G02  24436765.802        8866.565         253.944           0.093  
G03  22291062.727      -92578.563       -3115.933           0.115  
G04  23780982.307     -139684.082       -4829.526           0.098  
G05  22543148.376      -18766.692        -667.850           0.112  
G06  20643097.799      -86305.715       -3068.333           0.128  
G07  23548722.791     -110590.196       -4045.252           0.101  
G09  23024845.947     -105236.345       -4126.016           0.106  
> 2023 05 18 00 00 45.5688020  0  7                     
G02  24436757.784        8891.980         252.165           0.092  
G03  22291141.319      -92890.054       -3114.493           0.115  
G04  23781099.231     -140166.945       -4828.099           0.098  
G05  22543162.035      -18833.630        -667.714           0.111  
G06  20643176.791      -86612.515       -3068.585           0.128  
G07  23548831.892     -110994.589       -4043.470           0.099  
G09  23024950.422     -105649.137       -4128.571           0.106  
> 2023 05 18 00 00 45.6688020  0  7                     
G02  24436751.263        8917.460         255.887           0.092  
G03  22291220.148      -93201.583       -3117.286           0.115  
G04  23781224.994     -140649.803       -4829.368           0.097  
G05  22543180.596      -18900.554        -667.868           0.112  
G06  20643252.039      -86919.313       -3070.027           0.128  
G07  23548929.871     -111398.931       -4044.815           0.101  
G09  23025054.877     -106061.857       -4126.595           0.105  
> 2023 05 18 00 00 45.7688020  0  7                     
G02  24436749.094        8942.758         252.649           0.092  
G03  22291296.131      -93513.106       -3160.451           0.115  
G04  23781349.943     -141132.784       -4829.197           0.096  
G05  22543196.091      -18967.606        -673.868           0.110  
G06  20643331.232      -87226.236       -3071.862           0.128  
G07  23549032.402     -111804.280       -4148.673           0.100  
G09  23025163.544     -106474.717       -4128.204           0.103  
> 2023 05 18 00 00 45.8688020  0  7                     
G02  24436738.563        8966.944         235.521           0.090  
G03  22291375.486      -93825.958       -3133.885           0.114  
G04  23781474.770     -141616.925       -4848.557           0.097  
G05  22543218.924      -19035.807        -689.618           0.110  
G06  20643405.468      -87534.290       -3088.481           0.126  
G07  23549138.325     -112208.961       -4057.263           0.099  
G09  23025260.600     -106888.711       -4148.154           0.102  
> 2023 05 18 00 00 45.9688020  0  7                     
G02  24436734.739        8990.598         237.832           0.092  
G03  22291460.070      -94139.265       -3130.040           0.113  
G04  23781598.803     -142101.541       -4841.881           0.095  
G05  22543233.399      -19104.527        -682.153           0.111  
G06  20643488.279      -87842.886       -3083.302           0.127  
G07  23549238.972     -112615.140       -4057.842           0.099  
G09  23025365.588     -107303.277       -4142.678           0.102  
> 2023 05 18 00 00 46.0688020  0  7                     
G02  24436723.726        9014.850         245.829           0.091  
G03  22291534.852      -94451.949       -3124.537           0.113  
G04  23781724.077     -142585.593       -4836.647           0.096  
G05  22543249.326      -19172.628        -679.499           0.110  
G06  20643565.893      -88150.866       -3076.322           0.126  
G07  23549340.991     -113020.612       -4048.392           0.098  
G09  23025472.627     -107717.187       -4136.864           0.103  
> 2023 05 18 00 00 46.1688020  0  7                     
G02  24436718.243        9040.006         249.852           0.089  
G03  22291616.152      -94763.769       -3113.656           0.112  
G04  23781842.308     -143068.768       -4829.139           0.094  
G05  22543265.356      -19239.850        -670.961           0.110  
G06  20643641.419      -88457.976       -3066.841           0.126  
G07  23549445.329     -113425.293       -4047.667           0.099  
G09  23025580.603     -108130.242       -4128.629           0.102  
> 2023 05 18 00 00 46.2688020  0  7                     
G02  24436709.352        9065.545         250.006           0.089  
G03  22291698.779      -95075.191       -3115.361           0.112  
G04  23781965.099     -143551.531       -4828.005           0.094  
G05  22543283.213      -19306.660        -668.448           0.110  
G06  20643722.961      -88764.678       -3066.542           0.126  
G07  23549547.232     -113829.518       -4043.202           0.097  
G09  23025684.090     -108542.879       -4125.966           0.103  
> 2023 05 18 00 00 46.3688020  0  7                     
G02  24436706.286        9091.274         253.761           0.090  
G03  22291778.662      -95386.431       -3112.135           0.112  
G04  23782088.467     -144034.146       -4829.204           0.095  
G05  22543302.750      -19373.313        -665.742           0.108  
G06  20643800.851      -89071.243       -3067.143           0.126  
G07  23549648.279     -114233.614       -4042.003           0.099  
G09  23025791.862     -108955.371       -4126.251           0.103  
> 2023 05 18 00 00 46.4688020  0  7                     
G02  24436704.987        9116.740         253.526           0.091  
G03  22291853.979      -95697.956       -3112.783           0.114  
G04  23782212.665     -144516.962       -4826.514           0.096  
G05  22543318.881      -19440.246        -669.552           0.111  
G06  20643881.771      -89378.049       -3069.375           0.126  
G07  23549756.629     -114637.937       -4041.477           0.099  
G09  23025894.123     -109368.117       -4125.925           0.103  
> 2023 05 18 00 00 46.5688020  0  7                     
G02  24436699.766        9142.396         260.309           0.091  
G03  22291932.832      -96009.294       -3112.025           0.115  
G04  23782334.789     -144999.654       -4831.329           0.096  
G05  22543335.595      -19507.295        -804.249           0.112  
G06  20643956.409      -89684.665       -3066.172           0.127  
G07  23549859.871     -115040.144       -3922.266           0.100  
