     3.03           OBSERVATION DATA    M: Mixed            RINEX VERSION / TYPE
GNSS-SDRLIB v1.1                        20230710 134433 UTC PGM / RUN BY / DATE 
                                                            MARKER NAME         
                                                            MARKER NUMBER       
                                                            MARKER TYPE         
                                                            OBSERVER / AGENCY   
GNSS-SDRLIB         GNSS-SDRLIB         1.1                 REC # / TYPE / VERS 
                                                            ANT # / TYPE        
        0.0000        0.0000        0.0000                  APPROX POSITION XYZ 
        0.0000        0.0000        0.0000                  ANTENNA: DELTA H/E/N
G    4 C1C L1C D1C S1C                                      SYS / # / OBS TYPES 
R    4 C1C L1C D1C S1C                                      SYS / # / OBS TYPES 
E    4 C1C L1C D1C S1C                                      SYS / # / OBS TYPES 
J    4 C1C L1C D1C S1C                                      SYS / # / OBS TYPES 
S    4 C1C L1C D1C S1C                                      SYS / # / OBS TYPES 
C    4 C1C L1C D1C S1C                                      SYS / # / OBS TYPES 
I    4 C1C L1C D1C S1C                                      SYS / # / OBS TYPES 
  1970    01    01    00    00   00.0000000     GPS         TIME OF FIRST OBS   
  1970    01    01    00    00   00.0000000     GPS         TIME OF LAST OBS    
G L1C                                                       SYS / PHASE SHIFT   
R L1C                                                       SYS / PHASE SHIFT   
E L1C  0.00000                                              SYS / PHASE SHIFT   
J L1C                                                       SYS / PHASE SHIFT   
S L1C                                                       SYS / PHASE SHIFT   
C L1C  0.00000                                              SYS / PHASE SHIFT   
I L1C  0.00000                                              SYS / PHASE SHIFT   
  0                                                         GLONASS SLOT / FRQ #
 C1C    0.000 C1P    0.000 C2C    0.000 C2P    0.000        GLONASS COD/PHS/BIS 
                                                            END OF HEADER       
> 2023 05 18 00 00 36.0688020  0  1                     
G06  20635712.477      -66390.168       -3039.277           0.181  
> 2023 05 18 00 00 36.0688020  0  2                     
G03  22283565.644      -73676.212       -3085.625           0.169  
G06  20635712.477      -66390.168       -3039.277           0.181  
> 2023 05 18 00 00 36.0688020  0  3                     
G03  22283565.644      -73676.212       -3085.625           0.169  
G06  20635712.477      -66390.168       -3039.277           0.181  
G09  23014918.171      -85141.063       -4105.929           0.158  
> 2023 05 18 00 00 36.0688020  0  7                     
G02  24437331.990        8025.968         278.225           0.147  
G03  22283565.644      -73676.212       -3085.625           0.169  
G04  23769375.225      -98819.206       -4802.161           0.152  
G05  22541506.585      -14317.422        -642.216           0.164  
G06  20635712.477      -66390.168       -3039.277           0.181  
G07  23539001.273      -87070.468       -4015.393           0.154  
G09  23014918.171      -85141.063       -4105.929           0.158  
> 2023 05 18 00 00 36.1688020  0  7                     
G02  24437330.419        8053.398         266.192           0.145  
G03  22283642.750      -73985.239       -3095.256           0.169  
G04  23769495.349      -99299.877       -4811.738           0.150  
G05  22541525.146      -14382.042        -652.163           0.164  
G06  20635786.897      -66694.619       -3049.299           0.182  
G07  23539105.771      -87472.474       -4028.482           0.154  
G09  23015025.888      -85551.664       -4112.014           0.157  
> 2023 05 18 00 00 36.2688020  0  7                     
G02  24437317.739        8081.022         277.334           0.147  
G03  22283721.984      -74294.170       -3085.743           0.170  
G04  23769616.352      -99780.540       -4803.845           0.154  
G05  22541542.028      -14446.645        -643.959           0.166  
G06  20635866.146      -66998.934       -3040.919           0.182  
G07  23539206.994      -87874.410       -4016.431           0.153  
G09  23015130.747      -85962.185       -4098.177           0.159  
> 2023 05 18 00 00 36.3688020  0  7                     
G02  24437318.172        8109.019         283.909           0.148  
G03  22283800.508      -74602.721       -3084.895           0.169  
G04  23769738.232     -100260.780       -4804.985           0.152  
G05  22541551.933      -14510.207        -541.965           0.166  
G06  20635944.469      -67302.883       -3038.300           0.183  
G07  23539307.980      -88276.556       -4148.430           0.157  
G09  23015235.498      -86372.291       -4097.003           0.158  
> 2023 05 18 00 00 36.4688020  0  7                     
G02  24437304.661        8136.958         280.133           0.146  
G03  22283876.627      -74911.273       -3086.545           0.170  
G04  23769859.036     -100741.020       -4802.078           0.152  
G05  22541570.073      -14574.992        -643.249           0.168  
G06  20636023.884      -67606.852       -3040.251           0.183  
G07  23539411.719      -88677.490       -4016.844           0.156  
G09  23015338.002      -86782.490       -4101.397           0.160  
> 2023 05 18 00 00 36.5688020  0  7                     
G02  24437290.299        8165.054         282.896           0.147  
G03  22283958.697      -75219.685       -3081.330           0.170  
G04  23769982.492     -101221.202       -4800.932           0.152  
G05  22541589.388      -14639.068        -638.701           0.165  
G06  20636099.239      -67910.706       -3039.032           0.182  
G07  23539513.596      -89078.894       -4012.022           0.154  
G09  23015439.265      -87192.510       -4101.424           0.159  
> 2023 05 18 00 00 36.6688020  0  7                     
G02  24437283.254        8192.980         278.723           0.145  
G03  22284036.844      -75528.288       -3087.731           0.167  
G04  23770106.874     -101701.460       -4799.107           0.150  
G05  22541607.473      -14703.294        -644.173           0.165  
G06  20636173.670      -68214.671       -3040.654           0.180  
G07  23539614.586      -89480.456       -4013.577           0.152  
G09  23015545.607      -87602.703       -4104.333           0.157  
> 2023 05 18 00 00 36.7688020  0  7                     
G02  24437275.649        8220.968         284.380           0.144  
G03  22284111.982      -75838.199       -3122.898           0.167  
G04  23770225.042     -102181.673       -4798.723           0.150  
G05  22541621.440      -14766.811        -598.349           0.163  
G06  20636254.148      -68518.644       -3037.304           0.180  
G07  23539715.612      -89882.064       -4016.169           0.152  
G09  23015650.514      -88012.793       -4101.705           0.156  
> 2023 05 18 00 00 36.8688020  0  7                     
G02  24437276.420        8249.135         283.126           0.142  
G03  22284189.171      -76145.258       -3083.795           0.166  
G04  23770355.801     -102661.818       -4799.680           0.148  
G05  22541638.777      -14831.484        -643.246           0.164  
G06  20636328.275      -68822.402       -3035.021           0.179  
G07  23539818.678      -90283.473       -4017.521           0.152  
G09  23015756.496      -88422.795       -4100.522           0.155  
> 2023 05 18 00 00 36.9688020  0  7                     
G02  24437259.569        8276.981         278.374           0.145  
G03  22284272.615      -76453.935       -3087.282           0.166  
G04  23770475.188     -103142.178       -4807.737           0.147  
G05  22541654.929      -14895.772        -641.990           0.162  
G06  20636406.374      -69126.475       -3036.641           0.178  
G07  23539917.950      -90685.106       -4017.060           0.150  
G09  23015858.802      -88833.034       -4103.903           0.155  
> 2023 05 18 00 00 37.0688020  0  7                     
G02  24437258.894        8304.882         276.379           0.141  
G03  22284348.200      -76762.574       -3086.182           0.166  
G04  23770592.275     -103622.474       -4807.297           0.148  
G05  22541667.419      -14960.038        -641.667           0.162  
G06  20636480.914      -69430.535       -3041.763           0.179  
G07  23540022.393      -91086.688       -4019.484           0.150  
G09  23015958.852      -89243.238       -4107.122           0.155  
> 2023 05 18 00 00 37.1688020  0  7                     
G02  24437255.222        8332.231         268.712           0.140  
G03  22284422.724      -77071.739       -3096.987           0.164  
G04  23770719.002     -104103.326       -4814.633           0.148  
G05  22541683.091      -15024.844        -653.195           0.162  
G06  20636563.236      -69735.100       -3050.554           0.178  
G07  23540123.249      -91488.901       -4025.985           0.150  
G09  23016066.550      -89653.961       -4111.252           0.154  
> 2023 05 18 00 00 37.2688020  0  7                     
G02  24437246.441        8359.213         272.366           0.142  
G03  22284502.045      -77381.284       -3089.982           0.164  
G04  23770848.814     -104584.524       -4805.146           0.148  
G05  22541701.693      -15090.020        -648.073           0.163  
G06  20636639.472      -70040.076       -3047.939           0.179  
G07  23540231.473      -91891.435       -4018.633           0.152  
G09  23016174.760      -90065.106       -4106.542           0.154  
> 2023 05 18 00 00 37.3688020  0  7                     
G02  24437237.009        8386.843         274.516           0.145  
G03  22284582.575      -77690.325       -3088.496           0.165  
G04  23770964.230     -105065.188       -4804.654           0.148  
G05  22541718.251      -15154.569        -642.985           0.164  
G06  20636719.466      -70344.434       -3041.836           0.179  
G07  23540330.524      -92293.454       -4021.852           0.151  
G09  23016274.183      -90475.640       -4105.146           0.157  
> 2023 05 18 00 00 37.4688020  0  7                     
G02  24437235.983        8414.774         279.915           0.146  
G03  22284665.552      -77998.941       -3088.114           0.168  
G04  23771093.032     -105545.460       -4807.735           0.149  
G05  22541731.939      -15218.835        -643.706           0.165  
G06  20636794.347      -70648.440       -3040.855           0.181  
G07  23540436.520      -92695.006       -4015.809           0.154  
G09  23016379.338      -90885.834       -4102.322           0.158  
> 2023 05 18 00 00 37.5688020  0  7                     
G02  24437233.548        8442.922         280.216           0.145  
G03  22284748.412      -78307.025       -2914.896           0.168  
G04  23771203.262     -106025.532       -4800.925           0.149  
G05  22541750.755      -15283.162        -593.867           0.164  
G06  20636868.608      -70952.286       -3037.820           0.181  
G07  23540533.174      -93098.045       -4301.470           0.153  
G09  23016486.916      -91295.575       -3922.074           0.158  
> 2023 05 18 00 00 37.6688020  0  7                     
G02  24437225.874        8471.021         279.352           0.140  
G03  22284820.906      -78615.824       -3085.416           0.166  
G04  23771327.008     -106505.672       -4801.931           0.150  
G05  22541763.392      -15346.955        -642.734           0.162  
G06  20636946.533      -71256.127       -3039.578           0.179  
G07  23540640.082      -93497.927       -4016.553           0.151  
G09  23016590.801      -91705.820       -4102.230           0.157  
> 2023 05 18 00 00 37.7688020  0  7                     
G02  24437213.704        8498.936         281.548           0.144  
G03  22284898.967      -78924.496       -3084.254           0.166  
G04  23771455.747     -106986.007       -4801.479           0.148  
G05  22541776.997      -15411.279        -641.495           0.162  
G06  20637027.242      -71560.235       -3041.293           0.179  
G07  23540732.707      -93899.573       -4020.065           0.151  
G09  23016692.669      -92116.064       -4098.273           0.156  
> 2023 05 18 00 00 37.8688020  0  7                     
G02  24437205.374        8527.054         281.036           0.141  
G03  22284972.153      -79232.939       -3116.788           0.167  
G04  23771576.779     -107466.157       -4798.409           0.149  
G05  22541795.788      -15474.126        -587.680           0.163  
G06  20637102.577      -71864.143       -3038.791           0.179  
G07  23540836.753      -94301.644       -4144.895           0.152  
G09  23016796.438      -92526.021       -4168.489           0.154  
> 2023 05 18 00 00 37.9688020  0  7                     
G02  24437194.016        8555.000         280.459           0.142  
G03  22285058.554      -79541.621       -3085.953           0.166  
G04  23771700.355     -107946.416       -4802.424           0.147  
G05  22541815.051      -15539.515        -644.507           0.161  
G06  20637181.705      -72168.056       -3038.824           0.177  
G07  23540944.084      -94702.582       -4016.630           0.149  
G09  23016900.413      -92936.227       -4103.134           0.156  
> 2023 05 18 00 00 38.0688020  0  7                     
G02  24437188.691        8583.040         277.339           0.144  
G03  22285135.013      -79850.204       -3089.010           0.165  
G04  23771820.400     -108426.614       -4806.165           0.147  
G05  22541828.100      -15603.656        -639.864           0.163  
G06  20637257.584      -72472.029       -3040.029           0.179  
G07  23541048.366      -95104.119       -4013.619           0.154  
G09  23017001.855      -93346.290       -4098.132           0.157  
> 2023 05 18 00 00 38.1688020  0  7                     
G02  24437178.659        8611.142         281.523           0.144  
G03  22285212.919      -80158.687       -3083.307           0.165  
G04  23771938.014     -108906.766       -4806.414           0.149  
G05  22541841.407      -15667.841        -643.524           0.163  
G06  20637334.141      -72775.922       -3037.875           0.179  
G07  23541142.295      -95505.641       -4014.103           0.152  
G09  23017106.354      -93756.381       -4102.061           0.158  
> 2023 05 18 00 00 38.2688020  0  7                     
G02  24437175.983        8639.247         283.855           0.142  
G03  22285287.961      -80467.174       -3084.570           0.166  
G04  23772063.660     -109386.835       -4803.630           0.147  
G05  22541861.074      -15731.901        -641.742           0.163  
G06  20637409.922      -73079.781       -3037.589           0.179  
G07  23541251.719      -95906.775       -4084.714           0.152  
G09  23017210.507      -94166.355       -4099.874           0.155  
> 2023 05 18 00 00 38.3688020  0  7                     
G02  24437169.536        8667.394         284.762           0.144  
G03  22285366.232      -80775.621       -3083.479           0.166  
G04  23772186.240     -109866.913       -4799.236           0.148  
G05  22541879.029      -15795.942        -642.849           0.163  
G06  20637491.017      -73383.615       -3036.414           0.178  
G07  23541355.680      -96308.492       -4014.836           0.150  
G09  23017314.895      -94576.327       -4098.626           0.156  
> 2023 05 18 00 00 38.4688020  0  7                     
G02  24437157.540        8695.588         281.199           0.146  
G03  22285444.425      -81084.069       -3083.108           0.168  
G04  23772305.320     -110346.943       -4800.881           0.151  
G05  22541896.028      -15859.909        -640.098           0.163  
G06  20637568.606      -73687.403       -3035.851           0.182  
G07  23541457.091      -96709.865       -4010.237           0.153  
G09  23017424.693      -94986.229       -4097.841           0.158  
> 2023 05 18 00 00 38.5688020  0  7                     
G02  24437154.484        8723.596         279.994           0.144  
G03  22285527.280      -81392.733       -3085.949           0.168  
G04  23772428.577     -110827.223       -4802.926           0.149  
G05  22541911.280      -15924.167        -643.152           0.164  
G06  20637642.683      -73991.473       -3040.192           0.182  
G07  23541558.296      -97111.507       -4015.245           0.155  
G09  23017528.061      -95396.456       -4105.145           0.160  
> 2023 05 18 00 00 38.6688020  0  7                     
G02  24437145.640        8751.480         282.515           0.144  
G03  22285606.599      -81701.414       -3085.047           0.169  
G04  23772550.700     -111307.562       -4803.934           0.151  
G05  22541928.996      -15988.471        -643.826           0.165  
G06  20637722.845      -74295.550       -3040.541           0.182  
G07  23541657.074      -97513.163       -4012.100           0.155  
G09  23017629.303      -95806.644       -4102.623           0.161  
> 2023 05 18 00 00 38.7688020  0  7                     
G02  24437135.274        8779.461         282.634           0.146  
G03  22285683.556      -82010.929       -3204.189           0.169  
G04  23772677.576     -111787.770       -4801.866           0.151  
G05  22541944.854      -16052.700        -644.435           0.166  
G06  20637798.136      -74599.575       -3042.798           0.182  
G07  23541756.051      -97914.747       -4012.719           0.153  
G09  23017735.565      -96215.707       -3947.888           0.158  
> 2023 05 18 00 00 38.8688020  0  7                     
G02  24437124.645        8807.587         278.580           0.145  
G03  22285763.649      -82318.539       -3083.193           0.168  
G04  23772793.737     -112267.856       -4798.992           0.151  
G05  22541957.385      -16116.772        -640.876           0.165  
G06  20637878.367      -74903.413       -3037.164           0.181  
G07  23541851.871      -98316.153       -4008.586           0.153  
G09  23017841.081      -96626.744       -4099.021           0.156  
> 2023 05 18 00 00 38.9688020  0  7                     
G02  24437126.903        8835.740         282.707           0.145  
G03  22285837.416      -82627.098       -3085.701           0.168  
G04  23772917.395     -112748.021       -4803.000           0.148  
G05  22541975.615      -16180.876        -640.697           0.165  
G06  20637952.277      -75207.331       -3037.123           0.181  
G07  23541962.253      -98717.682       -4011.329           0.153  
G09  23017941.216      -97036.811       -4099.924           0.157  
> 2023 05 18 00 00 39.0688020  0  7                     
G02  24437118.334        8863.761         283.488           0.143  
G03  22285920.859      -82935.685       -3085.312           0.167  
G04  23773044.702     -113228.231       -4805.570           0.149  
G05  22541990.771      -16244.988        -640.637           0.164  
G06  20638030.999      -75511.251       -3036.425           0.181  
G07  23542068.373      -99119.206       -4011.514           0.152  
G09  23018042.892      -97446.878       -4100.080           0.158  
> 2023 05 18 00 00 39.1688020  0  7                     
G02  24437106.662        8891.788         282.015           0.145  
G03  22285998.958      -83244.288       -3084.531           0.168  
G04  23773162.692     -113708.415       -4802.931           0.150  
G05  22542007.042      -16309.206        -643.439           0.164  
G06  20638103.383      -75815.278       -3039.693           0.182  
G07  23542164.196      -99520.803       -4014.287           0.154  
G09  23018153.963      -97856.980       -4099.338           0.156  
> 2023 05 18 00 00 39.2688020  0  7                     
G02  24437093.755        8919.714         279.585           0.147  
G03  22286075.709      -83553.019       -3088.121           0.168  
G04  23773278.155     -114188.734       -4805.419           0.153  
G05  22542022.719      -16373.466        -643.225           0.167  
G06  20638181.654      -76119.373       -3044.407           0.182  
G07  23542262.230      -99922.481       -4021.038           0.153  
G09  23018257.652      -98267.196       -4103.810           0.159  
> 2023 05 18 00 00 39.3688020  0  7                     
G02  24437095.132        8947.380         265.897           0.144  
G03  22286153.680      -83861.960       -3090.119           0.168  
G04  23773401.409     -114669.256       -4805.558           0.150  
G05  22542045.178      -16438.010        -645.745           0.166  
G06  20638259.186      -76423.671       -3042.260           0.182  
G07  23542367.212     -100324.365       -4020.904           0.154  
G09  23018362.464      -98677.631       -4108.451           0.160  
> 2023 05 18 00 00 39.4688020  0  7                     
G02  24437086.593        8975.060         274.151           0.146  
G03  22286232.782      -84170.996       -3091.868           0.169  
G04  23773534.467     -115149.893       -4804.716           0.150  
G05  22542054.114      -16502.602        -647.022           0.164  
G06  20638339.541      -76728.084       -3041.948           0.182  
G07  23542469.025     -100726.378       -4022.717           0.154  
G09  23018470.955      -99088.149       -4107.290           0.157  
> 2023 05 18 00 00 39.5688020  0  7                     
G02  24437077.028        9002.699         273.105           0.141  
G03  22286313.509      -84480.044       -3090.607           0.168  
G04  23773653.358     -115630.494       -4803.081           0.150  
G05  22542070.793      -16567.182        -644.376           0.164  
G06  20638415.786      -77032.505       -3043.650           0.181  
G07  23542581.580     -101128.329       -4018.791           0.155  
G09  23018570.594      -99498.675       -4105.570           0.157  
> 2023 05 18 00 00 39.6688020  0  7                     
G02  24437072.574        9030.311         276.940           0.144  
G03  22286385.722      -84789.114       -3092.856           0.170  
G04  23773769.480     -116111.136       -4801.003           0.150  
G05  22542090.537      -16631.840        -646.531           0.164  
G06  20638493.542      -77336.939       -3044.364           0.182  
G07  23542683.284     -101530.308       -4016.816           0.154  
G09  23018672.977      -99909.179       -4103.866           0.156  
> 2023 05 18 00 00 39.7688020  0  7                     
G02  24437061.712        9057.954         275.905           0.147  
G03  22286466.325      -85098.123       -3093.183           0.170  
G04  23773897.683     -116591.733       -4802.434           0.152  
G05  22542110.626      -16696.372        -644.237           0.166  
G06  20638571.552      -77641.299       -3043.746           0.184  
G07  23542782.179     -101932.259       -4016.547           0.154  
G09  23018780.003     -100319.648       -4102.294           0.159  
> 2023 05 18 00 00 39.8688020  0  7                     
G02  24437062.056        9085.748         277.614           0.148  
G03  22286547.614      -85407.014       -3089.386           0.170  
G04  23774014.723     -117072.254       -4800.763           0.152  
G05  22542126.120      -16760.839        -645.836           0.166  
G06  20638646.705      -77945.584       -3041.605           0.184  
G07  23542888.354     -102334.117       -4013.947           0.155  
G09  23018890.366     -100730.060       -4102.362           0.160  
> 2023 05 18 00 00 39.9688020  0  7                     
G02  24437059.212        9113.769         279.721           0.148  
G03  22286628.445      -85715.667       -3108.536           0.170  
G04  23774138.785     -117552.418       -4801.334           0.153  
G05  22542134.692      -16824.046        -447.342           0.167  
G06  20638722.990      -78249.533       -3038.939           0.184  
G07  23542988.985     -102735.496       -3879.950           0.155  
G09  23018991.789     -101140.373       -4184.260           0.160  
> 2023 05 18 00 00 40.0688020  0  7                     
G02  24437044.280        9142.100         283.022           0.144  
G03  22286705.367      -86024.016       -3082.575           0.172  
G04  23774263.999     -118032.347       -4800.268           0.154  
G05  22542153.372      -16888.901        -637.938           0.169  
G06  20638802.755      -78553.261       -3037.480           0.185  
G07  23543089.799     -103136.923       -4009.636           0.157  
G09  23019092.629     -101549.968       -4100.129           0.159  
> 2023 05 18 00 00 40.1688020  0  7                     
G02  24437038.023        9170.369         283.241           0.148  
G03  22286783.388      -86332.433       -3083.384           0.172  
G04  23774382.440     -118512.336       -4800.101           0.153  
G05  22542169.279      -16952.928        -640.809           0.170  
G06  20638880.061      -78857.072       -3036.832           0.185  
G07  23543190.187     -103538.350       -4013.950           0.158  
G09  23019190.509     -101959.881       -4101.145           0.164  
> 2023 05 18 00 00 40.2688020  0  7                     
G02  24437029.159        9198.580         281.216           0.151  
G03  22286863.090      -86640.913       -3083.757           0.173  
G04  23774509.780     -118992.370       -4798.273           0.156  
G05  22542185.870      -17016.956        -637.315           0.169  
G06  20638957.077      -79160.920       -3037.984           0.186  
G07  23543293.077     -103939.774       -4016.524           0.159  
G09  23019296.072     -102369.790       -4098.676           0.161  
> 2023 05 18 00 00 40.3688020  0  7                     
G02  24437021.975        9226.874         277.630           0.150  
G03  22286943.567      -86949.311       -3085.656           0.173  
G04  23774633.890     -119472.302       -4795.744           0.154  
G05  22542200.257      -17080.909        -645.414           0.170  
G06  20639036.722      -79464.639       -3036.369           0.186  
G07  23543395.488     -104341.074       -4015.316           0.157  
G09  23019404.338     -102779.624       -4102.497           0.163  
> 2023 05 18 00 00 40.4688020  0  7                     
G02  24437011.186        9255.153         274.806           0.150  
G03  22287019.011      -87257.733       -3081.566           0.171  
G04  23774748.756     -119952.312       -4799.804           0.156  
G05  22542215.711      -17144.851        -639.579           0.170  
G06  20639110.879      -79768.453       -3038.025           0.185  
G07  23543494.120     -104742.421       -4011.041           0.160  
G09  23019509.804     -103189.475       -4099.809           0.162  
> 2023 05 18 00 00 40.5688020  0  7                     
G02  24437009.980        9283.406         282.945           0.150  
G03  22287095.948      -87566.248       -3085.461           0.171  
G04  23774875.867     -120432.337       -4803.463           0.154  
G05  22542234.134      -17208.859        -642.073           0.168  
G06  20639188.673      -80072.313       -3040.216           0.185  
G07  23543597.851     -105143.900       -4019.755           0.158  
G09  23019615.360     -103599.408       -4099.711           0.162  
> 2023 05 18 00 00 40.6688020  0  7                     
G02  24437003.411        9311.617         282.502           0.150  
G03  22287172.805      -87874.751       -3085.242           0.172  
G04  23774998.712     -120912.401       -4800.868           0.155  
G05  22542252.166      -17272.939        -645.021           0.167  
G06  20639264.971      -80376.159       -3037.308           0.185  
G07  23543699.239     -105544.978       -3956.966           0.159  
G09  23019717.916     -104009.375       -4104.117           0.162  
> 2023 05 18 00 00 40.7688020  0  7                     
G02  24436992.868        9339.911         284.854           0.149  
G03  22287252.571      -88183.216       -3086.598           0.171  
G04  23775119.916     -121392.381       -4800.309           0.154  
G05  22542267.335      -17335.927        -658.723           0.167  
G06  20639344.076      -80679.953       -3035.416           0.185  
G07  23543803.852     -105946.657       -4013.992           0.157  
G09  23019822.633     -104418.537       -3962.788           0.161  
> 2023 05 18 00 00 40.8688020  0  7                     
G02  24436983.595        9368.089         283.096           0.149  
G03  22287331.241      -88491.733       -3086.020           0.172  
G04  23775234.630     -121872.475       -4803.282           0.155  
G05  22542282.331      -17400.960        -647.223           0.168  
G06  20639417.848      -80983.855       -3041.769           0.185  
G07  23543901.107     -106348.133       -4017.077           0.157  
G09  23019923.370     -104829.171       -4101.268           0.162  
> 2023 05 18 00 00 40.9688020  0  7                     
G02  24436975.823        9396.137         284.848           0.149  
G03  22287408.106      -88800.380       -3084.375           0.172  
G04  23775361.423     -122352.634       -4799.012           0.156  
G05  22542295.629      -17465.164        -641.860           0.170  
G06  20639495.339      -81287.869       -3040.292           0.186  
G07  23544003.852     -106749.702       -4014.310           0.158  
G09  23020026.923     -105239.282       -4102.471           0.162  
> 2023 05 18 00 00 41.0688020  0  7                     
G02  24436966.143        9424.408         282.615           0.148  
G03  22287490.147      -89109.774       -3203.016           0.172  
G04  23775480.760     -122832.621       -4800.387           0.154  
G05  22542315.886      -17529.196        -644.938           0.169  
G06  20639572.749      -81591.667       -3039.790           0.186  
G07  23544102.226     -107152.698       -4248.694           0.158  
G09  23020130.008     -105649.777       -4143.411           0.162  
> 2023 05 18 00 00 41.1688020  0  7                     
G02  24436960.120        9452.013         271.090           0.149  
G03  22287567.014      -89418.023       -3096.937           0.173  
G04  23775602.212     -123313.348       -4814.764           0.154  
G05  22542336.516      -17593.848        -651.863           0.169  
G06  20639653.093      -81896.175       -3051.560           0.186  
G07  23544210.921     -107553.573       -4241.272           0.158  
G09  23020238.983     -106059.720       -4110.608           0.163  
> 2023 05 18 00 00 41.2688020  0  7                     
G02  24436956.528        9479.390         272.503           0.151  
G03  22287645.576      -89727.319       -3091.860           0.174  
G04  23775728.297     -123794.188       -4812.593           0.155  
G05  22542349.607      -17658.687        -650.696           0.170  
G06  20639728.267      -82200.843       -3049.415           0.186  
G07  23544312.657     -107955.401       -4025.929           0.158  
G09  23020343.769     -106470.457       -4109.546           0.163  
> 2023 05 18 00 00 41.3688020  0  7                     
G02  24436949.532        9506.808         274.338           0.152  
G03  22287722.821      -90036.713       -3093.630           0.174  
G04  23775856.126     -124275.082       -4807.772           0.156  
G05  22542365.437      -17723.555        -647.209           0.171  
G06  20639809.634      -82505.537       -3045.426           0.187  
G07  23544412.261     -108357.699       -4023.119           0.159  
G09  23020443.764     -106881.205       -4106.597           0.164  
> 2023 05 18 00 00 41.4688020  0  7                     
G02  24436940.725        9534.509         280.785           0.151  
G03  22287801.665      -90345.738       -3088.646           0.174  
G04  23775972.979     -124755.654       -4804.261           0.158  
G05  22542383.047      -17787.976        -640.227           0.171  
G06  20639883.203      -82809.933       -3041.274           0.187  
G07  23544514.136     -108760.746       -4240.389           0.160  
G09  23020549.833     -107291.631       -4099.580           0.164  
> 2023 05 18 00 00 41.5688020  0  7                     
G02  24436931.266        9562.637         285.002           0.151  
G03  22287878.312      -90654.346       -3083.373           0.174  
G04  23776096.691     -125235.752       -4798.795           0.157  
G05  22542395.178      -17852.240        -639.482           0.170  
G06  20639964.230      -83113.923       -3040.626           0.187  
G07  23544618.089     -109161.808       -3920.284           0.157  
G09  23020653.387     -107701.657       -4100.557           0.164  
> 2023 05 18 00 00 41.6688020  0  7                     
G02  24436922.404        9590.725         278.771           0.150  
G03  22287956.711      -90962.977       -3086.847           0.174  
G04  23776219.438     -125715.850       -4802.312           0.155  
G05  22542408.842      -17916.378        -641.598           0.170  
G06  20640038.533      -83417.893       -3043.754           0.186  
G07  23544724.408     -109562.665       -4012.214           0.157  
G09  23020753.295     -108111.683       -4104.224           0.164  
> 2023 05 18 00 00 41.7688020  0  7                     
G02  24436917.044        9618.960         283.072           0.151  
G03  22288034.849      -91271.574       -3087.634           0.174  
G04  23776338.013     -126195.998       -4802.066           0.157  
G05  22542429.514      -17980.515        -642.780           0.171  
G06  20640116.102      -83721.796       -3041.149           0.187  
G07  23544823.876     -109964.241       -4016.472           0.160  
G09  23020865.927     -108521.638       -4101.067           0.163  
> 2023 05 18 00 00 41.8688020  0  7                     
G02  24436908.326        9647.194         286.843           0.150  
G03  22288119.057      -91580.116       -3083.147           0.174  
G04  23776463.419     -126676.041       -4801.795           0.156  
G05  22542439.146      -18044.577        -640.875           0.170  
G06  20640191.294      -84025.688       -3037.269           0.186  
G07  23544929.789     -110365.632       -4016.920           0.158  
G09  23020969.112     -108931.609       -4099.521           0.162  
> 2023 05 18 00 00 41.9688020  0  7                     
G02  24436903.499        9675.483         288.173           0.149  
G03  22288195.101      -91888.570       -3082.798           0.174  
G04  23776582.474     -127155.981       -4798.960           0.155  
G05  22542460.125      -18107.927        -593.351           0.170  
G06  20640270.150      -84329.507       -3036.110           0.185  
G07  23545027.214     -110766.993       -4013.286           0.159  
G09  23021067.696     -109341.174       -4169.579           0.162  
> 2023 05 18 00 00 42.0688020  0  7                     
G02  24436902.775        9703.796         280.868           0.150  
G03  22288275.203      -92197.065       -3086.184           0.173  
G04  23776702.297     -127635.895       -4798.930           0.154  
G05  22542473.444      -18172.490        -640.347           0.169  
G06  20640349.146      -84633.295       -3036.808           0.186  
G07  23545129.592     -111168.359       -4014.718           0.159  
G09  23021178.521     -109751.289       -4100.924           0.164  
> 2023 05 18 00 00 42.1688020  0  7                     
G02  24436888.699        9732.088         281.041           0.150  
G03  22288351.973      -92505.506       -3085.470           0.173  
G04  23776828.629     -128115.862       -4797.333           0.154  
G05  22542491.679      -18236.433        -638.098           0.169  
G06  20640421.408      -84937.097       -3036.237           0.186  
G07  23545228.098     -111569.737       -4010.628           0.158  
G09  23021281.193     -110161.121       -4102.025           0.162  
> 2023 05 18 00 00 42.2688020  0  7                     
G02  24436874.704        9760.397         282.302           0.151  
G03  22288427.099      -92813.995       -3088.077           0.174  
G04  23776947.775     -128595.919       -4803.968           0.154  
G05  22542510.422      -18300.457        -642.168           0.170  
G06  20640502.355      -85240.956       -3039.489           0.187  
G07  23545330.412     -111971.162       -4022.238           0.159  
G09  23021385.601     -110570.941       -4098.011           0.163  
> 2023 05 18 00 00 42.3688020  0  7                     
G02  24436871.234        9788.582         281.130           0.152  
G03  22288510.146      -93122.602       -3083.730           0.173  
G04  23777077.019     -129075.974       -4801.808           0.157  
G05  22542526.659      -18364.208        -617.172           0.171  
G06  20640579.500      -85544.878       -3037.603           0.187  
G07  23545433.220     -112372.639       -4016.430           0.158  
G09  23021489.960     -110979.863       -3830.897           0.164  
> 2023 05 18 00 00 42.4688020  0  7                     
G02  24436860.048        9816.891         283.340           0.150  
G03  22288584.510      -93431.154       -3085.984           0.173  
G04  23777190.952     -129555.925       -4799.592           0.156  
G05  22542541.681      -18428.505        -637.000           0.171  
G06  20640656.857      -85848.736       -3039.780           0.186  
G07  23545544.573     -112773.985       -4006.843           0.159  
G09  23021597.001     -111390.816       -4096.098           0.162  
> 2023 05 18 00 00 42.5688020  0  7                     
G02  24436855.226        9845.118         285.750           0.148  
G03  22288665.408      -93739.696       -3084.917           0.173  
G04  23777313.502     -130036.000       -4804.510           0.155  
G05  22542556.333      -18492.600        -639.953           0.170  
G06  20640731.732      -86152.630       -3039.463           0.186  
G07  23545641.526     -113175.462       -4012.746           0.157  
G09  23021698.908     -111800.748       -4097.953           0.163  
> 2023 05 18 00 00 42.6688020  0  7                     
G02  24436848.458        9873.275         276.320           0.149  
G03  22288741.719      -94048.363       -3086.976           0.172  
G04  23777438.480     -130516.136       -4805.967           0.156  
G05  22542570.851      -18556.773        -643.762           0.169  
G06  20640812.037      -86456.627       -3042.073           0.186  
G07  23545741.425     -113577.045       -4013.934           0.157  
G09  23021801.059     -112210.784       -4100.571           0.161  
> 2023 05 18 00 00 42.7688020  0  7                     
G02  24436845.294        9901.300         284.069           0.150  
G03  22288819.388      -94357.111       -3086.697           0.172  
G04  23777556.287     -130996.287       -4802.510           0.154  
G05  22542585.498      -18621.010        -645.212           0.169  
G06  20640888.335      -86760.698       -3042.063           0.186  
G07  23545848.342     -113978.645       -4014.094           0.157  
G09  23021907.131     -112620.860       -4100.438           0.162  
> 2023 05 18 00 00 42.8688020  0  7                     
G02  24436839.573        9929.173         273.904           0.152  
G03  22288895.882      -94666.052       -3090.169           0.173  
G04  23777681.485     -131476.712       -4803.946           0.155  
G05  22542604.421      -18685.413        -644.597           0.169  
G06  20640965.500      -87064.947       -3043.691           0.186  
G07  23545942.740     -114380.522       -4018.036           0.159  
G09  23022012.234     -113031.165       -4103.873           0.163  
> 2023 05 18 00 00 42.9688020  0  7                     
G02  24436826.992        9957.104         276.504           0.150  
G03  22288980.978      -94975.024       -3092.241           0.173  
G04  23777808.215     -131957.135       -4804.880           0.155  
G05  22542618.018      -18749.841        -643.426           0.171  
G06  20641042.506      -87369.202       -3039.968           0.186  
G07  23546044.349     -114782.352       -4021.877           0.159  
G09  23022118.049     -113441.490       -4105.020           0.163  
> 2023 05 18 00 00 43.0688020  0  7                     
G02  24436817.867        9984.941         276.785           0.150  
G03  22289059.606      -95283.984       -3087.580           0.173  
G04  23777925.812     -132437.600       -4806.256           0.155  
G05  22542637.309      -18814.277        -641.766           0.171  
G06  20641118.852      -87673.537       -3042.547           0.187  
G07  23546152.773     -115184.124       -4015.972           0.158  
G09  23022220.211     -113851.790       -4105.147           0.162  
> 2023 05 18 00 00 43.1688020  0  7                     
G02  24436815.543       10012.936         281.123           0.150  
G03  22289137.455      -95592.801       -3085.995           0.173  
G04  23778052.252     -132917.856       -4803.536           0.155  
G05  22542656.825      -18878.607        -641.850           0.170  
G06  20641194.620      -87977.682       -3037.761           0.187  
G07  23546256.768     -115585.877       -4016.840           0.159  
G09  23022322.265     -114261.936       -4100.083           0.164  
> 2023 05 18 00 00 43.2688020  0  7                     
G02  24436805.577       10041.204         285.007           0.152  
G03  22289210.725      -95901.427       -3088.686           0.173  
G04  23778169.223     -133397.898       -4801.375           0.154  
G05  22542672.310      -18942.672        -641.640           0.171  
G06  20641274.364      -88281.623       -3038.996           0.187  
G07  23546357.702     -115987.398       -4016.954           0.160  
G09  23022428.978     -114671.886       -4099.482           0.164  
> 2023 05 18 00 00 43.3688020  0  7                     
G02  24436791.350       10069.147         278.683           0.151  
G03  22289292.652      -96210.294       -3092.781           0.174  
G04  23778290.399     -133878.178       -4800.526           0.156  
G05  22542685.014      -19007.005        -643.737           0.170  
G06  20641350.564      -88585.791       -3039.206           0.186  
G07  23546456.284     -116389.105       -4015.987           0.158  
G09  23022530.708     -115082.037       -4099.282           0.163  
> 2023 05 18 00 00 43.4688020  0  7                     
G02  24436794.186       10097.175         275.152           0.150  
G03  22289372.673      -96518.991       -3088.178           0.173  
G04  23778412.963     -134358.375       -4803.003           0.155  
G05  22542697.371      -19071.206        -642.533           0.169  
G06  20641429.584      -88889.860       -3041.003           0.185  
G07  23546559.204     -116790.696       -4012.052           0.158  
G09  23022636.668     -115492.120       -4097.961           0.164  
> 2023 05 18 00 00 43.5688020  0  7                     
G02  24436785.022       10125.254         278.855           0.150  
G03  22289448.947      -96828.566       -3099.265           0.173  
G04  23778532.853     -134838.671       -4804.228           0.154  
G05  22542715.400      -19135.512        -641.711           0.170  
G06  20641505.133      -89194.020       -3041.235           0.185  
G07  23546655.770     -117192.449       -4017.428           0.158  
G09  23022740.846     -115902.281       -4099.806           0.163  
> 2023 05 18 00 00 43.6688020  0  7                     
G02  24436779.987       10153.338         280.935           0.149  
G03  22289525.651      -97136.608       -3086.521           0.172  
G04  23778658.376     -135318.825       -4801.315           0.156  
G05  22542734.776      -19199.753        -639.972           0.169  
G06  20641582.212      -89498.109       -3040.489           0.186  
G07  23546760.572     -117594.098       -4017.431           0.158  
G09  23022847.319     -116312.391       -4103.611           0.163  
> 2023 05 18 00 00 43.7688020  0  7                     
G02  24436767.879       10181.604         283.763           0.150  
G03  22289605.643      -97445.200       -3085.628           0.172  
G04  23778779.397     -135798.874       -4800.386           0.156  
G05  22542754.186      -19263.849        -642.666           0.170  
G06  20641661.533      -89802.055       -3035.601           0.185  
G07  23546863.756     -117995.543       -4013.005           0.160  
G09  23022951.123     -116722.294       -4100.926           0.164  
> 2023 05 18 00 00 43.8688020  0  7                     
G02  24436764.477       10209.934         286.400           0.151  
G03  22289687.208      -97753.753       -3083.107           0.172  
G04  23778901.197     -136278.813       -4797.455           0.155  
G05  22542762.490      -19327.851        -644.524           0.170  
G06  20641741.079      -90105.869       -3036.211           0.186  
G07  23546966.677     -118396.963       -4012.808           0.158  
G09  23023054.247     -117132.156       -4097.224           0.162  
> 2023 05 18 00 00 43.9688020  0  7                     
G02  24436755.511       10238.230         279.056           0.150  
G03  22289759.456      -98061.809       -3054.240           0.173  
G04  23779026.725     -136758.789       -4799.492           0.156  
G05  22542782.488      -19391.850        -643.292           0.170  
G06  20641816.990      -90409.766       -3039.623           0.187  
G07  23547070.647     -118798.148       -4101.869           0.159  
G09  23023157.217     -117542.003       -4103.433           0.161  
> 2023 05 18 00 00 44.0688020  0  7                     
G02  24436750.261       10266.636         285.149           0.151  
G03  22289842.877      -98370.784       -3086.511           0.174  
G04  23779148.041     -137238.753       -4800.589           0.156  
G05  22542801.975      -19455.814        -639.395           0.171  
G06  20641894.363      -90713.568       -3037.788           0.186  
G07  23547171.006     -119199.700       -4014.226           0.160  
G09  23023258.247     -117951.798       -4098.573           0.164  
> 2023 05 18 00 00 44.1688020  0  7                     
G02  24436744.585       10294.925         277.757           0.151  
G03  22289918.399      -98679.311       -3085.494           0.173  
G04  23779268.692     -137718.684       -4794.937           0.154  
G05  22542812.907      -19519.788        -640.840           0.171  
G06  20641972.703      -91017.418       -3038.923           0.186  
G07  23547278.572     -119601.180       -4019.521           0.157  
G09  23023365.228     -118361.615       -4098.551           0.163  
> 2023 05 18 00 00 44.2688020  0  7                     
G02  24436734.285       10323.346         284.604           0.150  
G03  22289997.436      -98987.861       -3081.913           0.173  
G04  23779385.461     -138198.644       -4797.247           0.155  
G05  22542829.951      -19583.753        -635.969           0.170  
G06  20642048.175      -91321.246       -3036.420           0.186  
G07  23547367.073     -120002.534       -4015.635           0.159  
G09  23023470.624     -118771.423       -4095.489           0.163  
> 2023 05 18 00 00 44.3688020  0  7                     
G02  24436728.915       10351.371         283.484           0.149  
G03  22290075.494      -99296.711       -3089.433           0.173  
G04  23779511.733     -138678.897       -4807.960           0.154  
G05  22542848.244      -19648.014        -639.234           0.169  
G06  20642125.280      -91625.392       -3042.554           0.186  
G07  23547479.006     -120404.200       -4017.579           0.159  
G09  23023575.870     -119181.989       -4056.083           0.161  
> 2023 05 18 00 00 44.4688020  0  7                     
G02  24436716.579       10379.341         277.732           0.149  
G03  22290155.241      -99605.597       -3096.375           0.172  
G04  23779635.250     -139159.129       -4810.327           0.155  
G05  22542866.039      -19712.386        -649.183           0.168  
G06  20642199.825      -91929.573       -3045.669           0.185  
G07  23547585.005     -120805.985       -4024.838           0.157  
G09  23023675.863     -119591.734       -4104.786           0.160  
> 2023 05 18 00 00 44.5688020  0  7                     
G02  24436710.749       10406.973         277.307           0.151  
G03  22290232.742      -99914.867       -3092.660           0.172  
G04  23779764.958     -139639.859       -4811.693           0.156  
G05  22542879.143      -19777.107        -650.309           0.170  
G06  20642278.586      -92234.203       -3047.330           0.185  
G07  23547683.987     -121208.129       -4020.515           0.157  
G09  23023782.972     -120002.299       -4106.501           0.163  
> 2023 05 18 00 00 44.6688020  0  7                     
G02  24436697.603       10434.442         275.824           0.150  
G03  22290314.240     -100224.302       -3091.721           0.174  
G04  23779888.218     -140120.652       -4807.904           0.157  
G05  22542897.480      -19841.985        -647.905           0.170  
G06  20642351.365      -92538.901       -3042.431           0.186  
G07  23547785.156     -121610.410       -4020.738           0.159  
G09  23023890.376     -120412.968       -4100.473           0.161  
> 2023 05 18 00 00 44.7688020  0  7                     
G02  24436690.838       10461.998         277.556           0.150  
G03  22290385.270     -100533.655       -3088.179           0.172  
G04  23780004.051     -140601.394       -4803.850           0.156  
G05  22542915.697      -19906.781        -645.066           0.170  
G06  20642431.522      -92843.597       -3044.524           0.186  
G07  23547891.255     -122012.659       -4026.499           0.158  
G09  23023993.391     -120824.787       -4127.879           0.162  
> 2023 05 18 00 00 44.8688020  0  7                     
G02  24436684.827       10490.128         281.926           0.150  
G03  22290465.580     -100842.449       -3086.641           0.173  
G04  23780131.984     -141081.654       -4802.997           0.155  
G05  22542927.413      -19971.022        -643.059           0.170  
G06  20642509.685      -93147.704       -3040.472           0.187  
G07  23547993.412     -122414.278       -4017.481           0.157  
G09  23024093.681     -121233.710       -4094.548           0.164  
> 2023 05 18 00 00 44.9688020  0  7                     
G02  24436683.118       10518.471         285.985           0.152  
G03  22290546.381     -101151.052       -3087.865           0.173  
G04  23780248.936     -141561.615       -4802.521           0.155  
G05  22542945.196      -20035.043        -641.562           0.170  
G06  20642590.929      -93451.595       -3039.721           0.187  
G07  23548097.889     -122815.708       -4014.899           0.160  
G09  23024197.932     -121643.577       -4099.022           0.164  
> 2023 05 18 00 00 45.0688020  0  7                     
G02  24436673.421       10546.830         285.337           0.152  
G03  22290623.996     -101459.572       -3084.706           0.175  
G04  23780362.672     -142041.491       -4795.122           0.156  
G05  22542957.360      -20098.994        -640.136           0.171  
G06  20642663.979      -93755.416       -3038.396           0.187  
G07  23548197.128     -123217.070       -4012.701           0.159  
G09  23024304.962     -122053.352       -4094.733           0.165  
> 2023 05 18 00 00 45.1688020  0  7                     
G02  24436661.515       10575.241         289.263           0.152  
G03  22290707.216     -101768.096       -3086.206           0.175  
G04  23780492.355     -142521.429       -4797.705           0.155  
G05  22542974.833      -20162.963        -638.166           0.171  
G06  20642742.056      -94059.251       -3037.727           0.187  
G07  23548291.671     -123618.475       -4015.658           0.160  
G09  23024405.864     -122463.157       -4097.957           0.165  
> 2023 05 18 00 00 45.2688020  0  7                     
G02  24436658.776       10603.649         288.138           0.151  
G03  22290780.685     -102076.612       -3086.051           0.175  
G04  23780606.374     -143001.337       -4796.321           0.158  
G05  22542993.340      -20226.916        -639.121           0.171  
G06  20642819.464      -94363.074       -3039.272           0.188  
G07  23548393.172     -124019.849       -4013.994           0.161  
G09  23024515.896     -122872.913       -4096.389           0.164  
> 2023 05 18 00 00 45.3688020  0  7                     
G02  24436657.750       10631.959         286.726           0.150  
G03  22290862.648     -102385.265       -3091.191           0.175  
G04  23780734.591     -143481.303       -4799.440           0.157  
G05  22543011.143      -20290.982        -641.643           0.170  
G06  20642896.645      -94667.001       -3038.727           0.188  
G07  23548497.574     -124421.312       -4017.730           0.160  
G09  23024620.058     -123282.830       -4099.667           0.164  
> 2023 05 18 00 00 45.4688020  0  7                     
G02  24436647.778       10660.195         279.754           0.150  
G03  22290940.497     -102693.852       -3087.724           0.174  
G04  23780858.503     -143961.293       -4799.303           0.157  
G05  22543023.478      -20354.995        -641.801           0.171  
G06  20642977.422      -94970.895       -3039.398           0.188  
G07  23548598.430     -124822.686       -4016.373           0.159  
G09  23024720.908     -123692.707       -4095.381           0.164  
> 2023 05 18 00 00 45.5688020  0  7                     
G02  24436638.510       10688.361         278.553           0.151  
G03  22291019.165     -103002.637       -3091.874           0.175  
G04  23780981.411     -144441.457       -4804.424           0.158  
G05  22543045.425      -20419.223        -645.741           0.172  
G06  20643053.100      -95275.011       -3042.555           0.187  
G07  23548700.865     -125224.378       -4020.098           0.157  
G09  23024822.245     -124102.773       -4102.450           0.165  
> 2023 05 18 00 00 45.6688020  0  7                     
G02  24436628.932       10716.455         287.735           0.154  
G03  22291094.370     -103311.548       -3087.371           0.175  
G04  23781104.367     -144921.714       -4799.886           0.158  
G05  22543060.387      -20483.572        -640.749           0.172  
G06  20643128.603      -95579.209       -3038.131           0.187  
G07  23548810.834     -125626.131       -4017.437           0.159  
G09  23024930.818     -124512.896       -4100.712           0.165  
> 2023 05 18 00 00 45.7688020  0  7                     
G02  24436619.063       10744.618         281.734           0.151  
G03  22291176.708     -103620.302       -3089.831           0.175  
G04  23781226.797     -145401.826       -4801.018           0.157  
G05  22543075.269      -20547.714        -640.965           0.172  
G06  20643206.405      -95883.234       -3038.445           0.188  
G07  23548910.383     -126027.711       -4017.180           0.157  
G09  23025041.431     -124922.863       -4098.009           0.164  
> 2023 05 18 00 00 45.8688020  0  7                     
G02  24436620.920       10772.792         279.733           0.152  
G03  22291251.039     -103929.058       -3085.581           0.174  
G04  23781350.163     -145881.944       -4801.091           0.157  
G05  22543092.786      -20611.913        -642.255           0.171  
G06  20643282.855      -96187.334       -3042.641           0.187  
G07  23549017.356     -126429.307       -4015.931           0.159  
G09  23025140.018     -125332.897       -4100.561           0.164  
> 2023 05 18 00 00 45.9688020  0  7                     
G02  24436603.321       10800.897         282.735           0.152  
G03  22291335.987     -104237.881       -3082.454           0.174  
G04  23781472.321     -146362.184       -4804.461           0.156  
G05  22543108.000      -20676.204        -639.321           0.172  
G06  20643359.383      -96491.487       -3041.873           0.188  
G07  23549116.934     -126830.983       -4015.492           0.160  
G09  23025240.253     -125742.998       -4101.890           0.165  
> 2023 05 18 00 00 46.0688020  0  7                     
G02  24436601.189       10829.046         280.965           0.151  
G03  22291407.051     -104546.754       -3087.843           0.174  
G04  23781596.131     -146842.317       -4802.042           0.157  
G05  22543120.374      -20740.430        -642.589           0.172  
G06  20643436.051      -96795.588       -3041.014           0.188  
G07  23549217.184     -127232.621       -4016.306           0.160  
G09  23025353.466     -126153.037       -4105.285           0.165  
> 2023 05 18 00 00 46.1688020  0  7                     
G02  24436597.453       10857.045         276.454           0.151  
G03  22291488.287     -104855.727       -3090.178           0.173  
G04  23781711.237     -147322.668       -4801.657           0.157  
G05  22543137.810      -20804.799        -646.163           0.171  
G06  20643510.968      -97099.878       -3045.101           0.187  
G07  23549319.059     -127634.470       -4019.369           0.159  
G09  23025457.003     -126563.247       -4106.497           0.164  
> 2023 05 18 00 00 46.2688020  0  7                     
G02  24436586.534       10884.973         280.091           0.154  
G03  22291567.053     -105164.746       -3089.113           0.172  
G04  23781834.469     -147803.041       -4800.922           0.158  
G05  22543153.138      -20869.231        -644.029           0.173  
G06  20643593.154      -97404.172       -3041.736           0.186  
G07  23549424.069     -128036.309       -4018.080           0.161  
G09  23025555.113     -126973.485       -4103.900           0.162  
> 2023 05 18 00 00 46.3688020  0  7                     
G02  24436583.145       10913.257         282.636           0.151  
G03  22291647.883     -105473.486       -3087.455           0.174  
G04  23781954.530     -148283.123       -4804.164           0.158  
G05  22543168.556      -20933.368        -640.837           0.171  
G06  20643669.409      -97708.214       -3042.368           0.187  
G07  23549515.984     -128437.884       -4016.232           0.161  
G09  23025656.872     -127383.460       -4098.792           0.164  
> 2023 05 18 00 00 46.4688020  0  7                     
G02  24436572.892       10941.335         278.352           0.154  
G03  22291730.553     -105782.318       -3091.010           0.174  
G04  23782080.608     -148763.327       -4803.803           0.157  
G05  22543184.527      -20997.638        -645.838           0.171  
G06  20643749.473      -98012.366       -3045.112           0.187  
G07  23549617.470     -128839.512       -4016.640           0.158  
G09  23025761.787     -127793.504       -4102.667           0.165  
> 2023 05 18 00 00 46.5688020  0  7                     
G02  24436556.809       10969.125         277.540           0.151  
G03  22291803.025     -106091.562       -3092.003           0.174  
G04  23782199.433     -149243.891       -4810.134           0.157  
G05  22543201.403      -21062.282        -647.241           0.172  
G06  20643823.086      -98316.892       -3047.917           0.187  
G07  23549727.160     -129241.608       -4024.011           0.159  
G09  23025869.567     -128203.965       -4104.224           0.166  
> 2023 05 18 00 00 46.6688020  0  7                     
G02  24436546.400       10996.876         281.398           0.151  
G03  22291883.864     -106400.797       -3091.134           0.174  
G04  23782317.213     -149724.407       -4804.768           0.156  
G05  22543219.437      -21126.879        -643.379           0.172  
G06  20643902.877      -98621.392       -3044.282           0.187  
G07  23549834.684     -129643.644       -4023.573           0.159  
G09  23025977.421     -128614.392       -4103.636           0.163  
