     3.03           OBSERVATION DATA    M: Mixed            RINEX VERSION / TYPE
GNSS-SDRLIB v1.1                        20240902 104212 UTC PGM / RUN BY / DATE 
                                                            MARKER NAME         
                                                            MARKER NUMBER       
                                                            MARKER TYPE         
                                                            OBSERVER / AGENCY   
GNSS-SDRLIB         GNSS-SDRLIB         1.1                 REC # / TYPE / VERS 
                                                            ANT # / TYPE        
        0.0000        0.0000        0.0000                  APPROX POSITION XYZ 
        0.0000        0.0000        0.0000                  ANTENNA: DELTA H/E/N
G    4 C1C L1C D1C S1C                                      SYS / # / OBS TYPES 
R    4 C1C L1C D1C S1C                                      SYS / # / OBS TYPES 
E    4 C1C L1C D1C S1C                                      SYS / # / OBS TYPES 
J    4 C1C L1C D1C S1C                                      SYS / # / OBS TYPES 
S    4 C1C L1C D1C S1C                                      SYS / # / OBS TYPES 
C    4 C1C L1C D1C S1C                                      SYS / # / OBS TYPES 
I    4 C1C L1C D1C S1C                                      SYS / # / OBS TYPES 
  1970    01    01    00    00   00.0000000     GPS         TIME OF FIRST OBS   
  1970    01    01    00    00   00.0000000     GPS         TIME OF LAST OBS    
G L1C                                                       SYS / PHASE SHIFT   
R L1C                                                       SYS / PHASE SHIFT   
E L1C  0.00000                                              SYS / PHASE SHIFT   
J L1C                                                       SYS / PHASE SHIFT   
S L1C                                                       SYS / PHASE SHIFT   
C L1C  0.00000                                              SYS / PHASE SHIFT   
I L1C  0.00000                                              SYS / PHASE SHIFT   
  0                                                         GLONASS SLOT / FRQ #
 C1C    0.000 C1P    0.000 C2C    0.000 C2P    0.000        GLONASS COD/PHS/BIS 
                                                            END OF HEADER       
> 2022 01 01 00 01 06.0688020  0  1                     
G10  20624784.226       17426.606         496.854           0.255  
> 2022 01 01 00 01 06.0688020  0  2                     
G10  20624784.226       17426.606         496.854           0.255  
G15  22793666.371      -52393.528       -3483.265           0.233  
> 2022 01 01 00 01 06.1688020  0  2                     
G10  20624774.687       17476.510         503.769           0.254  
G15  22793737.551      -52742.220       -3486.206           0.232  
> 2022 01 01 00 01 06.2688020  0  2                     
G10  20624766.236       17526.378         501.379           0.254  
G15  22793803.676      -53090.907       -3483.783           0.232  
> 2022 01 01 00 01 06.3688020  0  2                     
G10  20624757.189       17576.235         477.993           0.255  
G15  22793867.578      -53439.607       -3480.429           0.233  
> 2022 01 01 00 01 06.4688020  0  2                     
G10  20624747.167       17626.080         468.418           0.255  
G15  22793934.460      -53788.312       -3488.211           0.232  
> 2022 01 01 00 01 06.5688020  0  2                     
G10  20624737.766       17676.008         494.418           0.254  
G15  22793995.003      -54137.009       -3473.579           0.232  
> 2022 01 01 00 01 06.6688020  0  2                     
G10  20624730.584       17725.870         495.263           0.254  
G15  22794061.548      -54485.686       -3485.549           0.232  
> 2022 01 01 00 01 06.7688020  0  2                     
G10  20624718.476       17775.737         498.076           0.254  
G15  22794131.822      -54834.371       -3487.858           0.232  
> 2022 01 01 00 01 06.8688020  0  2                     
G10  20624707.580       17825.621         504.488           0.255  
G15  22794205.405      -55183.056       -3487.527           0.232  
> 2022 01 01 00 01 06.9688020  0  2                     
G10  20624700.469       17875.518         502.861           0.254  
G15  22794262.916      -55531.751       -3485.524           0.231  
> 2022 01 01 00 01 07.0688020  0  2                     
G10  20624689.518       17925.386         502.502           0.254  
G15  22794334.585      -55880.445       -3487.505           0.231  
> 2022 01 01 00 01 07.1688020  0  2                     
G10  20624681.154       17975.255         498.790           0.254  
G15  22794396.865      -56229.130       -3489.740           0.231  
> 2022 01 01 00 01 07.2688020  0  2                     
G10  20624670.522       18025.121         497.203           0.255  
G15  22794467.605      -56577.810       -3487.291           0.232  
> 2022 01 01 00 01 07.3688020  0  2                     
G10  20624662.303       18075.029         493.375           0.254  
G15  22794530.219      -56926.322       -3269.027           0.233  
> 2022 01 01 00 01 07.4688020  0  2                     
G10  20624650.697       18124.899         495.931           0.254  
G15  22794597.922      -57275.187       -3483.333           0.233  
> 2022 01 01 00 01 07.5688020  0  2                     
G10  20624644.453       18174.760         496.151           0.254  
G15  22794663.063      -57623.867       -3484.733           0.232  
> 2022 01 01 00 01 07.6688020  0  2                     
G10  20624634.490       18224.635         501.965           0.254  
G15  22794728.715      -57972.569       -3492.110           0.232  
> 2022 01 01 00 01 07.7688020  0  2                     
G10  20624624.426       18274.548         504.409           0.254  
G15  22794800.193      -58321.255       -3492.194           0.231  
> 2022 01 01 00 01 07.8688020  0  2                     
G10  20624614.201       18324.418         500.646           0.254  
G15  22794862.335      -58669.932       -3484.971           0.231  
> 2022 01 01 00 01 07.9688020  0  2                     
G10  20624604.205       18374.272         500.483           0.254  
G15  22794930.054      -59018.609       -3044.988           0.232  
> 2022 01 01 00 01 08.0688020  0  2                     
G10  20624594.336       18424.148         498.747           0.254  
G15  22794996.571      -59367.295       -3492.082           0.232  
> 2022 01 01 00 01 08.1688020  0  2                     
G10  20624585.235       18474.052         493.886           0.255  
G15  22795067.628      -59715.979       -3487.920           0.231  
> 2022 01 01 00 01 08.2688020  0  2                     
G10  20624576.924       18523.976         589.307           0.254  
G15  22795126.941      -60064.660       -3484.854           0.233  
> 2022 01 01 00 01 08.3688020  0  2                     
G10  20624567.024       18573.788         496.566           0.254  
G15  22795191.593      -60413.350       -3491.227           0.231  
> 2022 01 01 00 01 08.4688020  0  2                     
G10  20624557.456       18623.657         497.513           0.255  
G15  22795262.977      -60762.022       -3486.490           0.233  
> 2022 01 01 00 01 08.5688020  0  2                     
G10  20624547.027       18673.575         500.830           0.254  
G15  22795328.886      -61110.708       -3485.934           0.231  
> 2022 01 01 00 01 08.6688020  0  2                     
G10  20624537.587       18723.442         502.517           0.255  
G15  22795394.770      -61459.371       -3483.169           0.232  
> 2022 01 01 00 01 08.7688020  0  2                     
G10  20624528.972       18773.363         556.806           0.255  
G15  22795458.623      -61816.612      -28655.766           0.232  
> 2022 01 01 00 01 08.8688020  0  2                     
G10  20624518.999       18823.195         502.428           0.255  
G15  22795530.433      -62156.739       -3481.155           0.232  
> 2022 01 01 00 01 08.9688020  0  2                     
G10  20624509.854       18873.228         947.907           0.254  
G15  22795598.220      -62505.429       -3484.744           0.232  
> 2022 01 01 00 01 09.0688020  0  2                     
G10  20624499.721       18922.984         494.161           0.254  
G15  22795662.111      -62854.119       -3500.938           0.232  
> 2022 01 01 00 01 09.1688020  0  2                     
G10  20624491.024       18972.860         493.647           0.254  
G15  22795725.220      -63202.773       -3485.610           0.232  
> 2022 01 01 00 01 09.2688020  0  2                     
G10  20624480.300       19022.729         498.022           0.254  
G15  22795791.768      -63551.458       -3490.157           0.232  
> 2022 01 01 00 01 09.3688020  0  2                     
G10  20624471.271       19072.605         499.228           0.254  
G15  22795857.379      -63900.121       -3488.073           0.232  
> 2022 01 01 00 01 09.4688020  0  2                     
G10  20624462.198       19122.515         501.654           0.254  
G15  22795923.534      -64248.807       -3488.271           0.232  
> 2022 01 01 00 01 09.5688020  0  2                     
G10  20624453.561       19172.348         404.844           0.254  
G15  22795991.596      -64597.463       -3485.109           0.232  
> 2022 01 01 00 01 09.6688020  0  2                     
G10  20624444.881       19222.270         498.809           0.254  
G15  22796056.285      -64946.158       -3486.759           0.231  
> 2022 01 01 00 01 09.7688020  0  2                     
G10  20624433.393       19272.151         499.416           0.255  
G15  22796122.930      -65294.836       -3486.722           0.232  
> 2022 01 01 00 01 09.8688020  0  2                     
G10  20624424.563       19322.056         493.229           0.254  
G15  22796191.454      -65643.508       -3484.092           0.231  
> 2022 01 01 00 01 09.9688020  0  2                     
G10  20624415.585       19371.932         494.929           0.254  
G15  22796257.847      -65992.184       -3487.774           0.232  
> 2022 01 01 00 01 10.0688020  0  2                     
G10  20624405.698       19421.813         498.364           0.254  
G15  22796321.161      -66340.856       -3481.000           0.232  
> 2022 01 01 00 01 10.1688020  0  2                     
G10  20624395.319       19471.733         522.026           0.255  
G15  22796389.914      -66689.537       -3488.111           0.232  
> 2022 01 01 00 01 10.2688020  0  2                     
G10  20624385.472       19521.596         503.651           0.254  
G15  22796458.104      -67038.198       -3481.854           0.232  
> 2022 01 01 00 01 10.3688020  0  2                     
G10  20624377.749       19571.481         502.046           0.254  
G15  22796519.735      -67386.879       -3485.038           0.231  
> 2022 01 01 00 01 10.4688020  0  2                     
G10  20624366.595       19621.100         -23.066           0.254  
G15  22796587.526      -67713.705       13489.281           0.231  
> 2022 01 01 00 01 10.5688020  0  2                     
G10  20624357.493       19671.198         417.740           0.255  
G15  22796654.607      -68084.208       -3491.795           0.233  
> 2022 01 01 00 01 10.6688020  0  2                     
G10  20624347.682       19721.110         498.265           0.254  
G15  22796723.626      -68432.883       -3512.698           0.232  
> 2022 01 01 00 01 10.7688020  0  2                     
G10  20624337.668       19771.021         493.047           0.254  
G15  22796787.769      -68781.559       -3489.384           0.232  
> 2022 01 01 00 01 10.8688020  0  2                     
G10  20624330.591       19820.903         496.944           0.254  
G15  22796856.095      -69130.223       -3488.718           0.232  
> 2022 01 01 00 01 10.9688020  0  2                     
G10  20624320.146       19870.866         600.236           0.254  
G15  22796917.596      -69478.883       -3479.621           0.231  
> 2022 01 01 00 01 11.0688020  0  2                     
G10  20624311.844       19920.671         497.247           0.255  
G15  22796985.748      -69827.573       -3489.677           0.232  
> 2022 01 01 00 01 11.1688020  0  2                     
G10  20624301.257       19970.593         504.004           0.254  
G15  22797051.977      -70176.233       -3483.126           0.232  
> 2022 01 01 00 01 11.2688020  0  2                     
G10  20624292.131       20020.322         218.726           0.254  
G15  22797116.163      -70524.914       -3487.096           0.232  
> 2022 01 01 00 01 11.3688020  0  2                     
G10  20624280.846       20070.240         229.277           0.254  
G15  22797189.167      -70873.572       -3488.940           0.231  
> 2022 01 01 00 01 11.4688020  0  2                     
G10  20624271.039       20120.238         499.133           0.255  
G15  22797252.798      -71222.225       -3487.271           0.232  
> 2022 01 01 00 01 11.5688020  0  2                     
G10  20624263.090       20170.121         499.511           0.254  
G15  22797316.334      -71570.905       -3487.934           0.231  
> 2022 01 01 00 01 11.6688020  0  2                     
G10  20624252.353       20220.529        1424.491           0.254  
G15  22797387.117      -71927.768      -18274.930           0.232  
> 2022 01 01 00 01 11.7688020  0  2                     
G10  20624243.351       20269.922         495.235           0.254  
G15  22797454.975      -72268.229       -3484.245           0.232  
> 2022 01 01 00 01 11.8688020  0  2                     
G10  20624234.890       20319.784         469.282           0.254  
G15  22797516.229      -72616.883       -3488.683           0.231  
> 2022 01 01 00 01 11.9688020  0  2                     
G10  20624224.884       20369.682         497.922           0.255  
G15  22797582.120      -72965.563       -3489.434           0.232  
> 2022 01 01 00 01 12.0688020  0  2                     
G10  20624216.146       20419.600         505.023           0.254  
G15  22797649.692      -73314.201       -3488.209           0.232  
> 2022 01 01 00 01 12.1688020  0  2                     
G10  20624206.997       20469.489         501.667           0.254  
G15  22797718.949      -73662.862       -3473.212           0.232  
> 2022 01 01 00 01 12.2688020  0  2                     
G10  20624196.439       20519.339         429.500           0.254  
G15  22797777.465      -74011.533       -3490.045           0.232  
> 2022 01 01 00 01 12.3688020  0  2                     
G10  20624186.242       20569.244         501.544           0.255  
G15  22797856.945      -74360.190       -3485.496           0.232  
> 2022 01 01 00 01 12.4688020  0  2                     
G10  20624177.918       20619.187         567.124           0.255  
G15  22797915.907      -74706.803        5376.093           0.232  
> 2022 01 01 00 01 12.5688020  0  2                     
G10  20624167.404       20669.019         435.166           0.254  
G15  22797980.089      -75057.519       -3484.321           0.231  
> 2022 01 01 00 01 12.6688020  0  2                     
G10  20624158.375       20718.934         495.295           0.254  
G15  22798050.346      -75406.180       -3493.821           0.232  
> 2022 01 01 00 01 12.7688020  0  2                     
G10  20624148.298       20768.824         495.769           0.254  
G15  22798109.653      -75754.836       -3484.102           0.231  
> 2022 01 01 00 01 12.8688020  0  2                     
G10  20624141.488       20818.719         496.147           0.254  
G15  22798175.195      -76103.491       -3489.340           0.233  
> 2022 01 01 00 01 12.9688020  0  2                     
G10  20624129.298       20868.607         499.087           0.255  
G15  22798249.287      -76452.143       -3489.235           0.232  
> 2022 01 01 00 01 13.0688020  0  2                     
G10  20624121.392       20918.449         366.789           0.254  
G15  22798313.868      -76800.804       -3485.524           0.232  
> 2022 01 01 00 01 13.1688020  0  2                     
G10  20624110.302       20968.418         501.791           0.254  
G15  22798380.306      -77149.464       -3483.432           0.232  
> 2022 01 01 00 01 13.2688020  0  2                     
G10  20624101.912       21018.492         788.011           0.254  
G15  22798446.822      -77497.326        8620.393           0.232  
> 2022 01 01 00 01 13.3688020  0  2                     
G10  20624091.972       21068.194         501.053           0.254  
G15  22798513.507      -77846.787       -3489.318           0.232  
> 2022 01 01 00 01 13.4688020  0  2                     
G10  20624080.287       21117.651        -316.898           0.255  
G15  22798585.005      -78178.851       34876.402           0.232  
> 2022 01 01 00 01 13.5688020  0  2                     
G10  20624072.128       21168.004         494.452           0.254  
G15  22798645.071      -78544.088       -3483.062           0.232  
> 2022 01 01 00 01 13.6688020  0  2                     
G10  20624066.662       21217.895         495.818           0.254  
G15  22798702.482      -78892.751       -3485.022           0.232  
> 2022 01 01 00 01 13.7688020  0  2                     
G10  20624053.577       21267.726         387.177           0.254  
G15  22798774.953      -79241.398       -3489.843           0.230  
> 2022 01 01 00 01 13.8688020  0  2                     
G10  20624043.403       21317.681         502.920           0.255  
G15  22798846.221      -79590.058       -3487.145           0.231  
> 2022 01 01 00 01 13.9688020  0  2                     
G10  20624036.138       21367.594         503.203           0.254  
G15  22798909.636      -79938.706       -3483.698           0.232  
> 2022 01 01 00 01 14.0688020  0  2                     
G10  20624026.042       21417.522         565.309           0.254  
G15  22798974.629      -80287.337       -3482.363           0.233  
> 2022 01 01 00 01 14.1688020  0  2                     
G10  20624016.262       21467.451         620.922           0.254  
G15  22799045.203      -80636.007       -3488.634           0.232  
> 2022 01 01 00 01 14.2688020  0  2                     
G10  20624005.954                                           0.254  
G15  22799112.107      -80984.836       -3483.090           0.232  
> 2022 01 01 00 01 14.3688020  0  2                     
G10  20623998.503                                           0.255  
G15  22799176.979      -81333.475       -3483.136           0.231  
> 2022 01 01 00 01 14.4688020  0  2                     
G10  20623987.550       21617.081         496.493           0.254  
G15  22799242.209      -81681.963       -3489.102           0.231  
> 2022 01 01 00 01 14.5688020  0  2                     
G10  20623978.696       21666.967         495.330           0.254  
G15  22799304.733      -82030.623       -3492.432           0.232  
> 2022 01 01 00 01 14.6688020  0  2                     
G10  20623968.057       21716.913         620.078           0.254  
G15  22799376.841      -82379.266       -3487.718           0.232  
> 2022 01 01 00 01 14.7688020  0  2                     
G10  20623959.675       21766.755         499.362           0.254  
G15  22799442.479      -82727.902       -3487.982           0.231  
> 2022 01 01 00 01 14.8688020  0  2                     
G10  20623949.658       21816.655         499.827           0.255  
G15  22799512.877      -83076.552       -3482.640           0.232  
> 2022 01 01 00 01 14.9688020  0  2                     
G10  20623939.911       21866.615         556.965           0.254  
G15  22799575.011      -83425.196       -3485.551           0.232  
> 2022 01 01 00 01 15.0688020  0  2                     
G10  20623932.348       21916.493         531.410           0.254  
G15  22799636.065      -83773.856       -3490.397           0.232  
> 2022 01 01 00 01 15.1688020  0  2                     
G10  20623921.422       21966.427         705.587           0.254  
G15  22799708.303      -84122.506       -3485.361           0.232  
> 2022 01 01 00 01 15.2688020  0  2                     
G10  20623912.911       22016.265         500.591           0.255  
G15  22799772.432      -84471.246       -3702.924           0.232  
> 2022 01 01 00 01 15.3688020  0  2                     
G10  20623901.905       22066.162         495.238           0.254  
G15  22799842.271      -84819.792       -3485.792           0.232  
> 2022 01 01 00 01 15.4688020  0  2                     
G10  20623892.963       22116.154         620.790           0.255  
G15  22799908.101      -85168.430       -3485.311           0.232  
> 2022 01 01 00 01 15.5688020  0  2                     
G10  20623881.386       22165.991         496.505           0.254  
G15  22799973.425      -85517.080       -3489.925           0.232  
> 2022 01 01 00 01 15.6688020  0  2                     
G10  20623873.322       22215.890         498.685           0.254  
G15  22800044.228      -85865.724       -3482.073           0.232  
> 2022 01 01 00 01 15.7688020  0  2                     
G10  20623862.759       22265.780         495.001           0.254  
G15  22800107.635      -86214.370       -3486.618           0.232  
> 2022 01 01 00 01 15.8688020  0  2                     
G10  20623854.175       22315.676         496.392           0.255  
G15  22800171.470      -86563.026       -3491.977           0.232  
> 2022 01 01 00 01 15.9688020  0  2                     
G10  20623845.415                                           0.255  
G15  22800238.191      -86911.848       -3497.399           0.232  
> 2022 01 01 00 01 16.0688020  0  2                     
G10  20623837.367       22415.501         505.830           0.254  
G15  22800301.876      -87260.303       -3485.235           0.232  
> 2022 01 01 00 01 16.1688020  0  2                     
G10  20623824.552       22465.402         503.434           0.254  
G15  22800374.110      -87608.951       -3487.110           0.232  
> 2022 01 01 00 01 16.2688020  0  2                     
G10  20623816.277       22515.241         392.596           0.254  
G15  22800436.131      -87957.581       -3487.315           0.231  
> 2022 01 01 00 01 16.3688020  0  2                     
G10  20623809.482       22565.190         500.917           0.255  
G15  22800501.603      -88306.217       -3485.868           0.232  
> 2022 01 01 00 01 16.4688020  0  2                     
G10  20623795.438                                           0.254  
G15  22800567.540      -88655.053       -3489.442           0.232  
> 2022 01 01 00 01 16.5688020  0  2                     
G10  20623787.546       22665.015         495.856           0.254  
G15  22800640.256      -89003.498       -3490.783           0.231  
> 2022 01 01 00 01 16.6688020  0  2                     
G10  20623777.871       22714.941         578.709           0.254  
G15  22800703.030      -89352.123       -3487.870           0.231  
> 2022 01 01 00 01 16.7688020  0  2                     
G10  20623769.032                                           0.254  
G15  22800767.804      -89700.971       -3496.341           0.232  
> 2022 01 01 00 01 16.8688020  0  2                     
G10  20623757.437       22814.713         499.950           0.254  
G15  22800832.947      -90049.409       -3484.022           0.232  
> 2022 01 01 00 01 16.9688020  0  2                     
G10  20623750.323       22864.616         499.597           0.254  
G15  22800901.827      -90398.051       -3486.132           0.231  
> 2022 01 01 00 01 17.0688020  0  2                     
G10  20623740.620       22914.487         380.646           0.254  
G15  22800964.887      -90746.687       -3483.676           0.232  
> 2022 01 01 00 01 17.1688020  0  2                     
G10  20623731.940       22964.452         501.051           0.254  
G15  22801033.248      -91095.332       -3487.486           0.232  
> 2022 01 01 00 01 17.2688020  0  2                     
G10  20623722.214       23014.360         501.168           0.254  
G15  22801101.049      -91443.959       -3486.020           0.232  
> 2022 01 01 00 01 17.3688020  0  2                     
G10  20623711.227       23064.260         500.966           0.255  
G15  22801163.805      -91792.592       -3485.574           0.232  
> 2022 01 01 00 01 17.4688020  0  2                     
G10  20623701.958       23114.161         499.921           0.255  
G15  22801235.489      -92141.226       -3485.872           0.232  
> 2022 01 01 00 01 17.5688020  0  2                     
G10  20623692.693       23164.091         491.664           0.254  
G15  22801297.561      -92489.857       -3481.062           0.232  
> 2022 01 01 00 01 17.6688020  0  2                     
G10  20623682.033       23214.002         495.277           0.254  
G15  22801370.156      -92838.492       -3485.313           0.232  
> 2022 01 01 00 01 17.7688020  0  2                     
G10  20623673.305       23263.893         493.440           0.254  
G15  22801432.751      -93187.128       -3486.905           0.231  
> 2022 01 01 00 01 17.8688020  0  2                     
G10  20623663.982       23313.797         498.118           0.254  
G15  22801495.406      -93535.761       -3488.225           0.232  
> 2022 01 01 00 01 17.9688020  0  2                     
G10  20623655.099       23363.702         497.701           0.255  
G15  22801567.072      -93884.381       -3487.179           0.232  
> 2022 01 01 00 01 18.0688020  0  2                     
G10  20623646.315       23413.604         499.806           0.255  
G15  22801630.669      -94233.020       -3489.811           0.232  
> 2022 01 01 00 01 18.1688020  0  2                     
G10  20623634.289       23463.548         501.274           0.254  
G15  22801697.328      -94581.671       -3482.701           0.232  
> 2022 01 01 00 01 18.2688020  0  2                     
G10  20623626.109       23513.388         373.704           0.254  
G15  22801767.492      -94930.284       -3482.960           0.232  
> 2022 01 01 00 01 18.3688020  0  2                     
G10  20623614.942       23563.353         501.033           0.254  
G15  22801832.594      -95278.935       -3488.816           0.232  
> 2022 01 01 00 01 18.4688020  0  2                     
G10  20623608.269       23613.242         489.355           0.254  
G15  22801893.438      -95627.539       -3483.975           0.231  
> 2022 01 01 00 01 18.5688020  0  2                     
G10  20623598.197       23663.153         499.221           0.255  
G15  22801961.722      -95976.200       -3487.846           0.232  
> 2022 01 01 00 01 18.6688020  0  2                     
G10  20623589.772       23713.086         492.780           0.255  
G15  22802031.348      -96324.822       -3492.239           0.232  
> 2022 01 01 00 01 18.7688020  0  2                     
G10  20623579.189       23762.996         496.909           0.253  
G15  22802092.252      -96673.439       -3488.571           0.232  
> 2022 01 01 00 01 18.8688020  0  2                     
G10  20623569.125       23812.960         603.714           0.254  
G15  22802163.717      -97022.048       -3491.246           0.232  
> 2022 01 01 00 01 18.9688020  0  2                     
G10  20623561.932       23862.820         495.858           0.254  
G15  22802224.955      -97370.689       -3488.685           0.231  
> 2022 01 01 00 01 19.0688020  0  2                     
G10  20623550.881       23912.724         496.718           0.255  
G15  22802295.211      -97719.307       -3483.968           0.232  
> 2022 01 01 00 01 19.1688020  0  2                     
G10  20623540.552       23962.641         499.140           0.255  
G15  22802360.215      -98067.943       -3483.902           0.232  
> 2022 01 01 00 01 19.2688020  0  2                     
G10  20623532.487       24012.582         504.728           0.254  
G15  22802426.077      -98416.559       -3479.862           0.232  
> 2022 01 01 00 01 19.3688020  0  2                     
G10  20623521.668       24062.482         501.686           0.254  
G15  22802492.180      -98765.186       -3482.680           0.232  
> 2022 01 01 00 01 19.4688020  0  2                     
G10  20623511.108       24112.389         501.017           0.254  
G15  22802559.586      -99113.819       -3485.400           0.232  
> 2022 01 01 00 01 19.5688020  0  2                     
G10  20623505.155       24162.301         503.007           0.254  
G15  22802622.518      -99462.436       -3492.044           0.232  
> 2022 01 01 00 01 19.6688020  0  2                     
G10  20623493.229       24212.215         503.610           0.254  
G15  22802698.309      -99811.079       -3489.955           0.232  
> 2022 01 01 00 01 19.7688020  0  2                     
G10  20623484.693       24262.118         497.953           0.255  
G15  22802757.419     -100159.674       -3486.272           0.232  
> 2022 01 01 00 01 19.8688020  0  2                     
G10  20623475.352       24312.043         445.882           0.254  
G15  22802828.705     -100508.312       -3488.829           0.232  
> 2022 01 01 00 01 19.9688020  0  2                     
G10  20623465.143       24361.971         498.320           0.254  
G15  22802893.946     -100856.922       -3486.533           0.233  
> 2022 01 01 00 01 20.0688020  0  2                     
G10  20623455.847       24411.879         495.678           0.254  
G15  22802952.979     -101205.553       -3483.143           0.232  
> 2022 01 01 00 01 20.1688020  0  2                     
G10  20623446.336       24461.787         497.974           0.254  
G15  22803020.868     -101554.161       -3480.739           0.232  
> 2022 01 01 00 01 20.2688020  0  2                     
G10  20623438.495       24511.695         498.439           0.254  
G15  22803085.921     -101902.791       -3486.684           0.232  
> 2022 01 01 00 01 20.3688020  0  2                     
G10  20623425.045       24561.609         501.080           0.255  
G15  22803157.064     -102251.411       -3486.006           0.232  
> 2022 01 01 00 01 20.4688020  0  2                     
G10  20623417.427       24611.557         502.178           0.254  
G15  22803222.088     -102600.032       -3487.170           0.232  
> 2022 01 01 00 01 20.5688020  0  2                     
G10  20623408.015       24661.446         469.517           0.254  
G15  22803290.342     -102948.642       -3487.040           0.232  
> 2022 01 01 00 01 20.6688020  0  2                     
G10  20623398.733       24711.364         501.265           0.254  
G15  22803357.675     -103297.273       -3487.052           0.232  
> 2022 01 01 00 01 20.7688020  0  2                     
G10  20623389.255                                           0.254  
G15  22803423.549     -103646.111       -3499.466           0.232  
> 2022 01 01 00 01 20.8688020  0  2                     
G10  20623380.855       24811.206         525.490           0.255  
G15  22803485.251     -103994.500       -3488.477           0.232  
> 2022 01 01 00 01 20.9688020  0  2                     
G10  20623367.331       24861.114         499.908           0.254  
G15  22803549.070     -104343.119       -3490.974           0.232  
> 2022 01 01 00 01 21.1688020  0  2                     
G10  20623351.331       24960.973         496.557           0.254  
G15  22803691.260     -105040.341       -3488.984           0.232  
> 2022 01 01 00 01 21.2688020  0  2                     
G10  20623343.204       25010.887         497.167           0.254  
G15  22803750.665     -105388.947       -3487.690           0.231  
> 2022 01 01 00 01 21.3688020  0  2                     
G10  20623332.024       25061.084         894.032           0.254  
G15  22803822.291     -105729.670       10425.070           0.232  
> 2022 01 01 00 01 21.4688020  0  2                     
G10  20623321.643       25110.723         499.584           0.254  
G15  22803889.982     -106086.191       -3485.466           0.232  
> 2022 01 01 00 01 21.5688020  0  2                     
G10  20623312.031       25160.638         496.643           0.255  
G15  22803956.264     -106434.803       -3485.254           0.232  
> 2022 01 01 00 01 21.6688020  0  2                     
G10  20623306.182       25210.592         504.131           0.254  
G15  22804016.844     -106783.413       -3487.733           0.232  
> 2022 01 01 00 01 21.7688020  0  2                     
G10  20623293.576       25260.409         296.729           0.254  
G15  22804087.705     -107132.027       -3486.004           0.231  
> 2022 01 01 00 01 21.8688020  0  2                     
G10  20623285.612       25310.418         497.981           0.254  
G15  22804151.833     -107480.645       -3483.364           0.232  
> 2022 01 01 00 01 21.9688020  0  2                     
G10  20623275.250       25360.332         502.624           0.254  
G15  22804219.506     -107829.253       -3484.174           0.231  
> 2022 01 01 00 01 22.0688020  0  2                     
G10  20623264.565       25410.255         499.244           0.255  
G15  22804286.901     -108177.861       -3485.434           0.232  
> 2022 01 01 00 01 22.1688020  0  2                     
G10  20623257.148       25460.158         497.826           0.254  
G15  22804349.649     -108526.461       -3485.224           0.231  
> 2022 01 01 00 01 22.2688020  0  2                     
G10  20623245.687       25509.482        -650.487           0.254  
G15  22804420.020     -108872.507       10718.106           0.232  
> 2022 01 01 00 01 22.3688020  0  2                     
G10  20623237.950       25559.947         326.991           0.254  
G15  22804483.445     -109223.668       -3485.044           0.232  
> 2022 01 01 00 01 22.4688020  0  2                     
G10  20623227.542       25609.942         495.832           0.254  
G15  22804549.059     -109572.293       -3483.947           0.232  
> 2022 01 01 00 01 22.6688020  0  2                     
G10  20623211.335       25709.779         499.368           0.254  
G15  22804674.458     -110269.518       -3490.455           0.232  
> 2022 01 01 00 01 22.7688020  0  2                     
G10  20623198.408       25759.692         496.906           0.254  
G15  22804749.887     -110618.121       -3487.235           0.232  
> 2022 01 01 00 01 22.8688020  0  2                     
G10  20623190.487       25809.535         679.669           0.255  
G15  22804817.274     -110961.358       -2177.907           0.232  
> 2022 01 01 00 01 22.9688020  0  2                     
G10  20623179.602       25859.419         247.781           0.254  
G15  22804885.905     -111315.339       -3487.516           0.231  
> 2022 01 01 00 01 23.0688020  0  2                     
G10  20623172.122       25909.493         501.621           0.254  
G15  22804948.057     -111663.882       -3524.446           0.232  
> 2022 01 01 00 01 23.1688020  0  2                     
G10  20623161.859       25959.291         230.506           0.254  
G15  22805012.402     -112012.541       -3489.323           0.232  
> 2022 01 01 00 01 23.2688020  0  2                     
G10  20623150.537       26009.341         497.354           0.255  
G15  22805086.463     -112361.134       -3487.396           0.233  
> 2022 01 01 00 01 23.3688020  0  2                     
G10  20623140.955       26059.261         503.816           0.254  
G15  22805148.251     -112709.745       -3489.670           0.232  
> 2022 01 01 00 01 23.4688020  0  2                     
G10  20623132.671       26109.162         467.671           0.255  
G15  22805215.393     -113058.333       -3489.076           0.232  
> 2022 01 01 00 01 23.5688020  0  2                     
G10  20623122.719       26159.109         497.692           0.255  
G15  22805280.090     -113406.978       -3489.907           0.232  
> 2022 01 01 00 01 23.6688020  0  2                     
G10  20623113.440       26209.059         495.425           0.254  
G15  22805349.121     -113755.565       -3486.897           0.232  
> 2022 01 01 00 01 23.7688020  0  2                     
G10  20623104.604       26258.986         493.649           0.254  
G15  22805407.411     -114104.164       -3489.449           0.231  
> 2022 01 01 00 01 23.8688020  0  2                     
G10  20623095.341       26308.895         497.066           0.254  
G15  22805478.918     -114452.737       -3487.797           0.232  
> 2022 01 01 00 01 23.9688020  0  2                     
G10  20623085.738       26358.694         287.420           0.254  
G15  22805543.336     -114801.355       -3486.372           0.232  
> 2022 01 01 00 01 24.0688020  0  2                     
G10  20623076.234       26408.741         495.496           0.255  
G15  22805612.012     -115149.944       -3481.995           0.232  
> 2022 01 01 00 01 24.1688020  0  2                     
G10  20623065.649       26458.671         501.762           0.255  
G15  22805678.142     -115498.553       -3483.464           0.232  
> 2022 01 01 00 01 24.2688020  0  2                     
G10  20623056.382       26508.521         354.286           0.255  
G15  22805743.155     -115847.144       -3479.557           0.232  
> 2022 01 01 00 01 24.3688020  0  2                     
G10  20623048.686       26558.548         504.323           0.254  
G15  22805807.608     -116195.762       -3481.364           0.232  
> 2022 01 01 00 01 24.4688020  0  2                     
G10  20623036.644                                           0.254  
G15  22805876.810     -116544.609       -3472.427           0.232  
> 2022 01 01 00 01 24.5688020  0  2                     
G10  20623028.894       26658.388         500.261           0.254  
G15  22805943.633     -116892.962       -3490.667           0.231  
> 2022 01 01 00 01 24.7688020  0  2                     
G10  20623009.530       26758.238         498.756           0.254  
G15  22806072.306     -117590.157       -3553.519           0.232  
> 2022 01 01 00 01 24.8688020  0  2                     
G10  20622999.563                                           0.255  
G15  22806141.252     -117938.992       -3483.561           0.232  
> 2022 01 01 00 01 24.9688020  0  2                     
G10  20622990.326       26858.103         500.052           0.255  
G15  22806210.929     -118287.330       -3486.803           0.232  
> 2022 01 01 00 01 25.1688020  0  2                     
G10  20622971.442       26957.988         497.342           0.254  
G15  22806346.226     -118984.533       -3484.949           0.232  
> 2022 01 01 00 01 25.2688020  0  2                     
G10  20622960.814       27008.019         710.452           0.254  
G15  22806406.304     -119333.118       -3486.260           0.232  
> 2022 01 01 00 01 25.3688020  0  2                     
G10  20622952.193       27057.840         497.686           0.254  
G15  22806473.165     -119681.702       -3487.223           0.232  
> 2022 01 01 00 01 25.4688020  0  2                     
G10  20622942.346       27107.776         500.385           0.254  
G15  22806539.480     -120030.291       -3485.805           0.232  
> 2022 01 01 00 01 25.5688020  0  2                     
G10  20622934.140       27157.698         496.605           0.254  
G15  22806606.335     -120378.880       -3480.774           0.232  
> 2022 01 01 00 01 25.7688020  0  2                     
G10  20622916.367       27257.595         503.134           0.254  
G15  22806737.220     -121076.063       -3485.788           0.232  
> 2022 01 01 00 01 25.8688020  0  2                     
G10  20622905.211       27307.459         374.869           0.254  
G15  22806803.483     -121424.662       -3486.925           0.231  
> 2022 01 01 00 01 25.9688020  0  2                     
G10  20622895.345       27357.452         502.625           0.254  
G15  22806870.839     -121773.244       -3483.039           0.232  
> 2022 01 01 00 01 26.0688020  0  2                     
G10  20622885.635       27407.367         482.612           0.254  
G15  22806942.602     -122121.839       -3487.458           0.232  
> 2022 01 01 00 01 26.1688020  0  2                     
G10  20622875.734       27457.308         501.322           0.254  
G15  22807005.576     -122470.434       -3486.081           0.232  
> 2022 01 01 00 01 26.2688020  0  2                     
G10  20622867.123       27507.231         501.357           0.254  
G15  22807074.397     -122819.021       -3487.999           0.232  
> 2022 01 01 00 01 26.3688020  0  2                     
G10  20622857.355       27557.233         577.541           0.255  
G15  22807136.850     -123167.616       -3488.707           0.232  
> 2022 01 01 00 01 26.4688020  0  2                     
G10  20622847.768       27606.870          53.471           0.255  
G15  22807203.062     -123516.201       -3485.060           0.232  
> 2022 01 01 00 01 26.5688020  0  2                     
G10  20622838.010       27657.126         645.786           0.254  
G15  22807269.059     -123864.790       -3487.152           0.232  
> 2022 01 01 00 01 26.6688020  0  2                     
G10  20622829.446       27706.978         500.277           0.254  
G15  22807336.381     -124213.367       -3489.081           0.232  
> 2022 01 01 00 01 26.7688020  0  2                     
G10  20622819.027       27756.915         495.785           0.254  
G15  22807402.876     -124561.955       -3488.644           0.231  
> 2022 01 01 00 01 26.8688020  0  2                     
G10  20622809.836       27806.850         499.909           0.254  
G15  22807468.679     -124910.529       -3490.996           0.231  
> 2022 01 01 00 01 26.9688020  0  2                     
G10  20622799.609       27856.787         498.646           0.254  
G15  22807535.878     -125259.123       -3483.327           0.232  
> 2022 01 01 00 01 27.0688020  0  2                     
G10  20622791.190       27906.717         496.125           0.255  
G15  22807602.147     -125607.669       -3412.129           0.232  
> 2022 01 01 00 01 27.1688020  0  2                     
G10  20622779.592       27956.657         499.320           0.255  
G15  22807669.121     -125956.292       -3478.942           0.231  
> 2022 01 01 00 01 27.2688020  0  2                     
G10  20622772.830       28006.607         507.800           0.255  
G15  22807734.553     -126304.869       -3487.253           0.231  
> 2022 01 01 00 01 27.3688020  0  2                     
G10  20622761.641       28056.207        -179.679           0.254  
G15  22807801.561     -126653.465       -3483.194           0.232  
> 2022 01 01 00 01 27.4688020  0  2                     
G10  20622752.662       28106.426         372.676           0.254  
G15  22807866.082     -127002.031       -3488.334           0.232  
> 2022 01 01 00 01 27.6688020  0  2                     
G10  20622733.098       28206.359         501.658           0.254  
G15  22807998.691     -127699.193       -3487.819           0.232  
> 2022 01 01 00 01 27.7688020  0  2                     
G10  20622724.136       28256.206         224.302           0.254  
G15  22808063.340     -128067.705      -21085.227           0.232  
> 2022 01 01 00 01 27.8688020  0  2                     
G10  20622714.098       28306.230         500.434           0.255  
G15  22808134.000     -128396.346       -3484.109           0.232  
> 2022 01 01 00 01 27.9688020  0  2                     
G10  20622705.728       28356.254         614.989           0.255  
G15  22808196.640     -128744.935       -3487.704           0.232  
> 2022 01 01 00 01 28.0688020  0  2                     
G10  20622695.112       28406.113         499.638           0.255  
G15  22808267.635     -129093.507       -3483.231           0.232  
> 2022 01 01 00 01 28.1688020  0  2                     
G10  20622686.898       28456.066         493.488           0.254  
G15  22808329.557     -129442.085       -3487.064           0.232  
> 2022 01 01 00 01 28.2688020  0  2                     
G10  20622674.934       28506.006         496.324           0.254  
G15  22808401.564     -129790.656       -3457.304           0.232  
> 2022 01 01 00 01 28.3688020  0  2                     
G10  20622668.743       28555.938         496.697           0.254  
G15  22808462.624     -130139.242       -3485.336           0.232  
> 2022 01 01 00 01 28.4688020  0  2                     
G10  20622658.219       28605.906         566.604           0.254  
G15  22808530.958     -130487.837       -3490.492           0.232  
> 2022 01 01 00 01 28.5688020  0  2                     
G10  20622648.865       28655.810         496.741           0.255  
G15  22808594.390     -130836.398       -3486.098           0.232  
> 2022 01 01 00 01 28.6688020  0  2                     
G10  20622638.693       28705.748         496.808           0.254  
G15  22808659.717     -131184.994       -3488.807           0.231  
> 2022 01 01 00 01 28.7688020  0  2                     
G10  20622628.865       28755.683         499.320           0.255  
G15  22808731.100     -131533.816       -3894.091           0.231  
> 2022 01 01 00 01 28.8688020  0  2                     
G10  20622620.048       28805.632         497.058           0.255  
G15  22808792.631     -131882.128       -3483.707           0.231  
> 2022 01 01 00 01 28.9688020  0  2                     
G10  20622610.280       28855.602         503.010           0.254  
G15  22808863.108     -132230.690       -3477.298           0.232  
> 2022 01 01 00 01 29.0688020  0  2                     
G10  20622602.046       28905.553         505.378           0.254  
G15  22808925.969     -132579.282       -3480.106           0.232  
> 2022 01 01 00 01 29.1688020  0  2                     
G10  20622589.902       28955.485         502.918           0.254  
G15  22808998.215     -132927.844       -3490.354           0.232  
> 2022 01 01 00 01 29.2688020  0  2                     
G10  20622581.563       29005.429         501.830           0.254  
G15  22809058.824     -133276.419       -3479.298           0.232  
> 2022 01 01 00 01 29.3688020  0  2                     
G10  20622571.916       29055.375         499.923           0.254  
G15  22809130.122     -133624.987       -3487.112           0.232  
> 2022 01 01 00 01 29.4688020  0  2                     
G10  20622563.479       29105.307         498.483           0.254  
G15  22809191.905     -133973.559       -3486.255           0.232  
> 2022 01 01 00 01 29.5688020  0  2                     
G10  20622552.623                                           0.254  
G15  22809263.780     -134322.424       -3490.517           0.232  
> 2022 01 01 00 01 29.6688020  0  2                     
G10  20622543.469       29205.193         496.700           0.255  
G15  22809325.039     -134670.703       -3485.626           0.232  
> 2022 01 01 00 01 29.7688020  0  2                     
G10  20622534.028       29255.135         498.333           0.255  
G15  22809393.632     -135019.269       -3483.231           0.232  
> 2022 01 01 00 01 29.8688020  0  2                     
G10  20622524.445       29305.105         495.070           0.254  
G15  22809458.947     -135367.851       -3487.478           0.231  
> 2022 01 01 00 01 29.9688020  0  2                     
G10  20622514.437       29355.046         496.218           0.254  
G15  22809525.299     -135716.410       -3483.763           0.231  
> 2022 01 01 00 01 30.0688020  0  2                     
G10  20622505.248       29404.993         494.475           0.254  
G15  22809592.793     -136064.984       -3483.665           0.232  
> 2022 01 01 00 01 30.3688020  0  2                     
G10  20622476.377       29554.814         498.352           0.254  
G15  22809789.269     -137110.668       -3482.652           0.232  
> 2022 01 01 00 01 30.4688020  0  2                     
G10  20622467.349       29604.758         500.960           0.254  
G15  22809860.205     -137459.250       -3487.164           0.232  
> 2022 01 01 00 01 30.5688020  0  2                     
G10  20622458.602       29654.698         498.662           0.255  
G15  22809924.836     -137807.815       -3556.863           0.232  
> 2022 01 01 00 01 30.6688020  0  2                     
G10  20622447.773       29704.621         462.406           0.255  
G15  22809995.920     -138156.375       -3486.644           0.232  
> 2022 01 01 00 01 30.7688020  0  2                     
G10  20622440.013       29754.612         507.623           0.254  
G15  22810056.302     -138504.946       -3489.948           0.232  
> 2022 01 01 00 01 30.9688020  0  2                     
G10  20622420.507       29854.520         503.371           0.254  
G15  22810187.594     -139202.074       -3486.954           0.232  
> 2022 01 01 00 01 31.0688020  0  2                     
G10  20622410.299       29904.387         366.896           0.254  
G15  22810253.214     -139550.624       -3485.964           0.232  
> 2022 01 01 00 01 31.1688020  0  2                     
G10  20622400.431       29954.419         504.044           0.254  
G15  22810321.852     -139899.190       -3484.832           0.232  
> 2022 01 01 00 01 31.3688020  0  2                     
G10  20622382.554       30054.319         503.574           0.255  
G15  22810450.167     -140596.324       -3489.441           0.232  
> 2022 01 01 00 01 31.5688020  0  2                     
G10  20622363.210       30154.210         502.113           0.255  
G15  22810588.533     -141293.432       -3484.010           0.232  
> 2022 01 01 00 01 31.6688020  0  2                     
G10  20622352.957       30204.151         498.620           0.255  
G15  22810653.460     -141641.986       -3491.045           0.232  
> 2022 01 01 00 01 31.7688020  0  2                     
G10  20622342.983       30254.110         499.107           0.255  
G15  22810718.354     -141990.561       -3483.731           0.232  
> 2022 01 01 00 01 31.8688020  0  2                     
G10  20622334.195       30304.080         495.870           0.254  
G15  22810785.481     -142339.092       -3484.548           0.232  
> 2022 01 01 00 01 31.9688020  0  2                     
G10  20622325.363       30354.042         514.170           0.254  
G15  22810848.544     -142687.676       -3484.762           0.232  
> 2022 01 01 00 01 32.1688020  0  2                     
G10  20622306.614       30453.926         496.052           0.254  
G15  22810981.999     -143384.792       -3484.164           0.232  
> 2022 01 01 00 01 32.2688020  0  2                     
G10  20622296.050       30503.870         495.302           0.254  
G15  22811052.897     -143733.369       -3532.996           0.232  
> 2022 01 01 00 01 32.3688020  0  2                     
G10  20622287.763       30553.820         495.274           0.254  
G15  22811117.097     -144081.900       -3488.713           0.232  
> 2022 01 01 00 01 32.4688020  0  2                     
G10  20622278.798       30603.768         500.491           0.254  
G15  22811183.574     -144430.442       -3486.404           0.232  
> 2022 01 01 00 01 32.5688020  0  2                     
G10  20622267.221       30653.940         875.986           0.254  
G15  22811252.521     -144779.010       -3486.347           0.232  
> 2022 01 01 00 01 32.6688020  0  2                     
G10  20622258.980       30703.667         500.808           0.255  
G15  22811315.325     -145127.553       -3485.189           0.232  
> 2022 01 01 00 01 32.7688020  0  2                     
G10  20622249.332       30753.623         498.296           0.255  
G15  22811380.429     -145476.125       -3576.200           0.232  
> 2022 01 01 00 01 32.8688020  0  2                     
G10  20622238.132                                           0.254  
G15  22811449.003     -145824.986       -3492.315           0.232  
> 2022 01 01 00 01 33.0688020  0  2                     
G10  20622219.627       30903.522         504.008           0.254  
G15  22811582.221     -146521.777       -3486.972           0.232  
> 2022 01 01 00 01 33.1688020  0  2                     
G10  20622211.722       30953.475         506.057           0.254  
G15  22811643.208     -146870.319       -3488.480           0.232  
> 2022 01 01 00 01 33.2688020  0  2                     
G10  20622200.987       31003.431         503.523           0.254  
G15  22811715.048     -147218.875       -3484.110           0.232  
> 2022 01 01 00 01 33.3688020  0  2                     
G10  20622191.357       31053.381         503.813           0.254  
G15  22811778.989     -147567.423       -3485.901           0.231  
> 2022 01 01 00 01 33.4688020  0  2                     
G10  20622182.369       31103.340         505.903           0.254  
G15  22811846.676     -147915.974       -3481.883           0.231  
> 2022 01 01 00 01 33.5688020  0  2                     
G10  20622172.580       31153.527         646.328           0.254  
G15  22811915.054     -148271.138      -11842.675           0.232  
> 2022 01 01 00 01 33.6688020  0  2                     
G10  20622163.998       31203.241         498.430           0.254  
G15  22811976.826     -148612.965       -3488.363           0.232  
> 2022 01 01 00 01 33.7688020  0  2                     
G10  20622152.513       31253.070         242.962           0.255  
G15  22812049.049     -148961.630       -3483.380           0.232  
> 2022 01 01 00 01 33.9688020  0  2                     
G10  20622135.188       31353.114         499.926           0.255  
G15  22812177.361     -149658.729       -3483.133           0.232  
> 2022 01 01 00 01 34.0688020  0  2                     
G10  20622124.608       31403.094         496.121           0.254  
G15  22812244.805     -150007.265       -3490.708           0.232  
> 2022 01 01 00 01 34.1688020  0  2                     
G10  20622116.369                                           0.254  
G15  22812310.912     -150356.125       -3483.489           0.232  
> 2022 01 01 00 01 34.2688020  0  2                     
G10  20622107.503       31502.998         493.857           0.254  
G15  22812378.724     -150705.204       -5117.465           0.232  
> 2022 01 01 00 01 34.3688020  0  2                     
G10  20622096.699       31552.959         497.816           0.254  
G15  22812443.328     -151052.907       -3485.981           0.232  
> 2022 01 01 00 01 34.4688020  0  2                     
G10  20622087.964       31602.911         495.323           0.254  
G15  22812510.031     -151401.448       -3482.654           0.232  
> 2022 01 01 00 01 34.6688020  0  2                     
G10  20622066.911       31702.822         497.993           0.254  
G15  22812643.281     -152098.535       -3485.307           0.232  
> 2022 01 01 00 01 34.7688020  0  2                     
G10  20622058.864       31752.783         498.201           0.254  
G15  22812705.492     -152447.075       -3485.800           0.232  
> 2022 01 01 00 01 34.8688020  0  2                     
G10  20622048.883       31802.611         239.590           0.254  
G15  22812780.514     -152785.948       18440.674           0.232  
> 2022 01 01 00 01 34.9688020  0  2                     
G10  20622039.683       31852.701         499.022           0.255  
G15  22812839.899     -153144.157       -3483.776           0.232  
> 2022 01 01 00 01 35.1688020  0  2                     
G10  20622020.520       31952.625         497.913           0.255  
G15  22812977.619     -153841.215       -3458.911           0.232  
> 2022 01 01 00 01 35.2688020  0  2                     
G10  20622011.286       32002.597         493.624           0.254  
G15  22813038.409     -154189.782       -3486.184           0.231  
> 2022 01 01 00 01 35.3688020  0  2                     
G10  20622000.527       32052.594         506.083           0.254  
G15  22813109.897     -154538.330       -3489.844           0.231  
> 2022 01 01 00 01 35.4688020  0  2                     
G10  20621991.939       32102.546         504.429           0.254  
G15  22813172.546     -154886.863       -3482.150           0.232  
> 2022 01 01 00 01 35.5688020  0  2                     
G10  20621981.490       32152.510         505.816           0.254  
G15  22813242.265     -155235.403       -3482.759           0.232  
> 2022 01 01 00 01 35.6688020  0  2                     
G10  20621973.551       32202.469         504.186           0.254  
G15  22813306.370     -155583.936       -3484.160           0.232  
> 2022 01 01 00 01 35.7688020  0  2                     
G10  20621964.083       32252.427         501.546           0.254  
G15  22813375.130     -155932.479       -3484.334           0.232  
> 2022 01 01 00 01 35.8688020  0  2                     
G10  20621955.725       32302.391         502.077           0.254  
G15  22813437.752     -156281.016       -3486.480           0.231  
> 2022 01 01 00 01 35.9688020  0  2                     
G10  20621945.073                                           0.254  
G15  22813510.373     -156629.884       -3487.789           0.232  
> 2022 01 01 00 01 36.1688020  0  6                     
G10  22539983.039       32449.061         480.019           0.254  
G15  24731691.984     -157304.350       -3513.746           0.232  
G18  20626728.494       -1745.497        -175.731           0.255  
G23  21993253.011       -7620.984        -379.516           0.255  
G24  22272612.677       -9530.364        -493.135           0.252  
G25  25856782.248        3631.939       -1476.090           0.227  
> 2022 01 01 00 01 36.2688020  0  6                     
G10  22539974.725       32498.988         402.028           0.255  
G15  24731757.180     -157652.901       -3345.617           0.232  
G18  20626729.515       -1751.550          49.116           0.255  
G23  21993259.882       -7658.542        -170.519           0.255  
G24  22272624.557       -9585.566        -273.074           0.252  
G25  25856779.506        3653.002         549.304           0.227  
> 2022 01 01 00 01 36.3688020  0  6                     
G10  22539962.423       32548.979         451.739           0.255  
G15  24731830.353     -158001.415       -3510.267           0.232  
G18  20626730.729       -1757.765         -47.586           0.255  
G23  21993267.628       -7696.242        -308.062           0.255  
G24  22272632.198       -9640.839        -600.179           0.252  
G25  25856776.796        3673.704         536.449           0.227  
> 2022 01 01 00 01 36.6688020  0  6                     
G10  22539935.430       32698.942         521.656           0.254  
G15  24732028.091     -159047.042       -3508.945           0.231  
G18  20626733.694       -1776.218         -62.728           0.255  
G23  21993289.004       -7809.250        -376.860           0.255  
G24  22272665.628       -9806.355         -82.857           0.252  
G25  25856761.737        3734.508         578.504           0.227  
> 2022 01 01 00 01 37.1688020  0  6                     
G10  22539889.062       32948.827         461.730           0.254  
G15  24732356.617     -160787.905       -3510.128           0.232  
G18  20626740.500                                           0.255  
G23  21993325.821       -7997.268        -401.786           0.255  
G24  22272716.729                                           0.252  
G25  25856741.349        3836.470         456.112           0.226  
> 2022 01 01 00 01 37.2688020  0  6                     
G10  22539877.249                                           0.254  
G15  24732423.383                                           0.232  
G18  20626741.155                                           0.255  
G23  21993332.994                                           0.255  
